[{"stop_name":"Agde","stop_lon":3.466203,"stop_lat":43.31728,"transport":["TGV"]},{"stop_name":"Agen","stop_lon":0.620867,"stop_lat":44.207967,"transport":["TGV"]},{"stop_name":"Aix-en-Provence TGV","stop_lon":5.317534,"stop_lat":43.455237,"transport":["TGV"]},{"stop_name":"Aix-les-Bains le Revard","stop_lon":5.909371,"stop_lat":45.688161,"transport":["TGV"]},{"stop_name":"Ancenis","stop_lon":-1.177763,"stop_lat":47.369334,"transport":["TGV"]},{"stop_name":"Angers Saint-Laud","stop_lon":-0.55677,"stop_lat":47.464649,"transport":["TGV"]},{"stop_name":"Angoulême","stop_lon":0.164608,"stop_lat":45.653572,"transport":["TGV"]},{"stop_name":"Annecy","stop_lon":6.121826,"stop_lat":45.902047,"transport":["TGV"]},{"stop_name":"Annemasse","stop_lon":6.236431,"stop_lat":46.199245,"transport":["TGV"]},{"stop_name":"Antibes","stop_lon":7.119913,"stop_lat":43.585971,"transport":["TGV"]},{"stop_name":"Arcachon","stop_lon":-1.165323,"stop_lat":44.658967,"transport":["TGV"]},{"stop_name":"Arles","stop_lon":4.632105,"stop_lat":43.684863,"transport":["TGV"]},{"stop_name":"Arras","stop_lon":2.781314,"stop_lat":50.286971,"transport":["TGV"]},{"stop_name":"Augsburg Hbf","stop_lon":10.886,"stop_lat":48.3654,"transport":["TGV"]},{"stop_name":"Auray","stop_lon":-2.999363,"stop_lat":47.680085,"transport":["TGV"]},{"stop_name":"Avignon Centre","stop_lon":4.805269,"stop_lat":43.941923,"transport":["TGV"]},{"stop_name":"Avignon TGV","stop_lon":4.786136,"stop_lat":43.92194,"transport":["TGV"]},{"stop_name":"Aéroport Charles de Gaulle 2 TGV","stop_lon":2.570812,"stop_lat":49.003618,"transport":["TGV"]},{"stop_name":"BARDONECCHIA","stop_lon":6.709963,"stop_lat":45.076449,"transport":["TGV"]},{"stop_name":"Baden-Baden","stop_lon":8.1909,"stop_lat":48.7903,"transport":["TGV"]},{"stop_name":"Bar-le-Duc","stop_lon":5.167053,"stop_lat":48.773598,"transport":["TGV"]},{"stop_name":"Barcelone-Sants","stop_lon":2.139834,"stop_lat":41.378961,"transport":["TGV"]},{"stop_name":"Basel SBB","stop_lon":7.58956,"stop_lat":47.5474,"transport":["TGV"]},{"stop_name":"Bayonne","stop_lon":-1.470368,"stop_lat":43.496793,"transport":["TGV"]},{"stop_name":"Beaune","stop_lon":4.848423,"stop_lat":47.023014,"transport":["TGV"]},{"stop_name":"Belfort - Montbéliard TGV","stop_lon":6.897984,"stop_lat":47.585105,"transport":["TGV"]},{"stop_name":"Bellegarde","stop_lon":5.823483,"stop_lat":46.109425,"transport":["TGV"]},{"stop_name":"Besançon Franche-Comté TGV","stop_lon":5.953613,"stop_lat":47.307215,"transport":["TGV"]},{"stop_name":"Besançon Viotte","stop_lon":6.021943,"stop_lat":47.247049,"transport":["TGV"]},{"stop_name":"Biarritz","stop_lon":-1.545937,"stop_lat":43.459387,"transport":["TGV"]},{"stop_name":"Biganos Facture","stop_lon":-0.96621,"stop_lat":44.637384,"transport":["TGV"]},{"stop_name":"Bordeaux Saint-Jean","stop_lon":-0.556697,"stop_lat":44.825873,"transport":["TGV"]},{"stop_name":"Boulogne sur Mer","stop_lon":1.609714,"stop_lat":50.715613,"transport":["TGV"]},{"stop_name":"Bourg-en-Bresse","stop_lon":5.215011,"stop_lat":46.200111,"transport":["TGV"]},{"stop_name":"Brest","stop_lon":-4.480306,"stop_lat":48.38762,"transport":["TGV"]},{"stop_name":"Bruxelles Midi","stop_lon":4.336,"stop_lat":50.836,"transport":["TGV"]},{"stop_name":"Béthune","stop_lon":2.640509,"stop_lat":50.521454,"transport":["TGV"]},{"stop_name":"Béziers","stop_lon":3.218895,"stop_lat":43.336295,"transport":["TGV"]},{"stop_name":"CAMP DE TARRAGONA","stop_lon":1.271923,"stop_lat":41.19213,"transport":["TGV"]},{"stop_name":"Calais - Fréthun","stop_lon":1.811178,"stop_lat":50.901247,"transport":["TGV"]},{"stop_name":"Calais Ville","stop_lon":1.850885,"stop_lat":50.953466,"transport":["TGV"]},{"stop_name":"Cannes","stop_lon":7.019711,"stop_lat":43.553908,"transport":["TGV"]},{"stop_name":"Carcassonne","stop_lon":2.351824,"stop_lat":43.218029,"transport":["TGV"]},{"stop_name":"Chalon-sur-Saône","stop_lon":4.843479,"stop_lat":46.781622,"transport":["TGV"]},{"stop_name":"Chambéry - Challes-les-Eaux","stop_lon":5.919547,"stop_lat":45.571302,"transport":["TGV"]},{"stop_name":"Champagne-Ardenne TGV","stop_lon":3.994523,"stop_lat":49.214769,"transport":["TGV"]},{"stop_name":"Charleville-Mézières","stop_lon":4.724344,"stop_lat":49.76763,"transport":["TGV"]},{"stop_name":"Châlons-en-Champagne","stop_lon":4.348656,"stop_lat":48.955252,"transport":["TGV"]},{"stop_name":"Châtellerault","stop_lon":0.549279,"stop_lat":46.818594,"transport":["TGV"]},{"stop_name":"Colmar","stop_lon":7.347756,"stop_lat":48.073527,"transport":["TGV"]},{"stop_name":"Croix - Wasquehal","stop_lon":3.138069,"stop_lat":50.678528,"transport":["TGV"]},{"stop_name":"Dax","stop_lon":-1.050301,"stop_lat":43.720472,"transport":["TGV"]},{"stop_name":"Dijon","stop_lon":5.027256,"stop_lat":47.323411,"transport":["TGV"]},{"stop_name":"Dol-de-Bretagne","stop_lon":-1.750536,"stop_lat":48.54425,"transport":["TGV"]},{"stop_name":"Dole","stop_lon":5.48806,"stop_lat":47.09615,"transport":["TGV"]},{"stop_name":"Douai","stop_lon":3.089958,"stop_lat":50.371673,"transport":["TGV"]},{"stop_name":"Dunkerque","stop_lon":2.368991,"stop_lat":51.03041,"transport":["TGV"]},{"stop_name":"Emmendingen","stop_lon":7.8479,"stop_lat":48.1193,"transport":["TGV"]},{"stop_name":"FIGUERES-VILAFANT","stop_lon":2.943028,"stop_lat":42.264581,"transport":["TGV"]},{"stop_name":"Forbach","stop_lon":6.901318,"stop_lat":49.189228,"transport":["TGV"]},{"stop_name":"Francfort sur le Main","stop_lon":8.6624,"stop_lat":50.1073,"transport":["TGV"]},{"stop_name":"Frasne","stop_lon":6.157767,"stop_lat":46.857596,"transport":["TGV"]},{"stop_name":"Freiburg (Breisgau) Hbf","stop_lon":7.8416,"stop_lat":47.9979,"transport":["TGV"]},{"stop_name":"Futuroscope","stop_lon":0.377209,"stop_lat":46.669918,"transport":["TGV"]},{"stop_name":"GIRONA","stop_lon":2.816957,"stop_lat":41.979371,"transport":["TGV"]},{"stop_name":"Genève","stop_lon":6.14244,"stop_lat":46.21022,"transport":["TGV"]},{"stop_name":"Grenoble","stop_lon":5.714548,"stop_lat":45.191491,"transport":["TGV"]},{"stop_name":"Guingamp","stop_lon":-3.143343,"stop_lat":48.555659,"transport":["TGV"]},{"stop_name":"Hazebrouck","stop_lon":2.541463,"stop_lat":50.724924,"transport":["TGV"]},{"stop_name":"Hendaye","stop_lon":-1.781724,"stop_lat":43.353132,"transport":["TGV"]},{"stop_name":"Hyères","stop_lon":6.124207,"stop_lat":43.108902,"transport":["TGV"]},{"stop_name":"Kaiserslautern Hbf","stop_lon":7.7688,"stop_lat":49.4359,"transport":["TGV"]},{"stop_name":"Karlsruhe Hbf","stop_lon":8.4019,"stop_lat":48.9935,"transport":["TGV"]},{"stop_name":"La Baule-Escoublac","stop_lon":-2.38921,"stop_lat":47.288459,"transport":["TGV"]},{"stop_name":"La Roche-sur-Yon","stop_lon":-1.43566,"stop_lat":46.672075,"transport":["TGV"]},{"stop_name":"La Rochelle","stop_lon":-1.145853,"stop_lat":46.152705,"transport":["TGV"]},{"stop_name":"La Teste","stop_lon":-1.14297,"stop_lat":44.636966,"transport":["TGV"]},{"stop_name":"Lahr (Schwarzw)","stop_lon":7.8353,"stop_lat":48.3406,"transport":["TGV"]},{"stop_name":"Lamballe","stop_lon":-2.511546,"stop_lat":48.46606,"transport":["TGV"]},{"stop_name":"Landerneau","stop_lon":-4.256528,"stop_lat":48.453572,"transport":["TGV"]},{"stop_name":"Lannion","stop_lon":-3.460353,"stop_lat":48.727638,"transport":["TGV"]},{"stop_name":"Lausanne","stop_lon":6.62909,"stop_lat":46.51679,"transport":["TGV"]},{"stop_name":"Laval","stop_lon":-0.760929,"stop_lat":48.076255,"transport":["TGV"]},{"stop_name":"Le Creusot-TGV","stop_lon":4.49943,"stop_lat":46.765339,"transport":["TGV"]},{"stop_name":"Le Croisic","stop_lon":-2.50734,"stop_lat":47.289889,"transport":["TGV"]},{"stop_name":"Le Havre","stop_lon":0.124644,"stop_lat":49.492624,"transport":["TGV"]},{"stop_name":"Le Mans","stop_lon":0.192614,"stop_lat":47.995615,"transport":["TGV"]},{"stop_name":"Le Pouliguen","stop_lon":-2.433126,"stop_lat":47.282504,"transport":["TGV"]},{"stop_name":"Lens","stop_lon":2.828301,"stop_lat":50.426866,"transport":["TGV"]},{"stop_name":"Les Arcs - Draguignan","stop_lon":6.482424,"stop_lat":43.455725,"transport":["TGV"]},{"stop_name":"Les Sables-d'Olonne","stop_lon":-1.781116,"stop_lat":46.500032,"transport":["TGV"]},{"stop_name":"Libourne","stop_lon":-0.236359,"stop_lat":44.915904,"transport":["TGV"]},{"stop_name":"Lille Europe","stop_lon":3.075721,"stop_lat":50.6394,"transport":["TGV"]},{"stop_name":"Lille Flandres","stop_lon":3.06987,"stop_lat":50.636577,"transport":["TGV"]},{"stop_name":"Lorient","stop_lon":-3.366221,"stop_lat":47.755597,"transport":["TGV"]},{"stop_name":"Lorraine TGV","stop_lon":6.169778,"stop_lat":48.947713,"transport":["TGV"]},{"stop_name":"Lourdes","stop_lon":-0.042186,"stop_lat":43.100429,"transport":["TGV"]},{"stop_name":"Lunéville","stop_lon":6.496997,"stop_lat":48.58799,"transport":["TGV"]},{"stop_name":"Luxembourg","stop_lon":6.134722,"stop_lat":49.599722,"transport":["TGV"]},{"stop_name":"Lyon Part Dieu","stop_lon":4.859409,"stop_lat":45.760596,"transport":["TGV"]},{"stop_name":"Lyon Perrache","stop_lon":4.825777,"stop_lat":45.748508,"transport":["TGV"]},{"stop_name":"Lyon Saint-Exupéry TGV","stop_lon":5.074969,"stop_lat":45.721109,"transport":["TGV"]},{"stop_name":"MILANO PORTA GARIBALDI","stop_lon":9.187694,"stop_lat":45.484916,"transport":["TGV"]},{"stop_name":"Madrid Porte d'Atocha","stop_lon":-3.690583,"stop_lat":40.406259,"transport":["TGV"]},{"stop_name":"Mannheim Hbf","stop_lon":8.4696,"stop_lat":49.4794,"transport":["TGV"]},{"stop_name":"Mantes-la-Jolie","stop_lon":1.70337,"stop_lat":48.98984,"transport":["TGV"]},{"stop_name":"Marne-la-Vallée Chessy","stop_lon":2.782626,"stop_lat":48.869898,"transport":["TGV"]},{"stop_name":"Marseille Saint-Charles","stop_lon":5.380407,"stop_lat":43.302666,"transport":["TGV"]},{"stop_name":"Massy TGV","stop_lon":2.261254,"stop_lat":48.725758,"transport":["TGV"]},{"stop_name":"Massy-Palaiseau","stop_lon":2.257528,"stop_lat":48.726421,"transport":["TGV"]},{"stop_name":"Metz","stop_lon":6.177052,"stop_lat":49.109466,"transport":["TGV"]},{"stop_name":"Meuse TGV","stop_lon":5.271024,"stop_lat":48.978583,"transport":["TGV"]},{"stop_name":"Miramas","stop_lon":4.999565,"stop_lat":43.580737,"transport":["TGV"]},{"stop_name":"Modane","stop_lon":6.659139,"stop_lat":45.193555,"transport":["TGV"]},{"stop_name":"Montauban Ville Bourbon","stop_lon":1.341499,"stop_lat":44.01444,"transport":["TGV"]},{"stop_name":"Montbard","stop_lon":4.336212,"stop_lat":47.618741,"transport":["TGV"]},{"stop_name":"Montpellier Saint-Roch","stop_lon":3.880674,"stop_lat":43.604738,"transport":["TGV"]},{"stop_name":"Montpellier Sud de France","stop_lon":3.924009,"stop_lat":43.595146,"transport":["TGV"]},{"stop_name":"Montélimar","stop_lon":4.744726,"stop_lat":44.558936,"transport":["TGV"]},{"stop_name":"Morlaix","stop_lon":-3.832514,"stop_lat":48.57797,"transport":["TGV"]},{"stop_name":"Mouchard","stop_lon":5.799698,"stop_lat":46.976865,"transport":["TGV"]},{"stop_name":"Mulhouse","stop_lon":7.34316,"stop_lat":47.742691,"transport":["TGV"]},{"stop_name":"Munich","stop_lon":11.5587,"stop_lat":48.1401,"transport":["TGV"]},{"stop_name":"Mâcon","stop_lon":4.824887,"stop_lat":46.302572,"transport":["TGV"]},{"stop_name":"Mâcon - Loché TGV","stop_lon":4.778924,"stop_lat":46.282912,"transport":["TGV"]},{"stop_name":"NOVARA","stop_lon":8.624913,"stop_lat":45.451371,"transport":["TGV"]},{"stop_name":"Nancy","stop_lon":6.174579,"stop_lat":48.689857,"transport":["TGV"]},{"stop_name":"Nantes","stop_lon":-1.542077,"stop_lat":47.217491,"transport":["TGV"]},{"stop_name":"Narbonne","stop_lon":3.005667,"stop_lat":43.190618,"transport":["TGV"]},{"stop_name":"Nice-Ville","stop_lon":7.261904,"stop_lat":43.704556,"transport":["TGV"]},{"stop_name":"Niort","stop_lon":-0.454639,"stop_lat":46.319491,"transport":["TGV"]},{"stop_name":"Nurieux Gare","stop_lon":5.5273,"stop_lat":46.186468,"transport":["TGV"]},{"stop_name":"Nîmes Centre","stop_lon":4.365872,"stop_lat":43.832313,"transport":["TGV"]},{"stop_name":"Nîmes Pont du Gard","stop_lon":4.507678,"stop_lat":43.816809,"transport":["TGV"]},{"stop_name":"OULX CESANA CLAVIERE SESTRIERE","stop_lon":6.831431,"stop_lat":45.038795,"transport":["TGV"]},{"stop_name":"Offenburg","stop_lon":7.9468,"stop_lat":48.4765,"transport":["TGV"]},{"stop_name":"Orange","stop_lon":4.820058,"stop_lat":44.137485,"transport":["TGV"]},{"stop_name":"Orthez","stop_lon":-0.76776,"stop_lat":43.484242,"transport":["TGV"]},{"stop_name":"Paris Est","stop_lon":2.358424,"stop_lat":48.876742,"transport":["TGV"]},{"stop_name":"Paris Gare de Lyon Hall 1 - 2","stop_lon":2.373481,"stop_lat":48.844945,"transport":["TGV"]},{"stop_name":"Paris Gare du Nord","stop_lon":2.354851,"stop_lat":48.880136,"transport":["TGV"]},{"stop_name":"Paris Montparnasse Hall 1 - 2","stop_lon":2.320514,"stop_lat":48.841172,"transport":["TGV"]},{"stop_name":"Pau","stop_lon":-0.369675,"stop_lat":43.291711,"transport":["TGV"]},{"stop_name":"Perpignan","stop_lon":2.879355,"stop_lat":42.696096,"transport":["TGV"]},{"stop_name":"Plouaret Trégor","stop_lon":-3.466979,"stop_lat":48.606422,"transport":["TGV"]},{"stop_name":"Poitiers","stop_lon":0.333136,"stop_lat":46.582232,"transport":["TGV"]},{"stop_name":"Pornichet","stop_lon":-2.344865,"stop_lat":47.27043,"transport":["TGV"]},{"stop_name":"Quimper","stop_lon":-4.092103,"stop_lat":47.994455,"transport":["TGV"]},{"stop_name":"Quimperlé","stop_lon":-3.552693,"stop_lat":47.869375,"transport":["TGV"]},{"stop_name":"Rang-du-Fliers - Verton - Berck","stop_lon":1.648048,"stop_lat":50.415845,"transport":["TGV"]},{"stop_name":"Redon","stop_lon":-2.08777,"stop_lat":47.652004,"transport":["TGV"]},{"stop_name":"Reims","stop_lon":4.021994,"stop_lat":49.258934,"transport":["TGV"]},{"stop_name":"Remiremont","stop_lon":6.598879,"stop_lat":48.016342,"transport":["TGV"]},{"stop_name":"Rennes","stop_lon":-1.672744,"stop_lat":48.103517,"transport":["TGV"]},{"stop_name":"Rethel","stop_lon":4.369566,"stop_lat":49.504393,"transport":["TGV"]},{"stop_name":"Rosporden","stop_lon":-3.832702,"stop_lat":47.960224,"transport":["TGV"]},{"stop_name":"Roubaix","stop_lon":3.16351,"stop_lat":50.695557,"transport":["TGV"]},{"stop_name":"Rouen Rive Droite","stop_lon":1.094103,"stop_lat":49.448663,"transport":["TGV"]},{"stop_name":"Sablé-sur-Sarthe","stop_lon":-0.342,"stop_lat":47.841759,"transport":["TGV"]},{"stop_name":"Saint-Brieuc","stop_lon":-2.765,"stop_lat":48.50758,"transport":["TGV"]},{"stop_name":"Saint-Dié-des-Vosges","stop_lon":6.948516,"stop_lat":48.282043,"transport":["TGV"]},{"stop_name":"Saint-Jean-de-Luz - Ciboure","stop_lon":-1.661181,"stop_lat":43.385862,"transport":["TGV"]},{"stop_name":"Saint-Jean-de-Maurienne Arvan","stop_lon":6.354716,"stop_lat":45.277542,"transport":["TGV"]},{"stop_name":"Saint-Maixent-L'École","stop_lon":-0.20132,"stop_lat":46.406482,"transport":["TGV"]},{"stop_name":"Saint-Malo","stop_lon":-2.004158,"stop_lat":48.646859,"transport":["TGV"]},{"stop_name":"Saint-Nazaire","stop_lon":-2.211079,"stop_lat":47.286489,"transport":["TGV"]},{"stop_name":"Saint-Pierre-des-Corps","stop_lon":0.723539,"stop_lat":47.38614,"transport":["TGV"]},{"stop_name":"Saint-Raphaël Valescure","stop_lon":6.769037,"stop_lat":43.423631,"transport":["TGV"]},{"stop_name":"Saint-Étienne Châteaucreux","stop_lon":4.399722,"stop_lat":45.443366,"transport":["TGV"]},{"stop_name":"Sarrebourg","stop_lon":7.05285,"stop_lat":48.73808,"transport":["TGV"]},{"stop_name":"Sarrebruck","stop_lon":6.991,"stop_lat":49.241,"transport":["TGV"]},{"stop_name":"Saumur","stop_lon":-0.071403,"stop_lat":47.268994,"transport":["TGV"]},{"stop_name":"Saverne","stop_lon":7.362055,"stop_lat":48.744483,"transport":["TGV"]},{"stop_name":"Sedan","stop_lon":4.930373,"stop_lat":49.695024,"transport":["TGV"]},{"stop_name":"Strasbourg","stop_lon":7.734793,"stop_lat":48.584532,"transport":["TGV"]},{"stop_name":"Stuttgart Hbf","stop_lon":9.1837,"stop_lat":48.7846,"transport":["TGV"]},{"stop_name":"Surgères","stop_lon":-0.762054,"stop_lat":46.113252,"transport":["TGV"]},{"stop_name":"Sète","stop_lon":3.696571,"stop_lat":43.412641,"transport":["TGV"]},{"stop_name":"Sélestat","stop_lon":7.443157,"stop_lat":48.259824,"transport":["TGV"]},{"stop_name":"TGV Haute Picardie","stop_lon":2.831619,"stop_lat":49.859172,"transport":["TGV"]},{"stop_name":"Tarbes","stop_lon":0.069442,"stop_lat":43.239863,"transport":["TGV"]},{"stop_name":"Thionville","stop_lon":6.168582,"stop_lat":49.353965,"transport":["TGV"]},{"stop_name":"Thonon-les-Bains","stop_lon":6.481673,"stop_lat":46.368989,"transport":["TGV"]},{"stop_name":"Toulon","stop_lon":5.929404,"stop_lat":43.128353,"transport":["TGV"]},{"stop_name":"Toulouse Matabiau","stop_lon":1.453616,"stop_lat":43.611206,"transport":["TGV"]},{"stop_name":"Tourcoing","stop_lon":3.168027,"stop_lat":50.716826,"transport":["TGV"]},{"stop_name":"Tours","stop_lon":0.692831,"stop_lat":47.389866,"transport":["TGV"]},{"stop_name":"Turin Porta Susa","stop_lon":7.666675,"stop_lat":45.074118,"transport":["TGV"]},{"stop_name":"Ulm Hbf","stop_lon":9.9828,"stop_lat":48.3996,"transport":["TGV"]},{"stop_name":"VERCELLI","stop_lon":8.416042,"stop_lat":45.329904,"transport":["TGV"]},{"stop_name":"Valence TGV Rhône-Alpes Sud","stop_lon":4.978652,"stop_lat":44.991907,"transport":["TGV"]},{"stop_name":"Valence Ville","stop_lon":4.893288,"stop_lat":44.928081,"transport":["TGV"]},{"stop_name":"Valenciennes","stop_lon":3.517124,"stop_lat":50.363187,"transport":["TGV"]},{"stop_name":"Vallorbe","stop_lon":6.37057,"stop_lat":46.71242,"transport":["TGV"]},{"stop_name":"Vannes","stop_lon":-2.75245,"stop_lat":47.665169,"transport":["TGV"]},{"stop_name":"Vendôme - Villiers-sur-Loir","stop_lon":1.021143,"stop_lat":47.821937,"transport":["TGV"]},{"stop_name":"Versailles Chantiers","stop_lon":2.135883,"stop_lat":48.795826,"transport":["TGV"]},{"stop_name":"Vitry-le-François","stop_lon":4.587515,"stop_lat":48.717913,"transport":["TGV"]},{"stop_name":"Vitré","stop_lon":-1.211754,"stop_lat":48.122671,"transport":["TGV"]},{"stop_name":"ZARAGOZA-DELICIAS","stop_lon":-0.910774,"stop_lat":41.658683,"transport":["TGV"]},{"stop_name":"Zuerich HB","stop_lon":8.54019,"stop_lat":47.37817,"transport":["TGV"]},{"stop_name":"Épinal","stop_lon":6.441787,"stop_lat":48.178005,"transport":["TGV"]},{"stop_name":"Étaples - Le Touquet","stop_lon":1.642582,"stop_lat":50.516544,"transport":["TGV"]},{"stop_name":"Évian-les-Bains","stop_lon":6.577469,"stop_lat":46.397916,"transport":["TGV"]}]