{"type": "FeatureCollection", "features": [{"type": "Feature", "properties": {"start": "Angers Saint-Laud", "stop_name": "Angers Saint-Laud", "type": "Gare s\u00e9lectionn\u00e9e", "transport": "intercite", "transport_legende": "\ud83d\udeb2 \u2764\ufe0f Intercit\u00e9 \ud83d\ude86"}, "geometry": {"type": "Point", "coordinates": [-0.55677, 47.464649]}}, {"type": "Feature", "properties": {"start": "Angers Saint-Laud", "stop_name": "Nantes", "type": "Gare accessible", "transport": "intercite", "transport_legende": "\ud83d\udeb2 \u2764\ufe0f Intercit\u00e9 \ud83d\ude86"}, "geometry": {"type": "Point", "coordinates": [-1.542077, 47.217491]}}, {"type": "Feature", "properties": {"start": "Angers Saint-Laud", "stop_name": "Saumur", "type": "Gare accessible", "transport": "intercite", "transport_legende": "\ud83d\udeb2 \u2764\ufe0f Intercit\u00e9 \ud83d\ude86"}, "geometry": {"type": "Point", "coordinates": [-0.071403, 47.268994]}}, {"type": "Feature", "properties": {"start": "Angers Saint-Laud", "stop_name": "Saint-Pierre-des-Corps", "type": "Gare accessible", "transport": "intercite", "transport_legende": "\ud83d\udeb2 \u2764\ufe0f Intercit\u00e9 \ud83d\ude86"}, "geometry": {"type": "Point", "coordinates": [0.723539, 47.38614]}}, {"type": "Feature", "properties": {"start": "Angers Saint-Laud", "stop_name": "Blois - Chambord", "type": "Gare accessible", "transport": "intercite", "transport_legende": "\ud83d\udeb2 \u2764\ufe0f Intercit\u00e9 \ud83d\ude86"}, "geometry": {"type": "Point", "coordinates": [1.323759, 47.585449]}}, {"type": "Feature", "properties": {"start": "Angers Saint-Laud", "stop_name": "Les Aubrais", "type": "Gare accessible", "transport": "intercite", "transport_legende": "\ud83d\udeb2 \u2764\ufe0f Intercit\u00e9 \ud83d\ude86"}, "geometry": {"type": "Point", "coordinates": [1.906629, 47.926801]}}, {"type": "Feature", "properties": {"start": "Angers Saint-Laud", "stop_name": "Juvisy", "type": "Gare accessible", "transport": "intercite", "transport_legende": "\ud83d\udeb2 \u2764\ufe0f Intercit\u00e9 \ud83d\ude86"}, "geometry": {"type": "Point", "coordinates": [2.38267, 48.68917]}}, {"type": "Feature", "properties": {"start": "Angers Saint-Laud", "stop_name": "Paris Austerlitz", "type": "Gare accessible", "transport": "intercite", "transport_legende": "\ud83d\udeb2 \u2764\ufe0f Intercit\u00e9 \ud83d\ude86"}, "geometry": {"type": "Point", "coordinates": [2.364891, 48.842285]}}, {"type": "Feature", "properties": {"start": "Angers Saint-Laud", "stop_name": "Le Mans", "type": "Gare accessible", "transport": "intercite", "transport_legende": "\ud83d\udeb2 \u2764\ufe0f Intercit\u00e9 \ud83d\ude86"}, "geometry": {"type": "Point", "coordinates": [0.192614, 47.995615]}}, {"type": "Feature", "properties": {"start": "Angers Saint-Laud", "stop_name": "Chartres", "type": "Gare accessible", "transport": "intercite", "transport_legende": "\ud83d\udeb2 \u2764\ufe0f Intercit\u00e9 \ud83d\ude86"}, "geometry": {"type": "Point", "coordinates": [1.481313, 48.448202]}}, {"type": "Feature", "properties": {"start": "Angers Saint-Laud", "stop_name": "Versailles Chantiers", "type": "Gare accessible", "transport": "intercite", "transport_legende": "\ud83d\udeb2 \u2764\ufe0f Intercit\u00e9 \ud83d\ude86"}, "geometry": {"type": "Point", "coordinates": [2.135883, 48.795826]}}, {"type": "Feature", "properties": {"start": "Angers Saint-Laud", "stop_name": "Massy-Palaiseau", "type": "Gare accessible", "transport": "intercite", "transport_legende": "\ud83d\udeb2 \u2764\ufe0f Intercit\u00e9 \ud83d\ude86"}, "geometry": {"type": "Point", "coordinates": [2.257528, 48.726421]}}, {"type": "Feature", "properties": {"start": "Angers Saint-Laud", "stop_name": "Paris Gare de Lyon Hall 1 - 2", "type": "Gare accessible", "transport": "intercite", "transport_legende": "\ud83d\udeb2 \u2764\ufe0f Intercit\u00e9 \ud83d\ude86"}, "geometry": {"type": "Point", "coordinates": [2.373481, 48.844945]}}, {"type": "Feature", "properties": {"start": "Angers Saint-Laud", "stop_name": "Paris Bercy Bourg. Pays d'Auv.", "type": "Gare accessible", "transport": "intercite", "transport_legende": "\ud83d\udeb2 \u2764\ufe0f Intercit\u00e9 \ud83d\ude86"}, "geometry": {"type": "Point", "coordinates": [2.382791, 48.839215]}}, {"type": "Feature", "properties": {"start": "Angers Saint-Laud", "stop_name": "Villeneuve-Saint-Georges", "type": "Gare accessible", "transport": "intercite", "transport_legende": "\ud83d\udeb2 \u2764\ufe0f Intercit\u00e9 \ud83d\ude86"}, "geometry": {"type": "Point", "coordinates": [2.446523, 48.729972]}}, {"type": "Feature", "properties": {"start": "Angers Saint-Laud", "stop_name": "Vierzon", "type": "Gare accessible", "transport": "intercite", "transport_legende": "\ud83d\udeb2 \u2764\ufe0f Intercit\u00e9 \ud83d\ude86"}, "geometry": {"type": "Point", "coordinates": [2.059869, 47.226474]}}, {"type": "Feature", "properties": {"start": "Angers Saint-Laud", "stop_name": "Bourges", "type": "Gare accessible", "transport": "intercite", "transport_legende": "\ud83d\udeb2 \u2764\ufe0f Intercit\u00e9 \ud83d\ude86"}, "geometry": {"type": "Point", "coordinates": [2.394236, 47.094129]}}, {"type": "Feature", "properties": {"start": "Angers Saint-Laud", "stop_name": "Nevers", "type": "Gare accessible", "transport": "intercite", "transport_legende": "\ud83d\udeb2 \u2764\ufe0f Intercit\u00e9 \ud83d\ude86"}, "geometry": {"type": "Point", "coordinates": [3.150743, 46.987282]}}, {"type": "Feature", "properties": {"start": "Angers Saint-Laud", "stop_name": "Moulins sur Allier", "type": "Gare accessible", "transport": "intercite", "transport_legende": "\ud83d\udeb2 \u2764\ufe0f Intercit\u00e9 \ud83d\ude86"}, "geometry": {"type": "Point", "coordinates": [3.338782, 46.561394]}}, {"type": "Feature", "properties": {"start": "Angers Saint-Laud", "stop_name": "Saint-Germain-des-Foss\u00e9s", "type": "Gare accessible", "transport": "intercite", "transport_legende": "\ud83d\udeb2 \u2764\ufe0f Intercit\u00e9 \ud83d\ude86"}, "geometry": {"type": "Point", "coordinates": [3.430574, 46.209239]}}, {"type": "Feature", "properties": {"start": "Angers Saint-Laud", "stop_name": "Roanne", "type": "Gare accessible", "transport": "intercite", "transport_legende": "\ud83d\udeb2 \u2764\ufe0f Intercit\u00e9 \ud83d\ude86"}, "geometry": {"type": "Point", "coordinates": [4.063207, 46.039383]}}, {"type": "Feature", "properties": {"start": "Angers Saint-Laud", "stop_name": "Lyon Part Dieu", "type": "Gare accessible", "transport": "intercite", "transport_legende": "\ud83d\udeb2 \u2764\ufe0f Intercit\u00e9 \ud83d\ude86"}, "geometry": {"type": "Point", "coordinates": [4.859409, 45.760596]}}, {"type": "Feature", "properties": {"start": "Angers Saint-Laud", "stop_name": "Lyon Perrache", "type": "Gare accessible", "transport": "intercite", "transport_legende": "\ud83d\udeb2 \u2764\ufe0f Intercit\u00e9 \ud83d\ude86"}, "geometry": {"type": "Point", "coordinates": [4.825777, 45.748508]}}]}