{"type": "FeatureCollection", "features": [{"type": "Feature", "properties": {"start": "Dijon", "stop_name": "Dijon", "type": "Gare s\u00e9lectionn\u00e9e", "transport": "intercite", "nombre_trajet_moyen": 3.68, "transport_legende": "\ud83d\udeb2 \u2764\ufe0f Intercit\u00e9 \ud83d\ude86"}, "geometry": {"type": "Point", "coordinates": [5.027256, 47.323411]}}, {"type": "Feature", "properties": {"start": "Dijon", "stop_name": "Paris Bercy Bourg. Pays d'Auv.", "type": "Gare accessible", "transport": "intercite", "nombre_trajet_moyen": 2.66, "transport_legende": "\ud83d\udeb2 \u2764\ufe0f Intercit\u00e9 \ud83d\ude86"}, "geometry": {"type": "Point", "coordinates": [2.382791, 48.839215]}}, {"type": "Feature", "properties": {"start": "Dijon", "stop_name": "Villeneuve-Saint-Georges", "type": "Gare accessible", "transport": "intercite", "nombre_trajet_moyen": 1.92, "transport_legende": "\ud83d\udeb2 \u2764\ufe0f Intercit\u00e9 \ud83d\ude86"}, "geometry": {"type": "Point", "coordinates": [2.446523, 48.729972]}}, {"type": "Feature", "properties": {"start": "Dijon", "stop_name": "Melun", "type": "Gare accessible", "transport": "intercite", "nombre_trajet_moyen": 3.68, "transport_legende": "\ud83d\udeb2 \u2764\ufe0f Intercit\u00e9 \ud83d\ude86"}, "geometry": {"type": "Point", "coordinates": [2.655349, 48.527583]}}, {"type": "Feature", "properties": {"start": "Dijon", "stop_name": "Chalon-sur-Sa\u00f4ne", "type": "Gare accessible", "transport": "intercite", "nombre_trajet_moyen": 3.68, "transport_legende": "\ud83d\udeb2 \u2764\ufe0f Intercit\u00e9 \ud83d\ude86"}, "geometry": {"type": "Point", "coordinates": [4.843479, 46.781622]}}, {"type": "Feature", "properties": {"start": "Dijon", "stop_name": "M\u00e2con", "type": "Gare accessible", "transport": "intercite", "nombre_trajet_moyen": 3.68, "transport_legende": "\ud83d\udeb2 \u2764\ufe0f Intercit\u00e9 \ud83d\ude86"}, "geometry": {"type": "Point", "coordinates": [4.824887, 46.302572]}}, {"type": "Feature", "properties": {"start": "Dijon", "stop_name": "Lyon Perrache", "type": "Gare accessible", "transport": "intercite", "nombre_trajet_moyen": 2.82, "transport_legende": "\ud83d\udeb2 \u2764\ufe0f Intercit\u00e9 \ud83d\ude86"}, "geometry": {"type": "Point", "coordinates": [4.825777, 45.748508]}}, {"type": "Feature", "properties": {"start": "Dijon", "stop_name": "Paris Gare de Lyon Hall 1 - 2", "type": "Gare accessible", "transport": "intercite", "nombre_trajet_moyen": 0.55, "transport_legende": "\ud83d\udeb2 \u2764\ufe0f Intercit\u00e9 \ud83d\ude86"}, "geometry": {"type": "Point", "coordinates": [2.373481, 48.844945]}}, {"type": "Feature", "properties": {"start": "Dijon", "stop_name": "Paris Austerlitz", "type": "Gare accessible", "transport": "intercite", "nombre_trajet_moyen": 0.93, "transport_legende": "\ud83d\udeb2 \u2764\ufe0f Intercit\u00e9 \ud83d\ude86"}, "geometry": {"type": "Point", "coordinates": [2.364891, 48.842285]}}, {"type": "Feature", "properties": {"start": "Dijon", "stop_name": "Lyon Part Dieu", "type": "Gare accessible", "transport": "intercite", "nombre_trajet_moyen": 1.68, "transport_legende": "\ud83d\udeb2 \u2764\ufe0f Intercit\u00e9 \ud83d\ude86"}, "geometry": {"type": "Point", "coordinates": [4.859409, 45.760596]}}]}