{"type": "FeatureCollection", "features": [{"type": "Feature", "properties": {"start": "Saint-Gaudens", "stop_name": "Saint-Gaudens", "type": "Gare s\u00e9lectionn\u00e9e", "transport": "intercite", "nombre_trajet_moyen": 0.13, "transport_legende": "\ud83d\udeb2 \u2764\ufe0f Intercit\u00e9 \ud83d\ude86"}, "geometry": {"type": "Point", "coordinates": [0.729154, 43.105048]}}, {"type": "Feature", "properties": {"start": "Saint-Gaudens", "stop_name": "Bayonne", "type": "Gare accessible", "transport": "intercite", "nombre_trajet_moyen": 0.13, "transport_legende": "\ud83d\udeb2 \u2764\ufe0f Intercit\u00e9 \ud83d\ude86"}, "geometry": {"type": "Point", "coordinates": [-1.470368, 43.496793]}}, {"type": "Feature", "properties": {"start": "Saint-Gaudens", "stop_name": "Orthez", "type": "Gare accessible", "transport": "intercite", "nombre_trajet_moyen": 0.13, "transport_legende": "\ud83d\udeb2 \u2764\ufe0f Intercit\u00e9 \ud83d\ude86"}, "geometry": {"type": "Point", "coordinates": [-0.76776, 43.484242]}}, {"type": "Feature", "properties": {"start": "Saint-Gaudens", "stop_name": "Pau", "type": "Gare accessible", "transport": "intercite", "nombre_trajet_moyen": 0.13, "transport_legende": "\ud83d\udeb2 \u2764\ufe0f Intercit\u00e9 \ud83d\ude86"}, "geometry": {"type": "Point", "coordinates": [-0.369675, 43.291711]}}, {"type": "Feature", "properties": {"start": "Saint-Gaudens", "stop_name": "Lourdes", "type": "Gare accessible", "transport": "intercite", "nombre_trajet_moyen": 0.13, "transport_legende": "\ud83d\udeb2 \u2764\ufe0f Intercit\u00e9 \ud83d\ude86"}, "geometry": {"type": "Point", "coordinates": [-0.042186, 43.100429]}}, {"type": "Feature", "properties": {"start": "Saint-Gaudens", "stop_name": "Tarbes", "type": "Gare accessible", "transport": "intercite", "nombre_trajet_moyen": 0.13, "transport_legende": "\ud83d\udeb2 \u2764\ufe0f Intercit\u00e9 \ud83d\ude86"}, "geometry": {"type": "Point", "coordinates": [0.069442, 43.239863]}}, {"type": "Feature", "properties": {"start": "Saint-Gaudens", "stop_name": "Toulouse Matabiau", "type": "Gare accessible", "transport": "intercite", "nombre_trajet_moyen": 0.13, "transport_legende": "\ud83d\udeb2 \u2764\ufe0f Intercit\u00e9 \ud83d\ude86"}, "geometry": {"type": "Point", "coordinates": [1.453616, 43.611206]}}]}