{"type": "FeatureCollection", "features": [{"type": "Feature", "properties": {"stop_name": "Aix-en-Provence TGV", "type": "Gare s\u00e9lectionn\u00e9e"}, "geometry": {"type": "Point", "coordinates": [5.317534, 43.455237]}}, {"type": "Feature", "properties": {"stop_name": "Digne-les-Bains", "type": "Gare accessible"}, "geometry": {"type": "Point", "coordinates": [6.223133, 44.088631]}}, {"type": "Feature", "properties": {"stop_name": "Mallemoisson", "type": "Gare accessible"}, "geometry": {"type": "Point", "coordinates": [6.127305, 44.042245]}}, {"type": "Feature", "properties": {"stop_name": "Malijai", "type": "Gare accessible"}, "geometry": {"type": "Point", "coordinates": [6.03188, 44.046354]}}, {"type": "Feature", "properties": {"stop_name": "Les M\u00e9es", "type": "Gare accessible"}, "geometry": {"type": "Point", "coordinates": [5.948668, 44.032803]}}, {"type": "Feature", "properties": {"stop_name": "Peyruis P\u00e9age", "type": "Gare accessible"}, "geometry": {"type": "Point", "coordinates": [5.937107, 44.027242]}}, {"type": "Feature", "properties": {"stop_name": "Manosque - Gr\u00e9oux-les-Bains", "type": "Gare accessible"}, "geometry": {"type": "Point", "coordinates": [5.793324, 43.823194]}}, {"type": "Feature", "properties": {"stop_name": "Saint-Maximin-la-Sainte-Baume", "type": "Gare accessible"}, "geometry": {"type": "Point", "coordinates": [5.856314, 43.436826]}}, {"type": "Feature", "properties": {"stop_name": "Brignoles", "type": "Gare accessible"}, "geometry": {"type": "Point", "coordinates": [6.061752, 43.406269]}}, {"type": "Feature", "properties": {"stop_name": "Le Luc", "type": "Gare accessible"}, "geometry": {"type": "Point", "coordinates": [6.314658, 43.394546000000005]}}, {"type": "Feature", "properties": {"stop_name": "Le Luc - Le Cannet", "type": "Gare accessible"}, "geometry": {"type": "Point", "coordinates": [6.343041, 43.3903]}}, {"type": "Feature", "properties": {"stop_name": "Vidauban", "type": "Gare accessible"}, "geometry": {"type": "Point", "coordinates": [6.433753, 43.430934]}}, {"type": "Feature", "properties": {"stop_name": "Les Arcs - Draguignan", "type": "Gare accessible"}, "geometry": {"type": "Point", "coordinates": [6.482424, 43.455725]}}, {"type": "Feature", "properties": {"stop_name": "Le Muy Gastinel", "type": "Gare accessible"}, "geometry": {"type": "Point", "coordinates": [6.56118, 43.47044]}}]}