{"type": "FeatureCollection", "features": [{"type": "Feature", "properties": {"start": "Albens", "stop_name": "Albens", "type": "Gare s\u00e9lectionn\u00e9e", "iconstarte": "Icon2"}, "geometry": {"type": "Point", "coordinates": [5.948342, 45.785946]}}, {"type": "Feature", "properties": {"start": "Albens", "stop_name": "Annecy", "type": "Gare accessible", "icone": "TER"}, "geometry": {"type": "Point", "coordinates": [6.121826, 45.902047]}}, {"type": "Feature", "properties": {"start": "Albens", "stop_name": "Rumilly", "type": "Gare accessible", "icone": "TER"}, "geometry": {"type": "Point", "coordinates": [5.947949, 45.863053]}}, {"type": "Feature", "properties": {"start": "Albens", "stop_name": "Gr\u00e9sy-sur-Aix", "type": "Gare accessible", "icone": "TER"}, "geometry": {"type": "Point", "coordinates": [5.922146, 45.724527]}}, {"type": "Feature", "properties": {"start": "Albens", "stop_name": "Aix-les-Bains le Revard", "type": "Gare accessible", "icone": "TER"}, "geometry": {"type": "Point", "coordinates": [5.909371, 45.688161]}}, {"type": "Feature", "properties": {"start": "Albens", "stop_name": "Chamb\u00e9ry - Challes-les-Eaux", "type": "Gare accessible", "icone": "TER"}, "geometry": {"type": "Point", "coordinates": [5.919547, 45.571302]}}, {"type": "Feature", "properties": {"start": "Albens", "stop_name": "Montm\u00e9lian", "type": "Gare accessible", "icone": "TER"}, "geometry": {"type": "Point", "coordinates": [6.043175, 45.503082]}}, {"type": "Feature", "properties": {"start": "Albens", "stop_name": "Pontcharra sur Br\u00e9da", "type": "Gare accessible", "icone": "TER"}, "geometry": {"type": "Point", "coordinates": [6.007859, 45.434091]}}, {"type": "Feature", "properties": {"start": "Albens", "stop_name": "Grenoble Universit\u00e9s - Gi\u00e8res", "type": "Gare accessible", "icone": "TER"}, "geometry": {"type": "Point", "coordinates": [5.784731, 45.184971]}}, {"type": "Feature", "properties": {"start": "Albens", "stop_name": "Grenoble", "type": "Gare accessible", "icone": "TER"}, "geometry": {"type": "Point", "coordinates": [5.714366, 45.192693]}}, {"type": "Feature", "properties": {"start": "Albens", "stop_name": "Moirans", "type": "Gare accessible", "icone": "TER"}, "geometry": {"type": "Point", "coordinates": [5.581934, 45.32216]}}, {"type": "Feature", "properties": {"start": "Albens", "stop_name": "Tullins Fures", "type": "Gare accessible", "icone": "TER"}, "geometry": {"type": "Point", "coordinates": [5.492174, 45.300905]}}, {"type": "Feature", "properties": {"start": "Albens", "stop_name": "Saint-Marcellin", "type": "Gare accessible", "icone": "TER"}, "geometry": {"type": "Point", "coordinates": [5.323654, 45.150885]}}, {"type": "Feature", "properties": {"start": "Albens", "stop_name": "Saint-Hilaire - Saint-Nazaire", "type": "Gare accessible", "icone": "TER"}, "geometry": {"type": "Point", "coordinates": [5.243845, 45.071342]}}, {"type": "Feature", "properties": {"start": "Albens", "stop_name": "Romans - Bourg-de-P\u00e9age", "type": "Gare accessible", "icone": "TER"}, "geometry": {"type": "Point", "coordinates": [5.049574, 45.048862]}}, {"type": "Feature", "properties": {"start": "Albens", "stop_name": "Valence TGV Rh\u00f4ne-Alpes Sud", "type": "Gare accessible", "icone": "TER"}, "geometry": {"type": "Point", "coordinates": [4.978652, 44.991907]}}, {"type": "Feature", "properties": {"start": "Albens", "stop_name": "Valence Ville", "type": "Gare accessible", "icone": "TER"}, "geometry": {"type": "Point", "coordinates": [4.893288, 44.928081]}}, {"type": "Feature", "properties": {"start": "Albens", "stop_name": "Livron", "type": "Gare accessible", "icone": "TER"}, "geometry": {"type": "Point", "coordinates": [4.830559, 44.779617]}}, {"type": "Feature", "properties": {"start": "Albens", "stop_name": "Mont\u00e9limar", "type": "Gare accessible", "icone": "TER"}, "geometry": {"type": "Point", "coordinates": [4.744726, 44.558936]}}, {"type": "Feature", "properties": {"start": "Albens", "stop_name": "Pierrelatte", "type": "Gare accessible", "icone": "TER"}, "geometry": {"type": "Point", "coordinates": [4.703798, 44.374634]}}, {"type": "Feature", "properties": {"start": "Albens", "stop_name": "Boll\u00e8ne la Croisi\u00e8re", "type": "Gare accessible", "icone": "TER"}, "geometry": {"type": "Point", "coordinates": [4.708055, 44.27154]}}, {"type": "Feature", "properties": {"start": "Albens", "stop_name": "Orange", "type": "Gare accessible", "icone": "TER"}, "geometry": {"type": "Point", "coordinates": [4.820058, 44.137485]}}, {"type": "Feature", "properties": {"start": "Albens", "stop_name": "Avignon Centre", "type": "Gare accessible", "icone": "TER"}, "geometry": {"type": "Point", "coordinates": [4.805269, 43.941923]}}, {"type": "Feature", "properties": {"start": "Albens", "stop_name": "Amb\u00e9rieu-en-Bugey", "type": "Gare accessible", "icone": "TER"}, "geometry": {"type": "Point", "coordinates": [5.342402, 45.954014]}}, {"type": "Feature", "properties": {"start": "Albens", "stop_name": "Lyon Part Dieu", "type": "Gare accessible", "icone": "TER"}, "geometry": {"type": "Point", "coordinates": [4.859409, 45.760596]}}]}