{"type": "FeatureCollection", "features": [{"type": "Feature", "properties": {"start": "Angers Saint-Laud", "stop_name": "Angers Saint-Laud", "type": "Gare s\u00e9lectionn\u00e9e", "iconstarte": "Icon2"}, "geometry": {"type": "Point", "coordinates": [-0.55677, 47.464649]}}, {"type": "Feature", "properties": {"start": "Angers Saint-Laud", "stop_name": "Le Mans", "type": "Gare accessible", "icone": "Icon1"}, "geometry": {"type": "Point", "coordinates": [0.192614, 47.995615]}}, {"type": "Feature", "properties": {"start": "Angers Saint-Laud", "stop_name": "Sabl\u00e9-sur-Sarthe", "type": "Gare accessible", "icone": "Icon1"}, "geometry": {"type": "Point", "coordinates": [-0.342, 47.841759]}}, {"type": "Feature", "properties": {"start": "Angers Saint-Laud", "stop_name": "Ancenis", "type": "Gare accessible", "icone": "Icon1"}, "geometry": {"type": "Point", "coordinates": [-1.177763, 47.369334]}}, {"type": "Feature", "properties": {"start": "Angers Saint-Laud", "stop_name": "Nantes", "type": "Gare accessible", "icone": "Icon1"}, "geometry": {"type": "Point", "coordinates": [-1.542077, 47.217491]}}, {"type": "Feature", "properties": {"start": "Angers Saint-Laud", "stop_name": "La Suze", "type": "Gare accessible", "icone": "Icon1"}, "geometry": {"type": "Point", "coordinates": [0.026567, 47.892235]}}, {"type": "Feature", "properties": {"start": "Angers Saint-Laud", "stop_name": "Morannes", "type": "Gare accessible", "icone": "Icon1"}, "geometry": {"type": "Point", "coordinates": [-0.41815, 47.739003]}}, {"type": "Feature", "properties": {"start": "Angers Saint-Laud", "stop_name": "\u00c9trich\u00e9 - Ch\u00e2teauneuf", "type": "Gare accessible", "icone": "Icon1"}, "geometry": {"type": "Point", "coordinates": [-0.460868, 47.656732]}}, {"type": "Feature", "properties": {"start": "Angers Saint-Laud", "stop_name": "Tierc\u00e9", "type": "Gare accessible", "icone": "Icon1"}, "geometry": {"type": "Point", "coordinates": [-0.469408, 47.617528]}}, {"type": "Feature", "properties": {"start": "Angers Saint-Laud", "stop_name": "Savenay", "type": "Gare accessible", "icone": "Icon1"}, "geometry": {"type": "Point", "coordinates": [-1.951007, 47.358602]}}, {"type": "Feature", "properties": {"start": "Angers Saint-Laud", "stop_name": "Saint-Nazaire", "type": "Gare accessible", "icone": "Icon1"}, "geometry": {"type": "Point", "coordinates": [-2.211079, 47.286489]}}, {"type": "Feature", "properties": {"start": "Angers Saint-Laud", "stop_name": "Pornichet", "type": "Gare accessible", "icone": "Icon1"}, "geometry": {"type": "Point", "coordinates": [-2.344865, 47.27043]}}, {"type": "Feature", "properties": {"start": "Angers Saint-Laud", "stop_name": "La Baule les Pins", "type": "Gare accessible", "icone": "Icon1"}, "geometry": {"type": "Point", "coordinates": [-2.364885, 47.28345]}}, {"type": "Feature", "properties": {"start": "Angers Saint-Laud", "stop_name": "La Baule-Escoublac", "type": "Gare accessible", "icone": "Icon1"}, "geometry": {"type": "Point", "coordinates": [-2.38921, 47.288459]}}, {"type": "Feature", "properties": {"start": "Angers Saint-Laud", "stop_name": "Le Pouliguen", "type": "Gare accessible", "icone": "Icon1"}, "geometry": {"type": "Point", "coordinates": [-2.433126, 47.282504]}}, {"type": "Feature", "properties": {"start": "Angers Saint-Laud", "stop_name": "Batz-sur-Mer", "type": "Gare accessible", "icone": "Icon1"}, "geometry": {"type": "Point", "coordinates": [-2.478869, 47.280855]}}, {"type": "Feature", "properties": {"start": "Angers Saint-Laud", "stop_name": "Le Croisic", "type": "Gare accessible", "icone": "Icon1"}, "geometry": {"type": "Point", "coordinates": [-2.50734, 47.289889]}}, {"type": "Feature", "properties": {"start": "Angers Saint-Laud", "stop_name": "Le Vieux Briollay", "type": "Gare accessible", "icone": "Icon1"}, "geometry": {"type": "Point", "coordinates": [-0.483007, 47.573687]}}, {"type": "Feature", "properties": {"start": "Angers Saint-Laud", "stop_name": "Angers Ma\u00eetre \u00c9cole", "type": "Gare accessible", "icone": "Icon1"}, "geometry": {"type": "Point", "coordinates": [-0.532437, 47.466953]}}, {"type": "Feature", "properties": {"start": "Angers Saint-Laud", "stop_name": "Donges", "type": "Gare accessible", "icone": "Icon1"}, "geometry": {"type": "Point", "coordinates": [-2.071792, 47.308656]}}, {"type": "Feature", "properties": {"start": "Angers Saint-Laud", "stop_name": "Noyen", "type": "Gare accessible", "icone": "Icon1"}, "geometry": {"type": "Point", "coordinates": [-0.098249, 47.874388]}}, {"type": "Feature", "properties": {"start": "Angers Saint-Laud", "stop_name": "Voivres", "type": "Gare accessible", "icone": "Icon1"}, "geometry": {"type": "Point", "coordinates": [0.085284, 47.930498]}}, {"type": "Feature", "properties": {"start": "Angers Saint-Laud", "stop_name": "La Possonni\u00e8re", "type": "Gare accessible", "icone": "Icon1"}, "geometry": {"type": "Point", "coordinates": [-0.691742, 47.37149]}}, {"type": "Feature", "properties": {"start": "Angers Saint-Laud", "stop_name": "Champtoc\u00e9-sur-Loire", "type": "Gare accessible", "icone": "Icon1"}, "geometry": {"type": "Point", "coordinates": [-0.868674, 47.410314]}}, {"type": "Feature", "properties": {"start": "Angers Saint-Laud", "stop_name": "Ingrandes", "type": "Gare accessible", "icone": "Icon1"}, "geometry": {"type": "Point", "coordinates": [-0.920832, 47.405929]}}, {"type": "Feature", "properties": {"start": "Angers Saint-Laud", "stop_name": "Varades - Saint-Florent-le-Vieil", "type": "Gare accessible", "icone": "Icon1"}, "geometry": {"type": "Point", "coordinates": [-1.01982, 47.374561]}}, {"type": "Feature", "properties": {"start": "Angers Saint-Laud", "stop_name": "Thouar\u00e9", "type": "Gare accessible", "icone": "Icon1"}, "geometry": {"type": "Point", "coordinates": [-1.440883, 47.26513]}}, {"type": "Feature", "properties": {"start": "Angers Saint-Laud", "stop_name": "Mauves-sur-Loire", "type": "Gare accessible", "icone": "Icon1"}, "geometry": {"type": "Point", "coordinates": [-1.389301, 47.293026]}}, {"type": "Feature", "properties": {"start": "Angers Saint-Laud", "stop_name": "Le Cellier", "type": "Gare accessible", "icone": "Icon1"}, "geometry": {"type": "Point", "coordinates": [-1.35079, 47.313419]}}, {"type": "Feature", "properties": {"start": "Angers Saint-Laud", "stop_name": "Oudon", "type": "Gare accessible", "icone": "Icon1"}, "geometry": {"type": "Point", "coordinates": [-1.292009, 47.343367]}}, {"type": "Feature", "properties": {"start": "Angers Saint-Laud", "stop_name": "Savenni\u00e8res - B\u00e9huard", "type": "Gare accessible", "icone": "Icon1"}, "geometry": {"type": "Point", "coordinates": [-0.655122, 47.381329]}}, {"type": "Feature", "properties": {"start": "Angers Saint-Laud", "stop_name": "Laval", "type": "Gare accessible", "icone": "Icon1"}, "geometry": {"type": "Point", "coordinates": [-0.760929, 48.076255]}}, {"type": "Feature", "properties": {"start": "Angers Saint-Laud", "stop_name": "Vitr\u00e9", "type": "Gare accessible", "icone": "Icon1"}, "geometry": {"type": "Point", "coordinates": [-1.211754, 48.122671]}}, {"type": "Feature", "properties": {"start": "Angers Saint-Laud", "stop_name": "Rennes", "type": "Gare accessible", "icone": "Icon1"}, "geometry": {"type": "Point", "coordinates": [-1.672744, 48.103517]}}, {"type": "Feature", "properties": {"start": "Angers Saint-Laud", "stop_name": "Saumur", "type": "Gare accessible", "icone": "Icon1"}, "geometry": {"type": "Point", "coordinates": [-0.071403, 47.268994]}}, {"type": "Feature", "properties": {"start": "Angers Saint-Laud", "stop_name": "Les Rosiers-sur-Loire", "type": "Gare accessible", "icone": "Icon1"}, "geometry": {"type": "Point", "coordinates": [-0.219373, 47.361859]}}, {"type": "Feature", "properties": {"start": "Angers Saint-Laud", "stop_name": "La M\u00e9nitr\u00e9", "type": "Gare accessible", "icone": "Icon1"}, "geometry": {"type": "Point", "coordinates": [-0.275838, 47.397383]}}, {"type": "Feature", "properties": {"start": "Angers Saint-Laud", "stop_name": "Saint-Mathurin", "type": "Gare accessible", "icone": "Icon1"}, "geometry": {"type": "Point", "coordinates": [-0.318099, 47.412073]}}, {"type": "Feature", "properties": {"start": "Angers Saint-Laud", "stop_name": "La Bohalle", "type": "Gare accessible", "icone": "Icon1"}, "geometry": {"type": "Point", "coordinates": [-0.400124, 47.434229]}}, {"type": "Feature", "properties": {"start": "Angers Saint-Laud", "stop_name": "Tr\u00e9laz\u00e9", "type": "Gare accessible", "icone": "Icon1"}, "geometry": {"type": "Point", "coordinates": [-0.469666, 47.452845]}}, {"type": "Feature", "properties": {"start": "Angers Saint-Laud", "stop_name": "Cholet", "type": "Gare accessible", "icone": "Icon1"}, "geometry": {"type": "Point", "coordinates": [-0.869897, 47.065702]}}, {"type": "Feature", "properties": {"start": "Angers Saint-Laud", "stop_name": "Chemill\u00e9", "type": "Gare accessible", "icone": "Icon1"}, "geometry": {"type": "Point", "coordinates": [-0.731989, 47.217748]}}, {"type": "Feature", "properties": {"start": "Angers Saint-Laud", "stop_name": "Chalonnes", "type": "Gare accessible", "icone": "Icon1"}, "geometry": {"type": "Point", "coordinates": [-0.743801, 47.343001]}}, {"type": "Feature", "properties": {"start": "Angers Saint-Laud", "stop_name": "Orl\u00e9ans", "type": "Gare accessible", "icone": "Icon1"}, "geometry": {"type": "Point", "coordinates": [1.904242, 47.907891]}}, {"type": "Feature", "properties": {"start": "Angers Saint-Laud", "stop_name": "Beaugency", "type": "Gare accessible", "icone": "Icon1"}, "geometry": {"type": "Point", "coordinates": [1.625944, 47.778404]}}, {"type": "Feature", "properties": {"start": "Angers Saint-Laud", "stop_name": "Blois - Chambord", "type": "Gare accessible", "icone": "Icon1"}, "geometry": {"type": "Point", "coordinates": [1.323759, 47.585449]}}, {"type": "Feature", "properties": {"start": "Angers Saint-Laud", "stop_name": "Saint-Pierre-des-Corps", "type": "Gare accessible", "icone": "Icon1"}, "geometry": {"type": "Point", "coordinates": [0.723539, 47.38614]}}, {"type": "Feature", "properties": {"start": "Angers Saint-Laud", "stop_name": "Tours", "type": "Gare accessible", "icone": "Icon1"}, "geometry": {"type": "Point", "coordinates": [0.692831, 47.389866]}}, {"type": "Feature", "properties": {"start": "Angers Saint-Laud", "stop_name": "Amboise", "type": "Gare accessible", "icone": "Icon1"}, "geometry": {"type": "Point", "coordinates": [0.981267, 47.421469]}}, {"type": "Feature", "properties": {"start": "Angers Saint-Laud", "stop_name": "Les Aubrais", "type": "Gare accessible", "icone": "Icon1"}, "geometry": {"type": "Point", "coordinates": [1.906629, 47.926801]}}, {"type": "Feature", "properties": {"start": "Angers Saint-Laud", "stop_name": "Mer", "type": "Gare accessible", "icone": "Icon1"}, "geometry": {"type": "Point", "coordinates": [1.506363, 47.705894]}}, {"type": "Feature", "properties": {"start": "Angers Saint-Laud", "stop_name": "Meung-sur-Loire", "type": "Gare accessible", "icone": "Icon1"}, "geometry": {"type": "Point", "coordinates": [1.691921, 47.829954]}}, {"type": "Feature", "properties": {"start": "Angers Saint-Laud", "stop_name": "Cinq-Mars-la-Pile", "type": "Gare accessible", "icone": "Icon1"}, "geometry": {"type": "Point", "coordinates": [0.459387, 47.345112]}}, {"type": "Feature", "properties": {"start": "Angers Saint-Laud", "stop_name": "Langeais", "type": "Gare accessible", "icone": "Icon1"}, "geometry": {"type": "Point", "coordinates": [0.410104, 47.324058]}}, {"type": "Feature", "properties": {"start": "Angers Saint-Laud", "stop_name": "Port Boulet", "type": "Gare accessible", "icone": "Icon1"}, "geometry": {"type": "Point", "coordinates": [0.155648, 47.248836]}}, {"type": "Feature", "properties": {"start": "Angers Saint-Laud", "stop_name": "La Chapelle-sur-Loire", "type": "Gare accessible", "icone": "Icon1"}, "geometry": {"type": "Point", "coordinates": [0.218481, 47.251227]}}, {"type": "Feature", "properties": {"start": "Angers Saint-Laud", "stop_name": "Saint-Patrice", "type": "Gare accessible", "icone": "Icon1"}, "geometry": {"type": "Point", "coordinates": [0.309645, 47.285659]}}, {"type": "Feature", "properties": {"start": "Angers Saint-Laud", "stop_name": "Savonni\u00e8res", "type": "Gare accessible", "icone": "Icon1"}, "geometry": {"type": "Point", "coordinates": [0.544182, 47.36058]}}, {"type": "Feature", "properties": {"start": "Angers Saint-Laud", "stop_name": "Saint-Genouph", "type": "Gare accessible", "icone": "Icon1"}, "geometry": {"type": "Point", "coordinates": [0.59691, 47.371065]}}, {"type": "Feature", "properties": {"start": "Angers Saint-Laud", "stop_name": "Montreuil-Bellay", "type": "Gare accessible", "icone": "Icon1"}, "geometry": {"type": "Point", "coordinates": [-0.148283, 47.125418]}}, {"type": "Feature", "properties": {"start": "Angers Saint-Laud", "stop_name": "Thouars", "type": "Gare accessible", "icone": "Icon1"}, "geometry": {"type": "Point", "coordinates": [-0.21002, 46.985039]}}, {"type": "Feature", "properties": {"start": "Angers Saint-Laud", "stop_name": "Chartres", "type": "Gare accessible", "icone": "Icon1"}, "geometry": {"type": "Point", "coordinates": [1.481313, 48.448202]}}, {"type": "Feature", "properties": {"start": "Angers Saint-Laud", "stop_name": "Courville-sur-Eure", "type": "Gare accessible", "icone": "Icon1"}, "geometry": {"type": "Point", "coordinates": [1.234902, 48.451336]}}, {"type": "Feature", "properties": {"start": "Angers Saint-Laud", "stop_name": "La Loupe", "type": "Gare accessible", "icone": "Icon1"}, "geometry": {"type": "Point", "coordinates": [1.010898, 48.473828]}}, {"type": "Feature", "properties": {"start": "Angers Saint-Laud", "stop_name": "Bretoncelles", "type": "Gare accessible", "icone": "Icon1"}, "geometry": {"type": "Point", "coordinates": [0.89236, 48.43273]}}, {"type": "Feature", "properties": {"start": "Angers Saint-Laud", "stop_name": "Cond\u00e9-sur-Huisne", "type": "Gare accessible", "icone": "Icon1"}, "geometry": {"type": "Point", "coordinates": [0.848881, 48.383367]}}, {"type": "Feature", "properties": {"start": "Angers Saint-Laud", "stop_name": "Nogent-le-Rotrou", "type": "Gare accessible", "icone": "Icon1"}, "geometry": {"type": "Point", "coordinates": [0.810313, 48.325765]}}, {"type": "Feature", "properties": {"start": "Angers Saint-Laud", "stop_name": "Le Theil - La Rouge", "type": "Gare accessible", "icone": "Icon1"}, "geometry": {"type": "Point", "coordinates": [0.694376, 48.267291]}}, {"type": "Feature", "properties": {"start": "Angers Saint-Laud", "stop_name": "La Fert\u00e9-Bernard", "type": "Gare accessible", "icone": "Icon1"}, "geometry": {"type": "Point", "coordinates": [0.63938, 48.186527]}}, {"type": "Feature", "properties": {"start": "Angers Saint-Laud", "stop_name": "Sceaux - Bo\u00ebss\u00e9", "type": "Gare accessible", "icone": "Icon1"}, "geometry": {"type": "Point", "coordinates": [0.572233, 48.12223]}}, {"type": "Feature", "properties": {"start": "Angers Saint-Laud", "stop_name": "Connerr\u00e9 - Beill\u00e9", "type": "Gare accessible", "icone": "Icon1"}, "geometry": {"type": "Point", "coordinates": [0.486896, 48.07371]}}, {"type": "Feature", "properties": {"start": "Angers Saint-Laud", "stop_name": "Montfort-le-Gesnois", "type": "Gare accessible", "icone": "Icon1"}, "geometry": {"type": "Point", "coordinates": [0.406226, 48.040576]}}, {"type": "Feature", "properties": {"start": "Angers Saint-Laud", "stop_name": "Saint-Mars-la-Bri\u00e8re", "type": "Gare accessible", "icone": "Icon1"}, "geometry": {"type": "Point", "coordinates": [0.365703, 48.028529]}}, {"type": "Feature", "properties": {"start": "Angers Saint-Laud", "stop_name": "Champagn\u00e9", "type": "Gare accessible", "icone": "Icon1"}, "geometry": {"type": "Point", "coordinates": [0.335665, 48.019748]}}]}