{"type": "FeatureCollection", "features": [{"type": "Feature", "properties": {"start": "Arleux", "stop_name": "Arleux", "type": "Gare s\u00e9lectionn\u00e9e", "iconstarte": "Icon2"}, "geometry": {"type": "Point", "coordinates": [3.120522, 50.286347]}}, {"type": "Feature", "properties": {"start": "Arleux", "stop_name": "Douai", "type": "Gare accessible", "icone": "TER"}, "geometry": {"type": "Point", "coordinates": [3.089958, 50.371673]}}, {"type": "Feature", "properties": {"start": "Arleux", "stop_name": "Sin-le-Noble", "type": "Gare accessible", "icone": "TER"}, "geometry": {"type": "Point", "coordinates": [3.112559, 50.356683]}}, {"type": "Feature", "properties": {"start": "Arleux", "stop_name": "Cantin", "type": "Gare accessible", "icone": "TER"}, "geometry": {"type": "Point", "coordinates": [3.122145, 50.312554]}}, {"type": "Feature", "properties": {"start": "Arleux", "stop_name": "Aubigny-au-Bac", "type": "Gare accessible", "icone": "TER"}, "geometry": {"type": "Point", "coordinates": [3.158781, 50.268551]}}, {"type": "Feature", "properties": {"start": "Arleux", "stop_name": "Cambrai", "type": "Gare accessible", "icone": "TER"}, "geometry": {"type": "Point", "coordinates": [3.241197, 50.176582]}}, {"type": "Feature", "properties": {"start": "Arleux", "stop_name": "Brun\u00e9mont", "type": "Gare accessible", "icone": "TER"}, "geometry": {"type": "Point", "coordinates": [3.146038, 50.278221]}}, {"type": "Feature", "properties": {"start": "Arleux", "stop_name": "Saint-Quentin", "type": "Gare accessible", "icone": "TER"}, "geometry": {"type": "Point", "coordinates": [3.296958, 49.840025]}}, {"type": "Feature", "properties": {"start": "Arleux", "stop_name": "Fresnoy-le-Grand", "type": "Gare accessible", "icone": "TER"}, "geometry": {"type": "Point", "coordinates": [3.432208, 49.949908]}}, {"type": "Feature", "properties": {"start": "Arleux", "stop_name": "Bohain", "type": "Gare accessible", "icone": "TER"}, "geometry": {"type": "Point", "coordinates": [3.443168, 49.988418]}}, {"type": "Feature", "properties": {"start": "Arleux", "stop_name": "Busigny", "type": "Gare accessible", "icone": "TER"}, "geometry": {"type": "Point", "coordinates": [3.446436, 50.039547]}}, {"type": "Feature", "properties": {"start": "Arleux", "stop_name": "Maurois", "type": "Gare accessible", "icone": "TER"}, "geometry": {"type": "Point", "coordinates": [3.455903, 50.068059]}}, {"type": "Feature", "properties": {"start": "Arleux", "stop_name": "Bertry", "type": "Gare accessible", "icone": "TER"}, "geometry": {"type": "Point", "coordinates": [3.448857, 50.091134]}}, {"type": "Feature", "properties": {"start": "Arleux", "stop_name": "Caudry", "type": "Gare accessible", "icone": "TER"}, "geometry": {"type": "Point", "coordinates": [3.40971, 50.111473]}}, {"type": "Feature", "properties": {"start": "Arleux", "stop_name": "Catteni\u00e8res", "type": "Gare accessible", "icone": "TER"}, "geometry": {"type": "Point", "coordinates": [3.333718, 50.128347]}}, {"type": "Feature", "properties": {"start": "Arleux", "stop_name": "Wambaix", "type": "Gare accessible", "icone": "TER"}, "geometry": {"type": "Point", "coordinates": [3.311485, 50.133856]}}]}