{"type": "FeatureCollection", "features": [{"type": "Feature", "properties": {"stop_name": "Auxon Route Nationale", "type": "Gare s\u00e9lectionn\u00e9e"}, "geometry": {"type": "Point", "coordinates": [3.915937, 48.109256]}}, {"type": "Feature", "properties": {"stop_name": "Troyes", "type": "Gare accessible"}, "geometry": {"type": "Point", "coordinates": [4.065281, 48.296069]}}, {"type": "Feature", "properties": {"stop_name": "Saint-Florentin - Vergigny", "type": "Gare accessible"}, "geometry": {"type": "Point", "coordinates": [3.731036, 47.981058000000004]}}, {"type": "Feature", "properties": {"stop_name": "Neuvy-Sautour", "type": "Gare accessible"}, "geometry": {"type": "Point", "coordinates": [3.792785, 48.042696]}}, {"type": "Feature", "properties": {"stop_name": "Coursan-en-Othe RN", "type": "Gare accessible"}, "geometry": {"type": "Point", "coordinates": [3.830522, 48.079728]}}, {"type": "Feature", "properties": {"stop_name": "Le Cheminot", "type": "Gare accessible"}, "geometry": {"type": "Point", "coordinates": [4.010152, 48.147316]}}, {"type": "Feature", "properties": {"stop_name": "Troyes Lombards", "type": "Gare accessible"}, "geometry": {"type": "Point", "coordinates": [4.065859, 48.278074]}}, {"type": "Feature", "properties": {"stop_name": "Saint-Florentin-Ville", "type": "Gare accessible"}, "geometry": {"type": "Point", "coordinates": [3.741985, 48.005065]}}, {"type": "Feature", "properties": {"stop_name": "Troyes Chambre de Commerce", "type": "Gare accessible"}, "geometry": {"type": "Point", "coordinates": [4.071271, 48.29088]}}]}