{"type": "FeatureCollection", "features": [{"type": "Feature", "properties": {"start": "Ax-les-Thermes", "stop_name": "Ax-les-Thermes", "type": "Gare s\u00e9lectionn\u00e9e", "iconstarte": "Icon2"}, "geometry": {"type": "Point", "coordinates": [1.833295, 42.724841]}}, {"type": "Feature", "properties": {"start": "Ax-les-Thermes", "stop_name": "Toulouse Matabiau", "type": "Gare accessible", "icone": "Icon1"}, "geometry": {"type": "Point", "coordinates": [1.453616, 43.611206]}}, {"type": "Feature", "properties": {"start": "Ax-les-Thermes", "stop_name": "Saint-Agne", "type": "Gare accessible", "icone": "Icon1"}, "geometry": {"type": "Point", "coordinates": [1.45012, 43.579477]}}, {"type": "Feature", "properties": {"start": "Ax-les-Thermes", "stop_name": "Portet Saint-Simon", "type": "Gare accessible", "icone": "Icon1"}, "geometry": {"type": "Point", "coordinates": [1.389243, 43.527904]}}, {"type": "Feature", "properties": {"start": "Ax-les-Thermes", "stop_name": "Pins-Justaret", "type": "Gare accessible", "icone": "Icon1"}, "geometry": {"type": "Point", "coordinates": [1.399645, 43.479213]}}, {"type": "Feature", "properties": {"start": "Ax-les-Thermes", "stop_name": "Venerque - Le Vernet", "type": "Gare accessible", "icone": "Icon1"}, "geometry": {"type": "Point", "coordinates": [1.425956, 43.433359]}}, {"type": "Feature", "properties": {"start": "Ax-les-Thermes", "stop_name": "Auterive", "type": "Gare accessible", "icone": "Icon1"}, "geometry": {"type": "Point", "coordinates": [1.468831, 43.348993]}}, {"type": "Feature", "properties": {"start": "Ax-les-Thermes", "stop_name": "Cintegabelle", "type": "Gare accessible", "icone": "Icon1"}, "geometry": {"type": "Point", "coordinates": [1.520477, 43.305409]}}, {"type": "Feature", "properties": {"start": "Ax-les-Thermes", "stop_name": "Saverdun", "type": "Gare accessible", "icone": "Icon1"}, "geometry": {"type": "Point", "coordinates": [1.570636, 43.239335]}}, {"type": "Feature", "properties": {"start": "Ax-les-Thermes", "stop_name": "Le Vernet d'Ari\u00e8ge", "type": "Gare accessible", "icone": "Icon1"}, "geometry": {"type": "Point", "coordinates": [1.611911, 43.189541]}}, {"type": "Feature", "properties": {"start": "Ax-les-Thermes", "stop_name": "Pamiers", "type": "Gare accessible", "icone": "Icon1"}, "geometry": {"type": "Point", "coordinates": [1.619451, 43.116207]}}, {"type": "Feature", "properties": {"start": "Ax-les-Thermes", "stop_name": "Varilhes", "type": "Gare accessible", "icone": "Icon1"}, "geometry": {"type": "Point", "coordinates": [1.628318, 43.041594]}}, {"type": "Feature", "properties": {"start": "Ax-les-Thermes", "stop_name": "Saint-Jean-de-Verges", "type": "Gare accessible", "icone": "Icon1"}, "geometry": {"type": "Point", "coordinates": [1.608105, 43.01259]}}, {"type": "Feature", "properties": {"start": "Ax-les-Thermes", "stop_name": "Foix", "type": "Gare accessible", "icone": "Icon1"}, "geometry": {"type": "Point", "coordinates": [1.60704, 42.969707]}}, {"type": "Feature", "properties": {"start": "Ax-les-Thermes", "stop_name": "Tarascon-sur-Ari\u00e8ge", "type": "Gare accessible", "icone": "Icon1"}, "geometry": {"type": "Point", "coordinates": [1.600042, 42.849498]}}, {"type": "Feature", "properties": {"start": "Ax-les-Thermes", "stop_name": "Les Cabannes", "type": "Gare accessible", "icone": "Icon1"}, "geometry": {"type": "Point", "coordinates": [1.686299, 42.786285]}}, {"type": "Feature", "properties": {"start": "Ax-les-Thermes", "stop_name": "Luzenac - Garanou", "type": "Gare accessible", "icone": "Icon1"}, "geometry": {"type": "Point", "coordinates": [1.753416, 42.764472]}}, {"type": "Feature", "properties": {"start": "Ax-les-Thermes", "stop_name": "Latour-de-Carol - Enveitg", "type": "Gare accessible", "icone": "Icon1"}, "geometry": {"type": "Point", "coordinates": [1.904433, 42.458991]}}, {"type": "Feature", "properties": {"start": "Ax-les-Thermes", "stop_name": "Port\u00e9-Puymorens", "type": "Gare accessible", "icone": "Icon1"}, "geometry": {"type": "Point", "coordinates": [1.824852, 42.538781]}}, {"type": "Feature", "properties": {"start": "Ax-les-Thermes", "stop_name": "Andorre l'Hospitalet", "type": "Gare accessible", "icone": "Icon1"}, "geometry": {"type": "Point", "coordinates": [1.800264, 42.589453]}}, {"type": "Feature", "properties": {"start": "Ax-les-Thermes", "stop_name": "M\u00e9rens-les-Vals", "type": "Gare accessible", "icone": "Icon1"}, "geometry": {"type": "Point", "coordinates": [1.837128, 42.659488]}}]}