{"type": "FeatureCollection", "features": [{"type": "Feature", "properties": {"start": "Belle-Isle - B\u00e9gard", "stop_name": "Belle-Isle - B\u00e9gard", "type": "Gare s\u00e9lectionn\u00e9e", "iconstarte": "Icon2"}, "geometry": {"type": "Point", "coordinates": [-3.322951, 48.593569]}}, {"type": "Feature", "properties": {"start": "Belle-Isle - B\u00e9gard", "stop_name": "Lannion", "type": "Gare accessible", "icone": "Icon1"}, "geometry": {"type": "Point", "coordinates": [-3.460353, 48.727638]}}, {"type": "Feature", "properties": {"start": "Belle-Isle - B\u00e9gard", "stop_name": "Plouaret Tr\u00e9gor", "type": "Gare accessible", "icone": "Icon1"}, "geometry": {"type": "Point", "coordinates": [-3.466979, 48.606422]}}, {"type": "Feature", "properties": {"start": "Belle-Isle - B\u00e9gard", "stop_name": "Guingamp", "type": "Gare accessible", "icone": "Icon1"}, "geometry": {"type": "Point", "coordinates": [-3.143343, 48.555659]}}, {"type": "Feature", "properties": {"start": "Belle-Isle - B\u00e9gard", "stop_name": "Ch\u00e2telaudren - Plouagat", "type": "Gare accessible", "icone": "Icon1"}, "geometry": {"type": "Point", "coordinates": [-2.974678, 48.533219]}}, {"type": "Feature", "properties": {"start": "Belle-Isle - B\u00e9gard", "stop_name": "Plouvara - Plerneuf", "type": "Gare accessible", "icone": "Icon1"}, "geometry": {"type": "Point", "coordinates": [-2.892514, 48.508585]}}, {"type": "Feature", "properties": {"start": "Belle-Isle - B\u00e9gard", "stop_name": "La M\u00e9augon", "type": "Gare accessible", "icone": "Icon1"}, "geometry": {"type": "Point", "coordinates": [-2.84489, 48.500057]}}, {"type": "Feature", "properties": {"start": "Belle-Isle - B\u00e9gard", "stop_name": "Saint-Brieuc", "type": "Gare accessible", "icone": "Icon1"}, "geometry": {"type": "Point", "coordinates": [-2.765, 48.50758]}}]}