{"type": "FeatureCollection", "features": [{"type": "Feature", "properties": {"start": "Blangy-sur-Bresle", "stop_name": "Blangy-sur-Bresle", "type": "Gare s\u00e9lectionn\u00e9e", "iconstarte": "Icon2"}, "geometry": {"type": "Point", "coordinates": [1.625558, 49.932363]}}, {"type": "Feature", "properties": {"start": "Blangy-sur-Bresle", "stop_name": "Abancourt", "type": "Gare accessible", "icone": "Icon1"}, "geometry": {"type": "Point", "coordinates": [1.774297, 49.685621]}}, {"type": "Feature", "properties": {"start": "Blangy-sur-Bresle", "stop_name": "Aumale", "type": "Gare accessible", "icone": "Icon1"}, "geometry": {"type": "Point", "coordinates": [1.756069, 49.765115]}}, {"type": "Feature", "properties": {"start": "Blangy-sur-Bresle", "stop_name": "Longroy - Gamaches", "type": "Gare accessible", "icone": "Icon1"}, "geometry": {"type": "Point", "coordinates": [1.551899, 49.982444]}}, {"type": "Feature", "properties": {"start": "Blangy-sur-Bresle", "stop_name": "Eu", "type": "Gare accessible", "icone": "Icon1"}, "geometry": {"type": "Point", "coordinates": [1.417087, 50.054139]}}, {"type": "Feature", "properties": {"start": "Blangy-sur-Bresle", "stop_name": "Le Tr\u00e9port - Mers-les-Bains", "type": "Gare accessible", "icone": "Icon1"}, "geometry": {"type": "Point", "coordinates": [1.376078, 50.062716]}}, {"type": "Feature", "properties": {"start": "Blangy-sur-Bresle", "stop_name": "Feuqui\u00e8res - Broquiers", "type": "Gare accessible", "icone": "Icon1"}, "geometry": {"type": "Point", "coordinates": [1.830884, 49.654339]}}, {"type": "Feature", "properties": {"start": "Blangy-sur-Bresle", "stop_name": "Grandvilliers", "type": "Gare accessible", "icone": "Icon1"}, "geometry": {"type": "Point", "coordinates": [1.93854, 49.659393]}}, {"type": "Feature", "properties": {"start": "Blangy-sur-Bresle", "stop_name": "Marseille-en-Beauvaisis", "type": "Gare accessible", "icone": "Icon1"}, "geometry": {"type": "Point", "coordinates": [1.954751, 49.571031]}}, {"type": "Feature", "properties": {"start": "Blangy-sur-Bresle", "stop_name": "Saint-Omer-en-Chauss\u00e9e", "type": "Gare accessible", "icone": "Icon1"}, "geometry": {"type": "Point", "coordinates": [1.997725, 49.531044]}}, {"type": "Feature", "properties": {"start": "Blangy-sur-Bresle", "stop_name": "Milly-sur-Th\u00e9rain", "type": "Gare accessible", "icone": "Icon1"}, "geometry": {"type": "Point", "coordinates": [1.988745, 49.503848]}}, {"type": "Feature", "properties": {"start": "Blangy-sur-Bresle", "stop_name": "Herchies", "type": "Gare accessible", "icone": "Icon1"}, "geometry": {"type": "Point", "coordinates": [2.010646, 49.488061]}}, {"type": "Feature", "properties": {"start": "Blangy-sur-Bresle", "stop_name": "Beauvais", "type": "Gare accessible", "icone": "Icon1"}, "geometry": {"type": "Point", "coordinates": [2.088609, 49.426522]}}]}