{"type": "FeatureCollection", "features": [{"type": "Feature", "properties": {"start": "Brou", "stop_name": "Brou", "type": "Gare s\u00e9lectionn\u00e9e", "iconstarte": "Icon2"}, "geometry": {"type": "Point", "coordinates": [1.160424, 48.215515]}}, {"type": "Feature", "properties": {"start": "Brou", "stop_name": "Courtalain - Saint-Pellerin", "type": "Gare accessible", "icone": "TER"}, "geometry": {"type": "Point", "coordinates": [1.127004, 48.073599]}}, {"type": "Feature", "properties": {"start": "Brou", "stop_name": "Illiers-Combray", "type": "Gare accessible", "icone": "TER"}, "geometry": {"type": "Point", "coordinates": [1.24492, 48.304009]}}, {"type": "Feature", "properties": {"start": "Brou", "stop_name": "Bailleau-le-pin", "type": "Gare accessible", "icone": "TER"}, "geometry": {"type": "Point", "coordinates": [1.325333, 48.366928]}}, {"type": "Feature", "properties": {"start": "Brou", "stop_name": "Luc\u00e9", "type": "Gare accessible", "icone": "TER"}, "geometry": {"type": "Point", "coordinates": [1.452958, 48.436123]}}, {"type": "Feature", "properties": {"start": "Brou", "stop_name": "Chartres", "type": "Gare accessible", "icone": "TER"}, "geometry": {"type": "Point", "coordinates": [1.481313, 48.448202]}}, {"type": "Feature", "properties": {"start": "Brou", "stop_name": "Arrou", "type": "Gare accessible", "icone": "TER"}, "geometry": {"type": "Point", "coordinates": [1.128151, 48.099883]}}, {"type": "Feature", "properties": {"start": "Brou", "stop_name": "La Taye", "type": "Gare accessible", "icone": "TER"}, "geometry": {"type": "Point", "coordinates": [1.373402, 48.407757]}}, {"type": "Feature", "properties": {"start": "Brou", "stop_name": "Magny - Blandainville", "type": "Gare accessible", "icone": "TER"}, "geometry": {"type": "Point", "coordinates": [1.281173, 48.334306]}}]}