{"type": "FeatureCollection", "features": [{"type": "Feature", "properties": {"start": "Caffiers", "stop_name": "Caffiers", "type": "Gare s\u00e9lectionn\u00e9e", "iconstarte": "Icon2"}, "geometry": {"type": "Point", "coordinates": [1.812401, 50.8498]}}, {"type": "Feature", "properties": {"start": "Caffiers", "stop_name": "Calais Ville", "type": "Gare accessible", "icone": "Icon1"}, "geometry": {"type": "Point", "coordinates": [1.850885, 50.953466]}}, {"type": "Feature", "properties": {"start": "Caffiers", "stop_name": "Les Fontinettes", "type": "Gare accessible", "icone": "Icon1"}, "geometry": {"type": "Point", "coordinates": [1.849858, 50.941002]}}, {"type": "Feature", "properties": {"start": "Caffiers", "stop_name": "Calais - Fr\u00e9thun", "type": "Gare accessible", "icone": "Icon1"}, "geometry": {"type": "Point", "coordinates": [1.811178, 50.901247]}}, {"type": "Feature", "properties": {"start": "Caffiers", "stop_name": "Pihen", "type": "Gare accessible", "icone": "Icon1"}, "geometry": {"type": "Point", "coordinates": [1.784602, 50.87275]}}, {"type": "Feature", "properties": {"start": "Caffiers", "stop_name": "Le Haut Banc", "type": "Gare accessible", "icone": "Icon1"}, "geometry": {"type": "Point", "coordinates": [1.772519, 50.816399]}}, {"type": "Feature", "properties": {"start": "Caffiers", "stop_name": "Marquise - Rinxent", "type": "Gare accessible", "icone": "Icon1"}, "geometry": {"type": "Point", "coordinates": [1.729786, 50.805686]}}, {"type": "Feature", "properties": {"start": "Caffiers", "stop_name": "Wimille - Wimereux", "type": "Gare accessible", "icone": "Icon1"}, "geometry": {"type": "Point", "coordinates": [1.613609, 50.763642]}}, {"type": "Feature", "properties": {"start": "Caffiers", "stop_name": "Boulogne - Tintelleries", "type": "Gare accessible", "icone": "Icon1"}, "geometry": {"type": "Point", "coordinates": [1.609036, 50.727284]}}, {"type": "Feature", "properties": {"start": "Caffiers", "stop_name": "Boulogne sur Mer", "type": "Gare accessible", "icone": "Icon1"}, "geometry": {"type": "Point", "coordinates": [1.609714, 50.715613]}}, {"type": "Feature", "properties": {"start": "Caffiers", "stop_name": "Pont de Briques", "type": "Gare accessible", "icone": "Icon1"}, "geometry": {"type": "Point", "coordinates": [1.627173, 50.682422]}}, {"type": "Feature", "properties": {"start": "Caffiers", "stop_name": "Hesdigneul", "type": "Gare accessible", "icone": "Icon1"}, "geometry": {"type": "Point", "coordinates": [1.666998, 50.661095]}}, {"type": "Feature", "properties": {"start": "Caffiers", "stop_name": "Neufch\u00e2tel-Hardelot", "type": "Gare accessible", "icone": "Icon1"}, "geometry": {"type": "Point", "coordinates": [1.643352, 50.623564]}}, {"type": "Feature", "properties": {"start": "Caffiers", "stop_name": "Dannes - Camiers", "type": "Gare accessible", "icone": "Icon1"}, "geometry": {"type": "Point", "coordinates": [1.614497, 50.575889]}}, {"type": "Feature", "properties": {"start": "Caffiers", "stop_name": "\u00c9taples - Le Touquet", "type": "Gare accessible", "icone": "Icon1"}, "geometry": {"type": "Point", "coordinates": [1.642582, 50.516544]}}, {"type": "Feature", "properties": {"start": "Caffiers", "stop_name": "Rang-du-Fliers - Verton - Berck", "type": "Gare accessible", "icone": "Icon1"}, "geometry": {"type": "Point", "coordinates": [1.648048, 50.415845]}}]}