{"type": "FeatureCollection", "features": [{"type": "Feature", "properties": {"stop_name": "Capdenac", "type": "Gare s\u00e9lectionn\u00e9e", "icone": "Icon2"}, "geometry": {"type": "Point", "coordinates": [2.077963, 44.578246]}}, {"type": "Feature", "properties": {"stop_name": "Figeac", "type": "Gare accessible", "icone": "Icon1"}, "geometry": {"type": "Point", "coordinates": [2.037355, 44.603515]}}, {"type": "Feature", "properties": {"stop_name": "Toulouse Matabiau", "type": "Gare accessible", "icone": "Icon1"}, "geometry": {"type": "Point", "coordinates": [1.453616, 43.611206]}}, {"type": "Feature", "properties": {"stop_name": "Saint-Sulpice", "type": "Gare accessible", "icone": "Icon1"}, "geometry": {"type": "Point", "coordinates": [1.680702, 43.775073]}}, {"type": "Feature", "properties": {"stop_name": "Lisle-sur-Tarn", "type": "Gare accessible", "icone": "Icon1"}, "geometry": {"type": "Point", "coordinates": [1.80823, 43.856390000000005]}}, {"type": "Feature", "properties": {"stop_name": "Gaillac", "type": "Gare accessible", "icone": "Icon1"}, "geometry": {"type": "Point", "coordinates": [1.89483, 43.905984000000004]}}, {"type": "Feature", "properties": {"stop_name": "Tessonni\u00e8res", "type": "Gare accessible", "icone": "Icon1"}, "geometry": {"type": "Point", "coordinates": [1.936953, 43.928421]}}, {"type": "Feature", "properties": {"stop_name": "Cordes - Vindrac", "type": "Gare accessible", "icone": "Icon1"}, "geometry": {"type": "Point", "coordinates": [1.900229, 44.067189]}}, {"type": "Feature", "properties": {"stop_name": "Lexos", "type": "Gare accessible", "icone": "Icon1"}, "geometry": {"type": "Point", "coordinates": [1.885101, 44.142396000000005]}}, {"type": "Feature", "properties": {"stop_name": "Lagu\u00e9pie", "type": "Gare accessible", "icone": "Icon1"}, "geometry": {"type": "Point", "coordinates": [1.968591, 44.145485]}}, {"type": "Feature", "properties": {"stop_name": "La Fouillade", "type": "Gare accessible", "icone": "Icon1"}, "geometry": {"type": "Point", "coordinates": [2.041993, 44.231109000000004]}}, {"type": "Feature", "properties": {"stop_name": "Villefranche-de-Rouergue", "type": "Gare accessible", "icone": "Icon1"}, "geometry": {"type": "Point", "coordinates": [2.036459, 44.347498]}}, {"type": "Feature", "properties": {"stop_name": "Villeneuve-d'Aveyron", "type": "Gare accessible", "icone": "Icon1"}, "geometry": {"type": "Point", "coordinates": [2.029952, 44.436802]}}, {"type": "Feature", "properties": {"stop_name": "Rodez", "type": "Gare accessible", "icone": "Icon1"}, "geometry": {"type": "Point", "coordinates": [2.58056, 44.362633]}}, {"type": "Feature", "properties": {"stop_name": "Saint-Christophe", "type": "Gare accessible", "icone": "Icon1"}, "geometry": {"type": "Point", "coordinates": [2.407758, 44.464619]}}, {"type": "Feature", "properties": {"stop_name": "Cransac", "type": "Gare accessible", "icone": "Icon1"}, "geometry": {"type": "Point", "coordinates": [2.271867, 44.522951]}}, {"type": "Feature", "properties": {"stop_name": "Aubin", "type": "Gare accessible", "icone": "Icon1"}, "geometry": {"type": "Point", "coordinates": [2.239313, 44.527276]}}, {"type": "Feature", "properties": {"stop_name": "Viviez - Decazeville", "type": "Gare accessible", "icone": "Icon1"}, "geometry": {"type": "Point", "coordinates": [2.218258, 44.555568]}}, {"type": "Feature", "properties": {"stop_name": "Assier", "type": "Gare accessible", "icone": "Icon1"}, "geometry": {"type": "Point", "coordinates": [1.869757, 44.67468]}}, {"type": "Feature", "properties": {"stop_name": "Gramat", "type": "Gare accessible", "icone": "Icon1"}, "geometry": {"type": "Point", "coordinates": [1.722343, 44.773548999999996]}}, {"type": "Feature", "properties": {"stop_name": "Rocamadour - Padirac", "type": "Gare accessible", "icone": "Icon1"}, "geometry": {"type": "Point", "coordinates": [1.657104, 44.818243]}}, {"type": "Feature", "properties": {"stop_name": "Saint-Denis-l\u00e8s-Martel", "type": "Gare accessible", "icone": "Icon1"}, "geometry": {"type": "Point", "coordinates": [1.666238, 44.946028999999996]}}, {"type": "Feature", "properties": {"stop_name": "Les Quatre-Routes", "type": "Gare accessible", "icone": "Icon1"}, "geometry": {"type": "Point", "coordinates": [1.643914, 44.997639]}}, {"type": "Feature", "properties": {"stop_name": "Brive-la-Gaillarde", "type": "Gare accessible", "icone": "Icon1"}, "geometry": {"type": "Point", "coordinates": [1.528634, 45.152601000000004]}}, {"type": "Feature", "properties": {"stop_name": "Turenne", "type": "Gare accessible", "icone": "Icon1"}, "geometry": {"type": "Point", "coordinates": [1.600704, 45.037954]}}, {"type": "Feature", "properties": {"stop_name": "Salles-Courbati\u00e8s", "type": "Gare accessible", "icone": "Icon1"}, "geometry": {"type": "Point", "coordinates": [2.07892, 44.475085]}}, {"type": "Feature", "properties": {"stop_name": "Najac", "type": "Gare accessible", "icone": "Icon1"}, "geometry": {"type": "Point", "coordinates": [1.976163, 44.221802000000004]}}, {"type": "Feature", "properties": {"stop_name": "Montastruc-la-Conseill\u00e8re", "type": "Gare accessible", "icone": "Icon1"}, "geometry": {"type": "Point", "coordinates": [1.598016, 43.715984000000006]}}, {"type": "Feature", "properties": {"stop_name": "Gragnague", "type": "Gare accessible", "icone": "Icon1"}, "geometry": {"type": "Point", "coordinates": [1.567514, 43.695951]}}]}