{"type": "FeatureCollection", "features": [{"type": "Feature", "properties": {"start": "Chantenay-Saint-Imbert", "stop_name": "Chantenay-Saint-Imbert", "type": "Gare s\u00e9lectionn\u00e9e", "iconstarte": "Icon2"}, "geometry": {"type": "Point", "coordinates": [3.171472, 46.728556]}}, {"type": "Feature", "properties": {"start": "Chantenay-Saint-Imbert", "stop_name": "Clermont-Ferrand", "type": "Gare accessible", "icone": "TER"}, "geometry": {"type": "Point", "coordinates": [3.100543, 45.778945]}}, {"type": "Feature", "properties": {"start": "Chantenay-Saint-Imbert", "stop_name": "Riom - Ch\u00e2tel-Guyon", "type": "Gare accessible", "icone": "TER"}, "geometry": {"type": "Point", "coordinates": [3.120498, 45.889965]}}, {"type": "Feature", "properties": {"start": "Chantenay-Saint-Imbert", "stop_name": "Vichy", "type": "Gare accessible", "icone": "TER"}, "geometry": {"type": "Point", "coordinates": [3.430476, 46.126991]}}, {"type": "Feature", "properties": {"start": "Chantenay-Saint-Imbert", "stop_name": "Saint-Germain-des-Foss\u00e9s", "type": "Gare accessible", "icone": "TER"}, "geometry": {"type": "Point", "coordinates": [3.430574, 46.209239]}}, {"type": "Feature", "properties": {"start": "Chantenay-Saint-Imbert", "stop_name": "Varennes-sur-Allier", "type": "Gare accessible", "icone": "TER"}, "geometry": {"type": "Point", "coordinates": [3.394239, 46.3155]}}, {"type": "Feature", "properties": {"start": "Chantenay-Saint-Imbert", "stop_name": "Bessay", "type": "Gare accessible", "icone": "TER"}, "geometry": {"type": "Point", "coordinates": [3.360642, 46.442973]}}, {"type": "Feature", "properties": {"start": "Chantenay-Saint-Imbert", "stop_name": "Moulins sur Allier", "type": "Gare accessible", "icone": "TER"}, "geometry": {"type": "Point", "coordinates": [3.338782, 46.561394]}}, {"type": "Feature", "properties": {"start": "Chantenay-Saint-Imbert", "stop_name": "Saint-Pierre-le-Mo\u00fbtier", "type": "Gare accessible", "icone": "TER"}, "geometry": {"type": "Point", "coordinates": [3.111738, 46.793278]}}, {"type": "Feature", "properties": {"start": "Chantenay-Saint-Imbert", "stop_name": "Nevers", "type": "Gare accessible", "icone": "TER"}, "geometry": {"type": "Point", "coordinates": [3.150743, 46.987282]}}, {"type": "Feature", "properties": {"start": "Chantenay-Saint-Imbert", "stop_name": "Saincaize", "type": "Gare accessible", "icone": "TER"}, "geometry": {"type": "Point", "coordinates": [3.071937, 46.931405]}}, {"type": "Feature", "properties": {"start": "Chantenay-Saint-Imbert", "stop_name": "Villeneuve-sur-Allier", "type": "Gare accessible", "icone": "TER"}, "geometry": {"type": "Point", "coordinates": [3.247165, 46.658954]}}, {"type": "Feature", "properties": {"start": "Chantenay-Saint-Imbert", "stop_name": "Decize", "type": "Gare accessible", "icone": "TER"}, "geometry": {"type": "Point", "coordinates": [3.467289, 46.83736]}}, {"type": "Feature", "properties": {"start": "Chantenay-Saint-Imbert", "stop_name": "B\u00e9ard", "type": "Gare accessible", "icone": "TER"}, "geometry": {"type": "Point", "coordinates": [3.318075, 46.865293]}}, {"type": "Feature", "properties": {"start": "Chantenay-Saint-Imbert", "stop_name": "Imphy", "type": "Gare accessible", "icone": "TER"}, "geometry": {"type": "Point", "coordinates": [3.259737, 46.933402]}}, {"type": "Feature", "properties": {"start": "Chantenay-Saint-Imbert", "stop_name": "Nevers le Banlay", "type": "Gare accessible", "icone": "TER"}, "geometry": {"type": "Point", "coordinates": [3.163687, 47.006853]}}, {"type": "Feature", "properties": {"start": "Chantenay-Saint-Imbert", "stop_name": "Les Perri\u00e8res", "type": "Gare accessible", "icone": "TER"}, "geometry": {"type": "Point", "coordinates": [3.146714, 47.005521]}}]}