{"type": "FeatureCollection", "features": [{"type": "Feature", "properties": {"start": "Cholet", "stop_name": "Cholet", "type": "Gare s\u00e9lectionn\u00e9e", "iconstarte": "Icon2"}, "geometry": {"type": "Point", "coordinates": [-0.869897, 47.065702]}}, {"type": "Feature", "properties": {"start": "Cholet", "stop_name": "Chemill\u00e9", "type": "Gare accessible", "icone": "Icon1"}, "geometry": {"type": "Point", "coordinates": [-0.731989, 47.217748]}}, {"type": "Feature", "properties": {"start": "Cholet", "stop_name": "Chalonnes", "type": "Gare accessible", "icone": "Icon1"}, "geometry": {"type": "Point", "coordinates": [-0.743801, 47.343001]}}, {"type": "Feature", "properties": {"start": "Cholet", "stop_name": "La Possonni\u00e8re", "type": "Gare accessible", "icone": "Icon1"}, "geometry": {"type": "Point", "coordinates": [-0.691742, 47.37149]}}, {"type": "Feature", "properties": {"start": "Cholet", "stop_name": "Savenni\u00e8res - B\u00e9huard", "type": "Gare accessible", "icone": "Icon1"}, "geometry": {"type": "Point", "coordinates": [-0.655122, 47.381329]}}, {"type": "Feature", "properties": {"start": "Cholet", "stop_name": "Angers Saint-Laud", "type": "Gare accessible", "icone": "Icon1"}, "geometry": {"type": "Point", "coordinates": [-0.55677, 47.464649]}}, {"type": "Feature", "properties": {"start": "Cholet", "stop_name": "Tr\u00e9laz\u00e9", "type": "Gare accessible", "icone": "Icon1"}, "geometry": {"type": "Point", "coordinates": [-0.469666, 47.452845]}}, {"type": "Feature", "properties": {"start": "Cholet", "stop_name": "La Bohalle", "type": "Gare accessible", "icone": "Icon1"}, "geometry": {"type": "Point", "coordinates": [-0.400124, 47.434229]}}, {"type": "Feature", "properties": {"start": "Cholet", "stop_name": "Saint-Mathurin", "type": "Gare accessible", "icone": "Icon1"}, "geometry": {"type": "Point", "coordinates": [-0.318099, 47.412073]}}, {"type": "Feature", "properties": {"start": "Cholet", "stop_name": "La M\u00e9nitr\u00e9", "type": "Gare accessible", "icone": "Icon1"}, "geometry": {"type": "Point", "coordinates": [-0.275838, 47.397383]}}, {"type": "Feature", "properties": {"start": "Cholet", "stop_name": "Les Rosiers-sur-Loire", "type": "Gare accessible", "icone": "Icon1"}, "geometry": {"type": "Point", "coordinates": [-0.219373, 47.361859]}}, {"type": "Feature", "properties": {"start": "Cholet", "stop_name": "Saumur", "type": "Gare accessible", "icone": "Icon1"}, "geometry": {"type": "Point", "coordinates": [-0.071403, 47.268994]}}, {"type": "Feature", "properties": {"start": "Cholet", "stop_name": "Torfou", "type": "Gare accessible", "icone": "Icon1"}, "geometry": {"type": "Point", "coordinates": [-1.117492, 47.03319]}}, {"type": "Feature", "properties": {"start": "Cholet", "stop_name": "Boussay - La Bruffi\u00e8re", "type": "Gare accessible", "icone": "Icon1"}, "geometry": {"type": "Point", "coordinates": [-1.182615, 47.050453]}}, {"type": "Feature", "properties": {"start": "Cholet", "stop_name": "Cugand", "type": "Gare accessible", "icone": "Icon1"}, "geometry": {"type": "Point", "coordinates": [-1.25331, 47.05837]}}, {"type": "Feature", "properties": {"start": "Cholet", "stop_name": "Clisson", "type": "Gare accessible", "icone": "Icon1"}, "geometry": {"type": "Point", "coordinates": [-1.286292, 47.086015]}}, {"type": "Feature", "properties": {"start": "Cholet", "stop_name": "Nantes", "type": "Gare accessible", "icone": "Icon1"}, "geometry": {"type": "Point", "coordinates": [-1.542077, 47.217491]}}]}