{"type": "FeatureCollection", "features": [{"type": "Feature", "properties": {"stop_name": "Ch\u00e2teaubriant", "type": "Gare s\u00e9lectionn\u00e9e", "icone": "Icon2"}, "geometry": {"type": "Point", "coordinates": [-1.371515, 47.717521000000005]}}, {"type": "Feature", "properties": {"stop_name": "Martign\u00e9-Ferchaud", "type": "Gare accessible", "icone": "Icon1"}, "geometry": {"type": "Point", "coordinates": [-1.313808, 47.832044]}}, {"type": "Feature", "properties": {"stop_name": "Retiers", "type": "Gare accessible", "icone": "Icon1"}, "geometry": {"type": "Point", "coordinates": [-1.389626, 47.913257]}}, {"type": "Feature", "properties": {"stop_name": "Le Theil-de-Bretagne", "type": "Gare accessible", "icone": "Icon1"}, "geometry": {"type": "Point", "coordinates": [-1.431993, 47.918742]}}, {"type": "Feature", "properties": {"stop_name": "Janz\u00e9", "type": "Gare accessible", "icone": "Icon1"}, "geometry": {"type": "Point", "coordinates": [-1.497627, 47.955308]}}, {"type": "Feature", "properties": {"stop_name": "Corps-Nuds", "type": "Gare accessible", "icone": "Icon1"}, "geometry": {"type": "Point", "coordinates": [-1.575472, 47.985167]}}, {"type": "Feature", "properties": {"stop_name": "Saint-Armel", "type": "Gare accessible", "icone": "Icon1"}, "geometry": {"type": "Point", "coordinates": [-1.594774, 48.014340000000004]}}, {"type": "Feature", "properties": {"stop_name": "Vern", "type": "Gare accessible", "icone": "Icon1"}, "geometry": {"type": "Point", "coordinates": [-1.596529, 48.046849]}}, {"type": "Feature", "properties": {"stop_name": "La Poterie", "type": "Gare accessible", "icone": "Icon1"}, "geometry": {"type": "Point", "coordinates": [-1.630773, 48.092345]}}, {"type": "Feature", "properties": {"stop_name": "Rennes", "type": "Gare accessible", "icone": "Icon1"}, "geometry": {"type": "Point", "coordinates": [-1.6727439999999998, 48.103517]}}]}