{"type": "FeatureCollection", "features": [{"type": "Feature", "properties": {"stop_name": "Ch\u00e2tenois Gare", "type": "Gare s\u00e9lectionn\u00e9e"}, "geometry": {"type": "Point", "coordinates": [7.402036, 48.276073]}}, {"type": "Feature", "properties": {"stop_name": "Ste-Marie-aux-Mines Mairie", "type": "Gare accessible"}, "geometry": {"type": "Point", "coordinates": [7.18224, 48.245575]}}, {"type": "Feature", "properties": {"stop_name": "Ste-Marie-aux-Ms P. de Gaulle", "type": "Gare accessible"}, "geometry": {"type": "Point", "coordinates": [7.176407, 48.243631]}}, {"type": "Feature", "properties": {"stop_name": "Ste-Marie-aux-Mines Th\u00e9\u00e2tre", "type": "Gare accessible"}, "geometry": {"type": "Point", "coordinates": [7.180613, 48.243805]}}, {"type": "Feature", "properties": {"stop_name": "Ste-Marie-aux-Mines Super U", "type": "Gare accessible"}, "geometry": {"type": "Point", "coordinates": [7.189329, 48.248212]}}, {"type": "Feature", "properties": {"stop_name": "Ste-Marie-aux-M S. Techniques", "type": "Gare accessible"}, "geometry": {"type": "Point", "coordinates": [7.194723, 48.252047]}}, {"type": "Feature", "properties": {"stop_name": "Ste-Croix Sq. G. de Gaulle", "type": "Gare accessible"}, "geometry": {"type": "Point", "coordinates": [7.218907, 48.261131]}}, {"type": "Feature", "properties": {"stop_name": "Sainte-Croix-aux-Mines Centre", "type": "Gare accessible"}, "geometry": {"type": "Point", "coordinates": [7.225324, 48.262741]}}, {"type": "Feature", "properties": {"stop_name": "Ste-Croix-aux-Mines Stimbach", "type": "Gare accessible"}, "geometry": {"type": "Point", "coordinates": [7.235371, 48.265375]}}, {"type": "Feature", "properties": {"stop_name": "Li\u00e8pvre Musloch", "type": "Gare accessible"}, "geometry": {"type": "Point", "coordinates": [7.248574, 48.267648]}}, {"type": "Feature", "properties": {"stop_name": "Li\u00e8pvre Rue Robert Guth", "type": "Gare accessible"}, "geometry": {"type": "Point", "coordinates": [7.269449, 48.270081]}}, {"type": "Feature", "properties": {"stop_name": "Li\u00e8pvre Pharmacie", "type": "Gare accessible"}, "geometry": {"type": "Point", "coordinates": [7.280695, 48.270855]}}, {"type": "Feature", "properties": {"stop_name": "Ch\u00e2tenois Val-de-Vill\u00e9 Gare", "type": "Gare accessible"}, "geometry": {"type": "Point", "coordinates": [7.38417, 48.282629]}}, {"type": "Feature", "properties": {"stop_name": "S\u00e9lestat R. Ste-Marie-a.-Mines", "type": "Gare accessible"}, "geometry": {"type": "Point", "coordinates": [7.439898, 48.263912]}}, {"type": "Feature", "properties": {"stop_name": "S\u00e9lestat", "type": "Gare accessible"}, "geometry": {"type": "Point", "coordinates": [7.443157, 48.259824]}}, {"type": "Feature", "properties": {"stop_name": "Li\u00e8pvre Bois l'Abesse ZI", "type": "Gare accessible"}, "geometry": {"type": "Point", "coordinates": [7.319861, 48.269132]}}, {"type": "Feature", "properties": {"stop_name": "Li\u00e8pvre Centre", "type": "Gare accessible"}, "geometry": {"type": "Point", "coordinates": [7.282034, 48.270932]}}, {"type": "Feature", "properties": {"stop_name": "Ste-Marie-aux-Mines Espace Mus\u00e9es", "type": "Gare accessible"}, "geometry": {"type": "Point", "coordinates": [7.188331, 48.248889]}}, {"type": "Feature", "properties": {"stop_name": "Raves (Ancienne Gare)", "type": "Gare accessible"}, "geometry": {"type": "Point", "coordinates": [7.049739, 48.271964000000004]}}, {"type": "Feature", "properties": {"stop_name": "Remomeix Abri", "type": "Gare accessible"}, "geometry": {"type": "Point", "coordinates": [6.99321, 48.264826]}}, {"type": "Feature", "properties": {"stop_name": "Sainte-Marguerite Village", "type": "Gare accessible"}, "geometry": {"type": "Point", "coordinates": [6.980849, 48.268632000000004]}}, {"type": "Feature", "properties": {"stop_name": "Ste Marguerite Cora", "type": "Gare accessible"}, "geometry": {"type": "Point", "coordinates": [6.967577, 48.273751000000004]}}, {"type": "Feature", "properties": {"stop_name": "Saint-Di\u00e9 Rue d'Alsace", "type": "Gare accessible"}, "geometry": {"type": "Point", "coordinates": [6.955555, 48.280004999999996]}}, {"type": "Feature", "properties": {"stop_name": "Saint-Di\u00e9-des-Vosges", "type": "Gare accessible"}, "geometry": {"type": "Point", "coordinates": [6.948516, 48.282043]}}, {"type": "Feature", "properties": {"stop_name": "Rombach-le-Franc  Place des F\u00eates", "type": "Gare accessible"}, "geometry": {"type": "Point", "coordinates": [7.264459, 48.281963]}}, {"type": "Feature", "properties": {"stop_name": "Rombach-le-Franc Scierie", "type": "Gare accessible"}, "geometry": {"type": "Point", "coordinates": [7.270575, 48.278908]}}, {"type": "Feature", "properties": {"stop_name": "Li\u00e8pvre Rue du Vieux Moulin", "type": "Gare accessible"}, "geometry": {"type": "Point", "coordinates": [7.277606, 48.277167]}}, {"type": "Feature", "properties": {"stop_name": "Sainte-Marie-aux-Mines Cit\u00e9 Scolaire", "type": "Gare accessible"}, "geometry": {"type": "Point", "coordinates": [7.170264, 48.236928999999996]}}, {"type": "Feature", "properties": {"stop_name": "Li\u00e8pvre Route La Vancelle", "type": "Gare accessible"}, "geometry": {"type": "Point", "coordinates": [7.289057, 48.271918]}}, {"type": "Feature", "properties": {"stop_name": "La Vancelle Centre", "type": "Gare accessible"}, "geometry": {"type": "Point", "coordinates": [7.301402, 48.285278000000005]}}, {"type": "Feature", "properties": {"stop_name": "La Vancelle Hurst", "type": "Gare accessible"}, "geometry": {"type": "Point", "coordinates": [7.342239, 48.278908]}}, {"type": "Feature", "properties": {"stop_name": "S\u00e9lestat  Schweisguth", "type": "Gare accessible"}, "geometry": {"type": "Point", "coordinates": [7.450064, 48.261409]}}, {"type": "Feature", "properties": {"stop_name": "S\u00e9lestat Koeberl\u00e9", "type": "Gare accessible"}, "geometry": {"type": "Point", "coordinates": [7.455365, 48.26328]}}, {"type": "Feature", "properties": {"stop_name": "S\u00e9lestat Schwilgu\u00e9", "type": "Gare accessible"}, "geometry": {"type": "Point", "coordinates": [7.446681, 48.251647999999996]}}, {"type": "Feature", "properties": {"stop_name": "Li\u00e8pvre \u00c9coles", "type": "Gare accessible"}, "geometry": {"type": "Point", "coordinates": [7.280824, 48.272411]}}]}