{"type": "FeatureCollection", "features": [{"type": "Feature", "properties": {"start": "Cinq-Mars-la-Pile", "stop_name": "Cinq-Mars-la-Pile", "type": "Gare s\u00e9lectionn\u00e9e", "iconstarte": "Icon2"}, "geometry": {"type": "Point", "coordinates": [0.459387, 47.345112]}}, {"type": "Feature", "properties": {"start": "Cinq-Mars-la-Pile", "stop_name": "Tours", "type": "Gare accessible", "icone": "Icon1"}, "geometry": {"type": "Point", "coordinates": [0.692831, 47.389866]}}, {"type": "Feature", "properties": {"start": "Cinq-Mars-la-Pile", "stop_name": "Langeais", "type": "Gare accessible", "icone": "Icon1"}, "geometry": {"type": "Point", "coordinates": [0.410104, 47.324058]}}, {"type": "Feature", "properties": {"start": "Cinq-Mars-la-Pile", "stop_name": "Port Boulet", "type": "Gare accessible", "icone": "Icon1"}, "geometry": {"type": "Point", "coordinates": [0.155648, 47.248836]}}, {"type": "Feature", "properties": {"start": "Cinq-Mars-la-Pile", "stop_name": "Saumur", "type": "Gare accessible", "icone": "Icon1"}, "geometry": {"type": "Point", "coordinates": [-0.071403, 47.268994]}}, {"type": "Feature", "properties": {"start": "Cinq-Mars-la-Pile", "stop_name": "La M\u00e9nitr\u00e9", "type": "Gare accessible", "icone": "Icon1"}, "geometry": {"type": "Point", "coordinates": [-0.275838, 47.397383]}}, {"type": "Feature", "properties": {"start": "Cinq-Mars-la-Pile", "stop_name": "Angers Saint-Laud", "type": "Gare accessible", "icone": "Icon1"}, "geometry": {"type": "Point", "coordinates": [-0.55677, 47.464649]}}, {"type": "Feature", "properties": {"start": "Cinq-Mars-la-Pile", "stop_name": "Ancenis", "type": "Gare accessible", "icone": "Icon1"}, "geometry": {"type": "Point", "coordinates": [-1.177763, 47.369334]}}, {"type": "Feature", "properties": {"start": "Cinq-Mars-la-Pile", "stop_name": "Nantes", "type": "Gare accessible", "icone": "Icon1"}, "geometry": {"type": "Point", "coordinates": [-1.542077, 47.217491]}}, {"type": "Feature", "properties": {"start": "Cinq-Mars-la-Pile", "stop_name": "Les Rosiers-sur-Loire", "type": "Gare accessible", "icone": "Icon1"}, "geometry": {"type": "Point", "coordinates": [-0.219373, 47.361859]}}, {"type": "Feature", "properties": {"start": "Cinq-Mars-la-Pile", "stop_name": "Saint-Mathurin", "type": "Gare accessible", "icone": "Icon1"}, "geometry": {"type": "Point", "coordinates": [-0.318099, 47.412073]}}, {"type": "Feature", "properties": {"start": "Cinq-Mars-la-Pile", "stop_name": "La Bohalle", "type": "Gare accessible", "icone": "Icon1"}, "geometry": {"type": "Point", "coordinates": [-0.400124, 47.434229]}}, {"type": "Feature", "properties": {"start": "Cinq-Mars-la-Pile", "stop_name": "Tr\u00e9laz\u00e9", "type": "Gare accessible", "icone": "Icon1"}, "geometry": {"type": "Point", "coordinates": [-0.469666, 47.452845]}}, {"type": "Feature", "properties": {"start": "Cinq-Mars-la-Pile", "stop_name": "Savenay", "type": "Gare accessible", "icone": "Icon1"}, "geometry": {"type": "Point", "coordinates": [-1.951007, 47.358602]}}, {"type": "Feature", "properties": {"start": "Cinq-Mars-la-Pile", "stop_name": "Saint-Nazaire", "type": "Gare accessible", "icone": "Icon1"}, "geometry": {"type": "Point", "coordinates": [-2.211079, 47.286489]}}, {"type": "Feature", "properties": {"start": "Cinq-Mars-la-Pile", "stop_name": "Pornichet", "type": "Gare accessible", "icone": "Icon1"}, "geometry": {"type": "Point", "coordinates": [-2.344865, 47.27043]}}, {"type": "Feature", "properties": {"start": "Cinq-Mars-la-Pile", "stop_name": "La Baule les Pins", "type": "Gare accessible", "icone": "Icon1"}, "geometry": {"type": "Point", "coordinates": [-2.364885, 47.28345]}}, {"type": "Feature", "properties": {"start": "Cinq-Mars-la-Pile", "stop_name": "La Baule-Escoublac", "type": "Gare accessible", "icone": "Icon1"}, "geometry": {"type": "Point", "coordinates": [-2.38921, 47.288459]}}, {"type": "Feature", "properties": {"start": "Cinq-Mars-la-Pile", "stop_name": "Le Pouliguen", "type": "Gare accessible", "icone": "Icon1"}, "geometry": {"type": "Point", "coordinates": [-2.433126, 47.282504]}}, {"type": "Feature", "properties": {"start": "Cinq-Mars-la-Pile", "stop_name": "Batz-sur-Mer", "type": "Gare accessible", "icone": "Icon1"}, "geometry": {"type": "Point", "coordinates": [-2.478869, 47.280855]}}, {"type": "Feature", "properties": {"start": "Cinq-Mars-la-Pile", "stop_name": "Le Croisic", "type": "Gare accessible", "icone": "Icon1"}, "geometry": {"type": "Point", "coordinates": [-2.50734, 47.289889]}}, {"type": "Feature", "properties": {"start": "Cinq-Mars-la-Pile", "stop_name": "La Chapelle-sur-Loire", "type": "Gare accessible", "icone": "Icon1"}, "geometry": {"type": "Point", "coordinates": [0.218481, 47.251227]}}, {"type": "Feature", "properties": {"start": "Cinq-Mars-la-Pile", "stop_name": "Saint-Patrice", "type": "Gare accessible", "icone": "Icon1"}, "geometry": {"type": "Point", "coordinates": [0.309645, 47.285659]}}, {"type": "Feature", "properties": {"start": "Cinq-Mars-la-Pile", "stop_name": "Savonni\u00e8res", "type": "Gare accessible", "icone": "Icon1"}, "geometry": {"type": "Point", "coordinates": [0.544182, 47.36058]}}, {"type": "Feature", "properties": {"start": "Cinq-Mars-la-Pile", "stop_name": "Saint-Genouph", "type": "Gare accessible", "icone": "Icon1"}, "geometry": {"type": "Point", "coordinates": [0.59691, 47.371065]}}, {"type": "Feature", "properties": {"start": "Cinq-Mars-la-Pile", "stop_name": "Saint-Pierre-des-Corps", "type": "Gare accessible", "icone": "Icon1"}, "geometry": {"type": "Point", "coordinates": [0.723539, 47.38614]}}, {"type": "Feature", "properties": {"start": "Cinq-Mars-la-Pile", "stop_name": "Thouars", "type": "Gare accessible", "icone": "Icon1"}, "geometry": {"type": "Point", "coordinates": [-0.21002, 46.985039]}}, {"type": "Feature", "properties": {"start": "Cinq-Mars-la-Pile", "stop_name": "Montreuil-Bellay", "type": "Gare accessible", "icone": "Icon1"}, "geometry": {"type": "Point", "coordinates": [-0.148283, 47.125418]}}, {"type": "Feature", "properties": {"start": "Cinq-Mars-la-Pile", "stop_name": "Bressuire", "type": "Gare accessible", "icone": "Icon1"}, "geometry": {"type": "Point", "coordinates": [-0.49614, 46.838403]}}, {"type": "Feature", "properties": {"start": "Cinq-Mars-la-Pile", "stop_name": "Cerizay", "type": "Gare accessible", "icone": "Icon1"}, "geometry": {"type": "Point", "coordinates": [-0.667313, 46.817551]}}, {"type": "Feature", "properties": {"start": "Cinq-Mars-la-Pile", "stop_name": "Pouzauges", "type": "Gare accessible", "icone": "Icon1"}, "geometry": {"type": "Point", "coordinates": [-0.814603, 46.752417]}}, {"type": "Feature", "properties": {"start": "Cinq-Mars-la-Pile", "stop_name": "Chantonnay", "type": "Gare accessible", "icone": "Icon1"}, "geometry": {"type": "Point", "coordinates": [-1.054325, 46.690068]}}, {"type": "Feature", "properties": {"start": "Cinq-Mars-la-Pile", "stop_name": "La Roche-sur-Yon", "type": "Gare accessible", "icone": "Icon1"}, "geometry": {"type": "Point", "coordinates": [-1.43566, 46.672075]}}]}