{"type": "FeatureCollection", "features": [{"type": "Feature", "properties": {"stop_name": "Civrieux-d'Azergues D 385", "type": "Gare s\u00e9lectionn\u00e9e"}, "geometry": {"type": "Point", "coordinates": [4.712116, 45.857996]}}, {"type": "Feature", "properties": {"stop_name": "Lyon Gorge de Loup", "type": "Gare accessible"}, "geometry": {"type": "Point", "coordinates": [4.804697, 45.766095]}}, {"type": "Feature", "properties": {"stop_name": "Ecully Arr\u00eat TCL Demi-Lune Vauboin", "type": "Gare accessible"}, "geometry": {"type": "Point", "coordinates": [4.782094, 45.764424]}}, {"type": "Feature", "properties": {"stop_name": "Dardilly les Mouilles", "type": "Gare accessible"}, "geometry": {"type": "Point", "coordinates": [4.760041, 45.796769]}}, {"type": "Feature", "properties": {"stop_name": "Dardilly - Le Jubin", "type": "Gare accessible"}, "geometry": {"type": "Point", "coordinates": [4.761095, 45.815763000000004]}}, {"type": "Feature", "properties": {"stop_name": "Dommartin La Chicoti\u00e8re D 385", "type": "Gare accessible"}, "geometry": {"type": "Point", "coordinates": [4.732758, 45.844812]}}, {"type": "Feature", "properties": {"stop_name": "Lozanne", "type": "Gare accessible"}, "geometry": {"type": "Point", "coordinates": [4.681474, 45.854174]}}, {"type": "Feature", "properties": {"stop_name": "Lyon-Saint-Paul Quai de Bondy", "type": "Gare accessible"}, "geometry": {"type": "Point", "coordinates": [4.828287, 45.766595]}}]}