{"type": "FeatureCollection", "features": [{"type": "Feature", "properties": {"start": "Cize - Bolozon", "stop_name": "Cize - Bolozon", "type": "Gare s\u00e9lectionn\u00e9e", "iconstarte": "Icon2"}, "geometry": {"type": "Point", "coordinates": [5.454068, 46.21348]}}, {"type": "Feature", "properties": {"start": "Cize - Bolozon", "stop_name": "Bourg-en-Bresse", "type": "Gare accessible", "icone": "Icon1"}, "geometry": {"type": "Point", "coordinates": [5.215011, 46.200111]}}, {"type": "Feature", "properties": {"start": "Cize - Bolozon", "stop_name": "Ceyz\u00e9riat", "type": "Gare accessible", "icone": "Icon1"}, "geometry": {"type": "Point", "coordinates": [5.325636, 46.183333]}}, {"type": "Feature", "properties": {"start": "Cize - Bolozon", "stop_name": "Villereversure", "type": "Gare accessible", "icone": "Icon1"}, "geometry": {"type": "Point", "coordinates": [5.397474, 46.194192]}}, {"type": "Feature", "properties": {"start": "Cize - Bolozon", "stop_name": "Simandre-sur-Suran", "type": "Gare accessible", "icone": "Icon1"}, "geometry": {"type": "Point", "coordinates": [5.421093, 46.22021]}}, {"type": "Feature", "properties": {"start": "Cize - Bolozon", "stop_name": "Nurieux Gare", "type": "Gare accessible", "icone": "Icon1"}, "geometry": {"type": "Point", "coordinates": [5.5273, 46.186468]}}, {"type": "Feature", "properties": {"start": "Cize - Bolozon", "stop_name": "Brion - Montr\u00e9al-la-Cluse Gare", "type": "Gare accessible", "icone": "Icon1"}, "geometry": {"type": "Point", "coordinates": [5.558513, 46.175774]}}, {"type": "Feature", "properties": {"start": "Cize - Bolozon", "stop_name": "Bellignat", "type": "Gare accessible", "icone": "Icon1"}, "geometry": {"type": "Point", "coordinates": [5.630407, 46.238622]}}, {"type": "Feature", "properties": {"start": "Cize - Bolozon", "stop_name": "Oyonnax", "type": "Gare accessible", "icone": "Icon1"}, "geometry": {"type": "Point", "coordinates": [5.653281, 46.259671]}}, {"type": "Feature", "properties": {"start": "Cize - Bolozon", "stop_name": "Amb\u00e9rieu-en-Bugey", "type": "Gare accessible", "icone": "Icon1"}, "geometry": {"type": "Point", "coordinates": [5.342402, 45.954014]}}, {"type": "Feature", "properties": {"start": "Cize - Bolozon", "stop_name": "Lyon Part Dieu", "type": "Gare accessible", "icone": "Icon1"}, "geometry": {"type": "Point", "coordinates": [4.859409, 45.760596]}}, {"type": "Feature", "properties": {"start": "Cize - Bolozon", "stop_name": "Lyon Perrache", "type": "Gare accessible", "icone": "Icon1"}, "geometry": {"type": "Point", "coordinates": [4.825777, 45.748508]}}]}