{"type": "FeatureCollection", "features": [{"type": "Feature", "properties": {"start": "Conlie", "stop_name": "Conlie", "type": "Gare s\u00e9lectionn\u00e9e", "iconstarte": "Icon2"}, "geometry": {"type": "Point", "coordinates": [-0.01162, 48.127221]}}, {"type": "Feature", "properties": {"start": "Conlie", "stop_name": "Laval", "type": "Gare accessible", "icone": "Icon1"}, "geometry": {"type": "Point", "coordinates": [-0.760929, 48.076255]}}, {"type": "Feature", "properties": {"start": "Conlie", "stop_name": "Monts\u00fbrs", "type": "Gare accessible", "icone": "Icon1"}, "geometry": {"type": "Point", "coordinates": [-0.550642, 48.14149]}}, {"type": "Feature", "properties": {"start": "Conlie", "stop_name": "\u00c9vron", "type": "Gare accessible", "icone": "Icon1"}, "geometry": {"type": "Point", "coordinates": [-0.397155, 48.155517]}}, {"type": "Feature", "properties": {"start": "Conlie", "stop_name": "Rouess\u00e9-Vass\u00e9", "type": "Gare accessible", "icone": "Icon1"}, "geometry": {"type": "Point", "coordinates": [-0.199779, 48.160076]}}, {"type": "Feature", "properties": {"start": "Conlie", "stop_name": "Sill\u00e9-le-Guillaume", "type": "Gare accessible", "icone": "Icon1"}, "geometry": {"type": "Point", "coordinates": [-0.128891, 48.181795]}}, {"type": "Feature", "properties": {"start": "Conlie", "stop_name": "Criss\u00e9", "type": "Gare accessible", "icone": "Icon1"}, "geometry": {"type": "Point", "coordinates": [-0.065929, 48.168212]}}, {"type": "Feature", "properties": {"start": "Conlie", "stop_name": "Domfront", "type": "Gare accessible", "icone": "Icon1"}, "geometry": {"type": "Point", "coordinates": [0.026256, 48.107768]}}, {"type": "Feature", "properties": {"start": "Conlie", "stop_name": "Le Mans", "type": "Gare accessible", "icone": "Icon1"}, "geometry": {"type": "Point", "coordinates": [0.192614, 47.995615]}}, {"type": "Feature", "properties": {"start": "Conlie", "stop_name": "Voutr\u00e9", "type": "Gare accessible", "icone": "Icon1"}, "geometry": {"type": "Point", "coordinates": [-0.292219, 48.134157]}}, {"type": "Feature", "properties": {"start": "Conlie", "stop_name": "Neau", "type": "Gare accessible", "icone": "Icon1"}, "geometry": {"type": "Point", "coordinates": [-0.47657, 48.157526]}}, {"type": "Feature", "properties": {"start": "Conlie", "stop_name": "Louvern\u00e9", "type": "Gare accessible", "icone": "Icon1"}, "geometry": {"type": "Point", "coordinates": [-0.714347, 48.108817]}}, {"type": "Feature", "properties": {"start": "Conlie", "stop_name": "Rennes", "type": "Gare accessible", "icone": "Icon1"}, "geometry": {"type": "Point", "coordinates": [-1.672744, 48.103517]}}, {"type": "Feature", "properties": {"start": "Conlie", "stop_name": "Ch\u00e2teaubourg", "type": "Gare accessible", "icone": "Icon1"}, "geometry": {"type": "Point", "coordinates": [-1.405159, 48.106361]}}, {"type": "Feature", "properties": {"start": "Conlie", "stop_name": "Vitr\u00e9", "type": "Gare accessible", "icone": "Icon1"}, "geometry": {"type": "Point", "coordinates": [-1.211754, 48.122671]}}, {"type": "Feature", "properties": {"start": "Conlie", "stop_name": "Saint-Pierre-la-Cour", "type": "Gare accessible", "icone": "Icon1"}, "geometry": {"type": "Point", "coordinates": [-1.02558, 48.113651]}}, {"type": "Feature", "properties": {"start": "Conlie", "stop_name": "Port-Brillet", "type": "Gare accessible", "icone": "Icon1"}, "geometry": {"type": "Point", "coordinates": [-0.974047, 48.110707]}}, {"type": "Feature", "properties": {"start": "Conlie", "stop_name": "Le Genest", "type": "Gare accessible", "icone": "Icon1"}, "geometry": {"type": "Point", "coordinates": [-0.885621, 48.096741]}}, {"type": "Feature", "properties": {"start": "Conlie", "stop_name": "Servon", "type": "Gare accessible", "icone": "Icon1"}, "geometry": {"type": "Point", "coordinates": [-1.46521, 48.112213]}}, {"type": "Feature", "properties": {"start": "Conlie", "stop_name": "Noyal - Acign\u00e9", "type": "Gare accessible", "icone": "Icon1"}, "geometry": {"type": "Point", "coordinates": [-1.527765, 48.118792]}}, {"type": "Feature", "properties": {"start": "Conlie", "stop_name": "Cesson-S\u00e9vign\u00e9", "type": "Gare accessible", "icone": "Icon1"}, "geometry": {"type": "Point", "coordinates": [-1.60211, 48.11281]}}, {"type": "Feature", "properties": {"start": "Conlie", "stop_name": "Les Lacs", "type": "Gare accessible", "icone": "Icon1"}, "geometry": {"type": "Point", "coordinates": [-1.322266, 48.108891]}}]}