{"type": "FeatureCollection", "features": [{"type": "Feature", "properties": {"start": "Cr\u00e9py - Couvron", "stop_name": "Cr\u00e9py - Couvron", "type": "Gare s\u00e9lectionn\u00e9e", "iconstarte": "Icon2"}, "geometry": {"type": "Point", "coordinates": [3.516475, 49.62325]}}, {"type": "Feature", "properties": {"start": "Cr\u00e9py - Couvron", "stop_name": "Amiens", "type": "Gare accessible", "icone": "Icon1"}, "geometry": {"type": "Point", "coordinates": [2.308277, 49.890584]}}, {"type": "Feature", "properties": {"start": "Cr\u00e9py - Couvron", "stop_name": "Villers-Bretonneux", "type": "Gare accessible", "icone": "Icon1"}, "geometry": {"type": "Point", "coordinates": [2.521424, 49.862968]}}, {"type": "Feature", "properties": {"start": "Cr\u00e9py - Couvron", "stop_name": "Rosi\u00e8res", "type": "Gare accessible", "icone": "Icon1"}, "geometry": {"type": "Point", "coordinates": [2.711198, 49.822584]}}, {"type": "Feature", "properties": {"start": "Cr\u00e9py - Couvron", "stop_name": "Chaulnes", "type": "Gare accessible", "icone": "Icon1"}, "geometry": {"type": "Point", "coordinates": [2.801103, 49.807679]}}, {"type": "Feature", "properties": {"start": "Cr\u00e9py - Couvron", "stop_name": "Nesle", "type": "Gare accessible", "icone": "Icon1"}, "geometry": {"type": "Point", "coordinates": [2.909084, 49.763782]}}, {"type": "Feature", "properties": {"start": "Cr\u00e9py - Couvron", "stop_name": "Ham (Somme)", "type": "Gare accessible", "icone": "Icon1"}, "geometry": {"type": "Point", "coordinates": [3.070268, 49.739855]}}, {"type": "Feature", "properties": {"start": "Cr\u00e9py - Couvron", "stop_name": "Tergnier", "type": "Gare accessible", "icone": "Icon1"}, "geometry": {"type": "Point", "coordinates": [3.297253, 49.659129]}}, {"type": "Feature", "properties": {"start": "Cr\u00e9py - Couvron", "stop_name": "La F\u00e8re", "type": "Gare accessible", "icone": "Icon1"}, "geometry": {"type": "Point", "coordinates": [3.369817, 49.658015]}}, {"type": "Feature", "properties": {"start": "Cr\u00e9py - Couvron", "stop_name": "Versigny", "type": "Gare accessible", "icone": "Icon1"}, "geometry": {"type": "Point", "coordinates": [3.433654, 49.657428]}}, {"type": "Feature", "properties": {"start": "Cr\u00e9py - Couvron", "stop_name": "Laon", "type": "Gare accessible", "icone": "Icon1"}, "geometry": {"type": "Point", "coordinates": [3.62434, 49.570578]}}, {"type": "Feature", "properties": {"start": "Cr\u00e9py - Couvron", "stop_name": "Mennessis", "type": "Gare accessible", "icone": "Icon1"}, "geometry": {"type": "Point", "coordinates": [3.270562, 49.692061]}}, {"type": "Feature", "properties": {"start": "Cr\u00e9py - Couvron", "stop_name": "Flavy-le-Martel", "type": "Gare accessible", "icone": "Icon1"}, "geometry": {"type": "Point", "coordinates": [3.190179, 49.718446]}}, {"type": "Feature", "properties": {"start": "Cr\u00e9py - Couvron", "stop_name": "Marcelcave", "type": "Gare accessible", "icone": "Icon1"}, "geometry": {"type": "Point", "coordinates": [2.581744, 49.853115]}}]}