{"type": "FeatureCollection", "features": [{"type": "Feature", "properties": {"stop_name": "Dinan", "type": "Gare s\u00e9lectionn\u00e9e", "icone": "Icon2"}, "geometry": {"type": "Point", "coordinates": [-2.053425, 48.456715]}}, {"type": "Feature", "properties": {"stop_name": "Dol-de-Bretagne", "type": "Gare accessible", "icone": "Icon1"}, "geometry": {"type": "Point", "coordinates": [-1.750536, 48.54425]}}, {"type": "Feature", "properties": {"stop_name": "Plerguer", "type": "Gare accessible", "icone": "Icon1"}, "geometry": {"type": "Point", "coordinates": [-1.850263, 48.531597999999995]}}, {"type": "Feature", "properties": {"stop_name": "La Hisse", "type": "Gare accessible", "icone": "Icon1"}, "geometry": {"type": "Point", "coordinates": [-2.003661, 48.496125]}}, {"type": "Feature", "properties": {"stop_name": "Pleudihen", "type": "Gare accessible", "icone": "Icon1"}, "geometry": {"type": "Point", "coordinates": [-1.961682, 48.499346]}}, {"type": "Feature", "properties": {"stop_name": "Miniac", "type": "Gare accessible", "icone": "Icon1"}, "geometry": {"type": "Point", "coordinates": [-1.9147869999999998, 48.531513000000004]}}, {"type": "Feature", "properties": {"stop_name": "Corseul - Languenan", "type": "Gare accessible", "icone": "Icon1"}, "geometry": {"type": "Point", "coordinates": [-2.141728, 48.496186]}}, {"type": "Feature", "properties": {"stop_name": "Planco\u00ebt", "type": "Gare accessible", "icone": "Icon1"}, "geometry": {"type": "Point", "coordinates": [-2.2289209999999997, 48.521679]}}, {"type": "Feature", "properties": {"stop_name": "Land\u00e9bia", "type": "Gare accessible", "icone": "Icon1"}, "geometry": {"type": "Point", "coordinates": [-2.331372, 48.507421]}}, {"type": "Feature", "properties": {"stop_name": "Lamballe", "type": "Gare accessible", "icone": "Icon1"}, "geometry": {"type": "Point", "coordinates": [-2.511546, 48.46606]}}, {"type": "Feature", "properties": {"stop_name": "Yffiniac", "type": "Gare accessible", "icone": "Icon1"}, "geometry": {"type": "Point", "coordinates": [-2.652447, 48.470083]}}, {"type": "Feature", "properties": {"stop_name": "Saint-Brieuc", "type": "Gare accessible", "icone": "Icon1"}, "geometry": {"type": "Point", "coordinates": [-2.765, 48.50758]}}, {"type": "Feature", "properties": {"stop_name": "Pontchaillou", "type": "Gare accessible", "icone": "Icon1"}, "geometry": {"type": "Point", "coordinates": [-1.6911180000000001, 48.118641]}}, {"type": "Feature", "properties": {"stop_name": "Rennes", "type": "Gare accessible", "icone": "Icon1"}, "geometry": {"type": "Point", "coordinates": [-1.6727439999999998, 48.103517]}}]}