{"type": "FeatureCollection", "features": [{"type": "Feature", "properties": {"stop_name": "Dornach Incorporation", "type": "Gare s\u00e9lectionn\u00e9e"}, "geometry": {"type": "Point", "coordinates": [7.310224, 47.747198]}}, {"type": "Feature", "properties": {"stop_name": "Mulhouse", "type": "Gare accessible"}, "geometry": {"type": "Point", "coordinates": [7.34316, 47.742691]}}, {"type": "Feature", "properties": {"stop_name": "Lutterbach", "type": "Gare accessible"}, "geometry": {"type": "Point", "coordinates": [7.276994, 47.758214]}}, {"type": "Feature", "properties": {"stop_name": "Cernay", "type": "Gare accessible"}, "geometry": {"type": "Point", "coordinates": [7.1737, 47.802]}}, {"type": "Feature", "properties": {"stop_name": "Cernay \u00c9glise", "type": "Gare accessible"}, "geometry": {"type": "Point", "coordinates": [7.174788, 47.809321000000004]}}, {"type": "Feature", "properties": {"stop_name": "Vieux-Thann Parking de la Gare", "type": "Gare accessible"}, "geometry": {"type": "Point", "coordinates": [7.119715, 47.806125]}}, {"type": "Feature", "properties": {"stop_name": "Thann", "type": "Gare accessible"}, "geometry": {"type": "Point", "coordinates": [7.106998, 47.808795]}}, {"type": "Feature", "properties": {"stop_name": "Thann Saint-Jacques", "type": "Gare accessible"}, "geometry": {"type": "Point", "coordinates": [7.093847, 47.813316]}}, {"type": "Feature", "properties": {"stop_name": "Bitschwiller-l\u00e8s-Thann Mairie", "type": "Gare accessible"}, "geometry": {"type": "Point", "coordinates": [7.079737, 47.829182]}}, {"type": "Feature", "properties": {"stop_name": "Willer-sur-Thur Mairie", "type": "Gare accessible"}, "geometry": {"type": "Point", "coordinates": [7.071404, 47.843071]}}, {"type": "Feature", "properties": {"stop_name": "Moosch \u00c9glise", "type": "Gare accessible"}, "geometry": {"type": "Point", "coordinates": [7.04962, 47.859868]}}, {"type": "Feature", "properties": {"stop_name": "Malmerspach Rond-point", "type": "Gare accessible"}, "geometry": {"type": "Point", "coordinates": [7.038704, 47.867203]}}, {"type": "Feature", "properties": {"stop_name": "Saint-Amarin H\u00f4tel Le Cheval Blanc", "type": "Gare accessible"}, "geometry": {"type": "Point", "coordinates": [7.028348, 47.874738]}}, {"type": "Feature", "properties": {"stop_name": "Ranspach Ancienne Fonderie", "type": "Gare accessible"}, "geometry": {"type": "Point", "coordinates": [7.009459, 47.881405]}}, {"type": "Feature", "properties": {"stop_name": "Wesserling", "type": "Gare accessible"}, "geometry": {"type": "Point", "coordinates": [6.997559, 47.889694]}}, {"type": "Feature", "properties": {"stop_name": "Fellering \u00c9glise", "type": "Gare accessible"}, "geometry": {"type": "Point", "coordinates": [6.985792, 47.896397]}}, {"type": "Feature", "properties": {"stop_name": "Oderen La Poste", "type": "Gare accessible"}, "geometry": {"type": "Point", "coordinates": [6.975571, 47.909459999999996]}}, {"type": "Feature", "properties": {"stop_name": "Kruth", "type": "Gare accessible"}, "geometry": {"type": "Point", "coordinates": [6.969094, 47.92396]}}, {"type": "Feature", "properties": {"stop_name": "Thann La Poste", "type": "Gare accessible"}, "geometry": {"type": "Point", "coordinates": [7.102514, 47.810272999999995]}}, {"type": "Feature", "properties": {"stop_name": "Graffenwald", "type": "Gare accessible"}, "geometry": {"type": "Point", "coordinates": [7.224791, 47.780823]}}]}