{"type": "FeatureCollection", "features": [{"type": "Feature", "properties": {"start": "Dourges", "stop_name": "Dourges", "type": "Gare s\u00e9lectionn\u00e9e", "iconstarte": "Icon2"}, "geometry": {"type": "Point", "coordinates": [2.987013, 50.431922]}}, {"type": "Feature", "properties": {"start": "Dourges", "stop_name": "Lens", "type": "Gare accessible", "icone": "TER"}, "geometry": {"type": "Point", "coordinates": [2.828301, 50.426866]}}, {"type": "Feature", "properties": {"start": "Dourges", "stop_name": "Billy-Montigny", "type": "Gare accessible", "icone": "TER"}, "geometry": {"type": "Point", "coordinates": [2.91187, 50.415551]}}, {"type": "Feature", "properties": {"start": "Dourges", "stop_name": "H\u00e9nin-Beaumont", "type": "Gare accessible", "icone": "TER"}, "geometry": {"type": "Point", "coordinates": [2.952082, 50.417084]}}, {"type": "Feature", "properties": {"start": "Dourges", "stop_name": "Libercourt", "type": "Gare accessible", "icone": "TER"}, "geometry": {"type": "Point", "coordinates": [3.008642, 50.480202]}}, {"type": "Feature", "properties": {"start": "Dourges", "stop_name": "Seclin", "type": "Gare accessible", "icone": "TER"}, "geometry": {"type": "Point", "coordinates": [3.034965, 50.548604]}}, {"type": "Feature", "properties": {"start": "Dourges", "stop_name": "Lille Flandres", "type": "Gare accessible", "icone": "TER"}, "geometry": {"type": "Point", "coordinates": [3.06987, 50.636577]}}, {"type": "Feature", "properties": {"start": "Dourges", "stop_name": "Coron de M\u00e9ricourt", "type": "Gare accessible", "icone": "TER"}, "geometry": {"type": "Point", "coordinates": [2.886156, 50.414934]}}, {"type": "Feature", "properties": {"start": "Dourges", "stop_name": "Douai", "type": "Gare accessible", "icone": "TER"}, "geometry": {"type": "Point", "coordinates": [3.089958, 50.371673]}}, {"type": "Feature", "properties": {"start": "Dourges", "stop_name": "Ostricourt", "type": "Gare accessible", "icone": "TER"}, "geometry": {"type": "Point", "coordinates": [3.032414, 50.445501]}}, {"type": "Feature", "properties": {"start": "Dourges", "stop_name": "Pont de Sallaumines", "type": "Gare accessible", "icone": "TER"}, "geometry": {"type": "Point", "coordinates": [2.863086, 50.415772]}}]}