{"type": "FeatureCollection", "features": [{"type": "Feature", "properties": {"start": "Entraigues-sur-la-Sorgue", "stop_name": "Entraigues-sur-la-Sorgue", "type": "Gare s\u00e9lectionn\u00e9e", "iconstarte": "Icon2"}, "geometry": {"type": "Point", "coordinates": [4.9221, 44.005317]}}, {"type": "Feature", "properties": {"start": "Entraigues-sur-la-Sorgue", "stop_name": "Avignon TGV", "type": "Gare accessible", "icone": "TER"}, "geometry": {"type": "Point", "coordinates": [4.786136, 43.92194]}}, {"type": "Feature", "properties": {"start": "Entraigues-sur-la-Sorgue", "stop_name": "Avignon Centre", "type": "Gare accessible", "icone": "TER"}, "geometry": {"type": "Point", "coordinates": [4.805269, 43.941923]}}, {"type": "Feature", "properties": {"start": "Entraigues-sur-la-Sorgue", "stop_name": "Sorgues - Ch\u00e2teauneuf-du-Pape", "type": "Gare accessible", "icone": "TER"}, "geometry": {"type": "Point", "coordinates": [4.875612, 44.005427]}}, {"type": "Feature", "properties": {"start": "Entraigues-sur-la-Sorgue", "stop_name": "Monteux", "type": "Gare accessible", "icone": "TER"}, "geometry": {"type": "Point", "coordinates": [4.994788, 44.037355]}}, {"type": "Feature", "properties": {"start": "Entraigues-sur-la-Sorgue", "stop_name": "Carpentras", "type": "Gare accessible", "icone": "TER"}, "geometry": {"type": "Point", "coordinates": [5.044439, 44.048484]}}]}