{"type": "FeatureCollection", "features": [{"type": "Feature", "properties": {"stop_name": "Gorges", "type": "Gare s\u00e9lectionn\u00e9e", "icone": "Icon2"}, "geometry": {"type": "Point", "coordinates": [-1.305914, 47.100190999999995]}}, {"type": "Feature", "properties": {"stop_name": "Nantes", "type": "Gare accessible", "icone": "Icon1"}, "geometry": {"type": "Point", "coordinates": [-1.5420770000000001, 47.217490999999995]}}, {"type": "Feature", "properties": {"stop_name": "Saint-S\u00e9bastien Pas Enchant\u00e9s", "type": "Gare accessible", "icone": "Icon1"}, "geometry": {"type": "Point", "coordinates": [-1.510821, 47.206934999999994]}}, {"type": "Feature", "properties": {"stop_name": "Saint-S\u00e9bastien Fr\u00eane Rond", "type": "Gare accessible", "icone": "Icon1"}, "geometry": {"type": "Point", "coordinates": [-1.496026, 47.190548]}}, {"type": "Feature", "properties": {"stop_name": "Vertou", "type": "Gare accessible", "icone": "Icon1"}, "geometry": {"type": "Point", "coordinates": [-1.477956, 47.186149]}}, {"type": "Feature", "properties": {"stop_name": "La Haie-Fouassi\u00e8re", "type": "Gare accessible", "icone": "Icon1"}, "geometry": {"type": "Point", "coordinates": [-1.392174, 47.161615999999995]}}, {"type": "Feature", "properties": {"stop_name": "Le Pallet", "type": "Gare accessible", "icone": "Icon1"}, "geometry": {"type": "Point", "coordinates": [-1.3468200000000001, 47.143823]}}, {"type": "Feature", "properties": {"stop_name": "Clisson", "type": "Gare accessible", "icone": "Icon1"}, "geometry": {"type": "Point", "coordinates": [-1.286292, 47.086015]}}]}