{"type": "FeatureCollection", "features": [{"type": "Feature", "properties": {"start": "Hazebrouck", "stop_name": "Hazebrouck", "type": "Gare s\u00e9lectionn\u00e9e", "iconstarte": "Icon2"}, "geometry": {"type": "Point", "coordinates": [2.541463, 50.724924]}}, {"type": "Feature", "properties": {"start": "Hazebrouck", "stop_name": "Dunkerque", "type": "Gare accessible", "icone": "Icon1"}, "geometry": {"type": "Point", "coordinates": [2.368991, 51.03041]}}, {"type": "Feature", "properties": {"start": "Hazebrouck", "stop_name": "Bergues", "type": "Gare accessible", "icone": "Icon1"}, "geometry": {"type": "Point", "coordinates": [2.425787, 50.968997]}}, {"type": "Feature", "properties": {"start": "Hazebrouck", "stop_name": "Bailleul", "type": "Gare accessible", "icone": "Icon1"}, "geometry": {"type": "Point", "coordinates": [2.734485, 50.729167]}}, {"type": "Feature", "properties": {"start": "Hazebrouck", "stop_name": "Armenti\u00e8res", "type": "Gare accessible", "icone": "Icon1"}, "geometry": {"type": "Point", "coordinates": [2.87768, 50.680848]}}, {"type": "Feature", "properties": {"start": "Hazebrouck", "stop_name": "Lille Flandres", "type": "Gare accessible", "icone": "Icon1"}, "geometry": {"type": "Point", "coordinates": [3.06987, 50.636577]}}, {"type": "Feature", "properties": {"start": "Hazebrouck", "stop_name": "B\u00e9thune", "type": "Gare accessible", "icone": "Icon1"}, "geometry": {"type": "Point", "coordinates": [2.640509, 50.521454]}}, {"type": "Feature", "properties": {"start": "Hazebrouck", "stop_name": "La Bass\u00e9e", "type": "Gare accessible", "icone": "Icon1"}, "geometry": {"type": "Point", "coordinates": [2.80477, 50.527937]}}, {"type": "Feature", "properties": {"start": "Hazebrouck", "stop_name": "Don - Sainghin", "type": "Gare accessible", "icone": "Icon1"}, "geometry": {"type": "Point", "coordinates": [2.914402, 50.551726]}}, {"type": "Feature", "properties": {"start": "Hazebrouck", "stop_name": "Wavrin", "type": "Gare accessible", "icone": "Icon1"}, "geometry": {"type": "Point", "coordinates": [2.936654, 50.574424]}}, {"type": "Feature", "properties": {"start": "Hazebrouck", "stop_name": "Lille Centre Hospitalier R\u00e9gional", "type": "Gare accessible", "icone": "Icon1"}, "geometry": {"type": "Point", "coordinates": [3.034278, 50.614297]}}, {"type": "Feature", "properties": {"start": "Hazebrouck", "stop_name": "Cassel", "type": "Gare accessible", "icone": "Icon1"}, "geometry": {"type": "Point", "coordinates": [2.460361, 50.78753]}}, {"type": "Feature", "properties": {"start": "Hazebrouck", "stop_name": "Arn\u00e8ke", "type": "Gare accessible", "icone": "Icon1"}, "geometry": {"type": "Point", "coordinates": [2.408468, 50.831509]}}, {"type": "Feature", "properties": {"start": "Hazebrouck", "stop_name": "Esquelbecq", "type": "Gare accessible", "icone": "Icon1"}, "geometry": {"type": "Point", "coordinates": [2.412368, 50.889751]}}, {"type": "Feature", "properties": {"start": "Hazebrouck", "stop_name": "Calais Ville", "type": "Gare accessible", "icone": "Icon1"}, "geometry": {"type": "Point", "coordinates": [1.850885, 50.953466]}}, {"type": "Feature", "properties": {"start": "Hazebrouck", "stop_name": "Les Fontinettes", "type": "Gare accessible", "icone": "Icon1"}, "geometry": {"type": "Point", "coordinates": [1.849858, 50.941002]}}, {"type": "Feature", "properties": {"start": "Hazebrouck", "stop_name": "Audruicq", "type": "Gare accessible", "icone": "Icon1"}, "geometry": {"type": "Point", "coordinates": [2.07633, 50.875668]}}, {"type": "Feature", "properties": {"start": "Hazebrouck", "stop_name": "Watten - \u00c9perlecques", "type": "Gare accessible", "icone": "Icon1"}, "geometry": {"type": "Point", "coordinates": [2.207597, 50.826125]}}, {"type": "Feature", "properties": {"start": "Hazebrouck", "stop_name": "Saint-Omer", "type": "Gare accessible", "icone": "Icon1"}, "geometry": {"type": "Point", "coordinates": [2.266719, 50.753618]}}, {"type": "Feature", "properties": {"start": "Hazebrouck", "stop_name": "Lens", "type": "Gare accessible", "icone": "Icon1"}, "geometry": {"type": "Point", "coordinates": [2.828301, 50.426866]}}, {"type": "Feature", "properties": {"start": "Hazebrouck", "stop_name": "Lille Porte de Douai", "type": "Gare accessible", "icone": "Icon1"}, "geometry": {"type": "Point", "coordinates": [3.075075, 50.612114]}}, {"type": "Feature", "properties": {"start": "Hazebrouck", "stop_name": "Bauvin - Provin", "type": "Gare accessible", "icone": "Icon1"}, "geometry": {"type": "Point", "coordinates": [2.90543, 50.511557]}}, {"type": "Feature", "properties": {"start": "Hazebrouck", "stop_name": "Meurchin", "type": "Gare accessible", "icone": "Icon1"}, "geometry": {"type": "Point", "coordinates": [2.892738, 50.496717]}}, {"type": "Feature", "properties": {"start": "Hazebrouck", "stop_name": "Pont-\u00e0-Vendin", "type": "Gare accessible", "icone": "Icon1"}, "geometry": {"type": "Point", "coordinates": [2.875266, 50.471303]}}, {"type": "Feature", "properties": {"start": "Hazebrouck", "stop_name": "Sallaumines", "type": "Gare accessible", "icone": "Icon1"}, "geometry": {"type": "Point", "coordinates": [2.855759, 50.42229]}}, {"type": "Feature", "properties": {"start": "Hazebrouck", "stop_name": "Loos lez Lille", "type": "Gare accessible", "icone": "Icon1"}, "geometry": {"type": "Point", "coordinates": [3.016976, 50.612936]}}, {"type": "Feature", "properties": {"start": "Hazebrouck", "stop_name": "Haubourdin", "type": "Gare accessible", "icone": "Icon1"}, "geometry": {"type": "Point", "coordinates": [2.990145, 50.60707]}}, {"type": "Feature", "properties": {"start": "Hazebrouck", "stop_name": "Santes", "type": "Gare accessible", "icone": "Icon1"}, "geometry": {"type": "Point", "coordinates": [2.961977, 50.592063]}}, {"type": "Feature", "properties": {"start": "Hazebrouck", "stop_name": "Marquillies", "type": "Gare accessible", "icone": "Icon1"}, "geometry": {"type": "Point", "coordinates": [2.867373, 50.548145]}}, {"type": "Feature", "properties": {"start": "Hazebrouck", "stop_name": "Salom\u00e9", "type": "Gare accessible", "icone": "Icon1"}, "geometry": {"type": "Point", "coordinates": [2.838268, 50.541881]}}, {"type": "Feature", "properties": {"start": "Hazebrouck", "stop_name": "Cuinchy", "type": "Gare accessible", "icone": "Icon1"}, "geometry": {"type": "Point", "coordinates": [2.74743, 50.521851]}}, {"type": "Feature", "properties": {"start": "Hazebrouck", "stop_name": "Strazeele", "type": "Gare accessible", "icone": "Icon1"}, "geometry": {"type": "Point", "coordinates": [2.630928, 50.713419]}}, {"type": "Feature", "properties": {"start": "Hazebrouck", "stop_name": "Steenwerck", "type": "Gare accessible", "icone": "Icon1"}, "geometry": {"type": "Point", "coordinates": [2.786562, 50.712787]}}, {"type": "Feature", "properties": {"start": "Hazebrouck", "stop_name": "Nieppe", "type": "Gare accessible", "icone": "Icon1"}, "geometry": {"type": "Point", "coordinates": [2.829106, 50.696864]}}, {"type": "Feature", "properties": {"start": "Hazebrouck", "stop_name": "P\u00e9renchies", "type": "Gare accessible", "icone": "Icon1"}, "geometry": {"type": "Point", "coordinates": [2.977239, 50.667044]}}, {"type": "Feature", "properties": {"start": "Hazebrouck", "stop_name": "Saint-Andr\u00e9", "type": "Gare accessible", "icone": "Icon1"}, "geometry": {"type": "Point", "coordinates": [3.04766, 50.654307]}}, {"type": "Feature", "properties": {"start": "Hazebrouck", "stop_name": "La Madeleine", "type": "Gare accessible", "icone": "Icon1"}, "geometry": {"type": "Point", "coordinates": [3.072631, 50.660628]}}, {"type": "Feature", "properties": {"start": "Hazebrouck", "stop_name": "Coudekerque-Branche", "type": "Gare accessible", "icone": "Icon1"}, "geometry": {"type": "Point", "coordinates": [2.375182, 51.017916]}}, {"type": "Feature", "properties": {"start": "Hazebrouck", "stop_name": "Berguette - Isbergues", "type": "Gare accessible", "icone": "Icon1"}, "geometry": {"type": "Point", "coordinates": [2.462786, 50.61379]}}, {"type": "Feature", "properties": {"start": "Hazebrouck", "stop_name": "Lillers", "type": "Gare accessible", "icone": "Icon1"}, "geometry": {"type": "Point", "coordinates": [2.478906, 50.561711]}}, {"type": "Feature", "properties": {"start": "Hazebrouck", "stop_name": "Noeux-Les-Mines", "type": "Gare accessible", "icone": "Icon1"}, "geometry": {"type": "Point", "coordinates": [2.673969, 50.48296]}}, {"type": "Feature", "properties": {"start": "Hazebrouck", "stop_name": "Bully - Grenay", "type": "Gare accessible", "icone": "Icon1"}, "geometry": {"type": "Point", "coordinates": [2.733391, 50.448357]}}, {"type": "Feature", "properties": {"start": "Hazebrouck", "stop_name": "Avion", "type": "Gare accessible", "icone": "Icon1"}, "geometry": {"type": "Point", "coordinates": [2.83363, 50.40721]}}, {"type": "Feature", "properties": {"start": "Hazebrouck", "stop_name": "Arras", "type": "Gare accessible", "icone": "Icon1"}, "geometry": {"type": "Point", "coordinates": [2.781314, 50.286971]}}, {"type": "Feature", "properties": {"start": "Hazebrouck", "stop_name": "Vimy", "type": "Gare accessible", "icone": "Icon1"}, "geometry": {"type": "Point", "coordinates": [2.82192, 50.374013]}}, {"type": "Feature", "properties": {"start": "Hazebrouck", "stop_name": "Pont d'Ardres", "type": "Gare accessible", "icone": "Icon1"}, "geometry": {"type": "Point", "coordinates": [1.970791, 50.892121]}}, {"type": "Feature", "properties": {"start": "Hazebrouck", "stop_name": "Nortkerque", "type": "Gare accessible", "icone": "Icon1"}, "geometry": {"type": "Point", "coordinates": [2.02363, 50.882822]}}, {"type": "Feature", "properties": {"start": "Hazebrouck", "stop_name": "Ruminghem", "type": "Gare accessible", "icone": "Icon1"}, "geometry": {"type": "Point", "coordinates": [2.158317, 50.861744]}}, {"type": "Feature", "properties": {"start": "Hazebrouck", "stop_name": "Renescure", "type": "Gare accessible", "icone": "Icon1"}, "geometry": {"type": "Point", "coordinates": [2.371364, 50.732006]}}, {"type": "Feature", "properties": {"start": "Hazebrouck", "stop_name": "Ebblinghem", "type": "Gare accessible", "icone": "Icon1"}, "geometry": {"type": "Point", "coordinates": [2.409058, 50.730637]}}, {"type": "Feature", "properties": {"start": "Hazebrouck", "stop_name": "Ham-en-Artois", "type": "Gare accessible", "icone": "Icon1"}, "geometry": {"type": "Point", "coordinates": [2.46576, 50.590055]}}, {"type": "Feature", "properties": {"start": "Hazebrouck", "stop_name": "Li\u00e9vin", "type": "Gare accessible", "icone": "Icon1"}, "geometry": {"type": "Point", "coordinates": [2.771851, 50.434247]}}, {"type": "Feature", "properties": {"start": "Hazebrouck", "stop_name": "Steenbecque", "type": "Gare accessible", "icone": "Icon1"}, "geometry": {"type": "Point", "coordinates": [2.510593, 50.681445]}}, {"type": "Feature", "properties": {"start": "Hazebrouck", "stop_name": "Thiennes", "type": "Gare accessible", "icone": "Icon1"}, "geometry": {"type": "Point", "coordinates": [2.472922, 50.652356]}}, {"type": "Feature", "properties": {"start": "Hazebrouck", "stop_name": "Chocques", "type": "Gare accessible", "icone": "Icon1"}, "geometry": {"type": "Point", "coordinates": [2.564841, 50.53833]}}, {"type": "Feature", "properties": {"start": "Hazebrouck", "stop_name": "Fouquereuil", "type": "Gare accessible", "icone": "Icon1"}, "geometry": {"type": "Point", "coordinates": [2.608142, 50.52539]}}, {"type": "Feature", "properties": {"start": "Hazebrouck", "stop_name": "Mazingarbe", "type": "Gare accessible", "icone": "Icon1"}, "geometry": {"type": "Point", "coordinates": [2.701263, 50.460561]}}, {"type": "Feature", "properties": {"start": "Hazebrouck", "stop_name": "Loos-en-Gohelle", "type": "Gare accessible", "icone": "Icon1"}, "geometry": {"type": "Point", "coordinates": [2.793543, 50.437864]}}, {"type": "Feature", "properties": {"start": "Hazebrouck", "stop_name": "Farbus", "type": "Gare accessible", "icone": "Icon1"}, "geometry": {"type": "Point", "coordinates": [2.830747, 50.357477]}}, {"type": "Feature", "properties": {"start": "Hazebrouck", "stop_name": "Bailleul-Sir-Berthoult", "type": "Gare accessible", "icone": "Icon1"}, "geometry": {"type": "Point", "coordinates": [2.841149, 50.335379]}}]}