{"type": "FeatureCollection", "features": [{"type": "Feature", "properties": {"stop_name": "Kilstett Rue de la Gare", "type": "Gare s\u00e9lectionn\u00e9e"}, "geometry": {"type": "Point", "coordinates": [7.855618, 48.678885]}}, {"type": "Feature", "properties": {"stop_name": "Strasbourg", "type": "Gare accessible"}, "geometry": {"type": "Point", "coordinates": [7.734793, 48.584532]}}, {"type": "Feature", "properties": {"stop_name": "Bischheim Arr\u00eat CTS R. Gare", "type": "Gare accessible"}, "geometry": {"type": "Point", "coordinates": [7.750844, 48.610657]}}, {"type": "Feature", "properties": {"stop_name": "Hoenheim Tram", "type": "Gare accessible"}, "geometry": {"type": "Point", "coordinates": [7.758123, 48.628622]}}, {"type": "Feature", "properties": {"stop_name": "La Wantzenau", "type": "Gare accessible"}, "geometry": {"type": "Point", "coordinates": [7.824822, 48.665203999999996]}}, {"type": "Feature", "properties": {"stop_name": "Gambsheim Garage Peugeot", "type": "Gare accessible"}, "geometry": {"type": "Point", "coordinates": [7.872003, 48.688786]}}, {"type": "Feature", "properties": {"stop_name": "Gambsheim", "type": "Gare accessible"}, "geometry": {"type": "Point", "coordinates": [7.879179, 48.694909]}}, {"type": "Feature", "properties": {"stop_name": "Herrlisheim", "type": "Gare accessible"}, "geometry": {"type": "Point", "coordinates": [7.910146, 48.727920000000005]}}]}