{"type": "FeatureCollection", "features": [{"type": "Feature", "properties": {"stop_name": "Kogenheim", "type": "Gare s\u00e9lectionn\u00e9e", "icone": "Icon2"}, "geometry": {"type": "Point", "coordinates": [7.535288, 48.33879]}}, {"type": "Feature", "properties": {"stop_name": "S\u00e9lestat", "type": "Gare accessible", "icone": "Icon1"}, "geometry": {"type": "Point", "coordinates": [7.443157, 48.259824]}}, {"type": "Feature", "properties": {"stop_name": "Ebersheim", "type": "Gare accessible", "icone": "Icon1"}, "geometry": {"type": "Point", "coordinates": [7.494537, 48.310047999999995]}}, {"type": "Feature", "properties": {"stop_name": "Benfeld", "type": "Gare accessible", "icone": "Icon1"}, "geometry": {"type": "Point", "coordinates": [7.583866, 48.374069]}}, {"type": "Feature", "properties": {"stop_name": "Matzenheim", "type": "Gare accessible", "icone": "Icon1"}, "geometry": {"type": "Point", "coordinates": [7.619595, 48.398722]}}, {"type": "Feature", "properties": {"stop_name": "Erstein", "type": "Gare accessible", "icone": "Icon1"}, "geometry": {"type": "Point", "coordinates": [7.638701, 48.422982]}}, {"type": "Feature", "properties": {"stop_name": "Limersheim", "type": "Gare accessible", "icone": "Icon1"}, "geometry": {"type": "Point", "coordinates": [7.660306, 48.461591999999996]}}, {"type": "Feature", "properties": {"stop_name": "Fegersheim - Lipsheim", "type": "Gare accessible", "icone": "Icon1"}, "geometry": {"type": "Point", "coordinates": [7.672481, 48.490589]}}, {"type": "Feature", "properties": {"stop_name": "Geispolsheim", "type": "Gare accessible", "icone": "Icon1"}, "geometry": {"type": "Point", "coordinates": [7.684358, 48.519052]}}, {"type": "Feature", "properties": {"stop_name": "Graffenstaden", "type": "Gare accessible", "icone": "Icon1"}, "geometry": {"type": "Point", "coordinates": [7.689236, 48.532788000000004]}}, {"type": "Feature", "properties": {"stop_name": "Strasbourg", "type": "Gare accessible", "icone": "Icon1"}, "geometry": {"type": "Point", "coordinates": [7.734793, 48.584532]}}, {"type": "Feature", "properties": {"stop_name": "Colmar", "type": "Gare accessible", "icone": "Icon1"}, "geometry": {"type": "Point", "coordinates": [7.347756, 48.073527]}}]}