{"type": "FeatureCollection", "features": [{"type": "Feature", "properties": {"start": "Konz Mitte", "stop_name": "Konz Mitte", "type": "Gare s\u00e9lectionn\u00e9e", "iconstarte": "Icon2"}, "geometry": {"type": "Point", "coordinates": [6.57329, 49.700046]}}, {"type": "Feature", "properties": {"start": "Konz Mitte", "stop_name": "Metz", "type": "Gare accessible", "icone": "Icon1"}, "geometry": {"type": "Point", "coordinates": [6.177052, 49.109466]}}, {"type": "Feature", "properties": {"start": "Konz Mitte", "stop_name": "Thionville", "type": "Gare accessible", "icone": "Icon1"}, "geometry": {"type": "Point", "coordinates": [6.168582, 49.353965]}}, {"type": "Feature", "properties": {"start": "Konz Mitte", "stop_name": "Basse-Ham", "type": "Gare accessible", "icone": "Icon1"}, "geometry": {"type": "Point", "coordinates": [6.234873, 49.380546]}}, {"type": "Feature", "properties": {"start": "Konz Mitte", "stop_name": "Koenigsmacker", "type": "Gare accessible", "icone": "Icon1"}, "geometry": {"type": "Point", "coordinates": [6.27355, 49.396554]}}, {"type": "Feature", "properties": {"start": "Konz Mitte", "stop_name": "Malling", "type": "Gare accessible", "icone": "Icon1"}, "geometry": {"type": "Point", "coordinates": [6.302207, 49.42152]}}, {"type": "Feature", "properties": {"start": "Konz Mitte", "stop_name": "Sierck-les-Bains", "type": "Gare accessible", "icone": "Icon1"}, "geometry": {"type": "Point", "coordinates": [6.350114, 49.443997]}}, {"type": "Feature", "properties": {"start": "Konz Mitte", "stop_name": "Apach", "type": "Gare accessible", "icone": "Icon1"}, "geometry": {"type": "Point", "coordinates": [6.372365, 49.458963]}}, {"type": "Feature", "properties": {"start": "Konz Mitte", "stop_name": "Perl", "type": "Gare accessible", "icone": "Icon1"}, "geometry": {"type": "Point", "coordinates": [6.3693, 49.4731]}}, {"type": "Feature", "properties": {"start": "Konz Mitte", "stop_name": "Tr\u00e8ves", "type": "Gare accessible", "icone": "Icon1"}, "geometry": {"type": "Point", "coordinates": [6.6522, 49.7568]}}]}