{"type": "FeatureCollection", "features": [{"type": "Feature", "properties": {"start": "Krimmeri Meinau", "stop_name": "Krimmeri Meinau", "type": "Gare s\u00e9lectionn\u00e9e", "iconstarte": "Icon2"}, "geometry": {"type": "Point", "coordinates": [7.752614, 48.563644]}}, {"type": "Feature", "properties": {"start": "Krimmeri Meinau", "stop_name": "Strasbourg", "type": "Gare accessible", "icone": "TER"}, "geometry": {"type": "Point", "coordinates": [7.734793, 48.584532]}}, {"type": "Feature", "properties": {"start": "Krimmeri Meinau", "stop_name": "Sarreguemines", "type": "Gare accessible", "icone": "TER"}, "geometry": {"type": "Point", "coordinates": [7.068576, 49.10738]}}, {"type": "Feature", "properties": {"start": "Krimmeri Meinau", "stop_name": "Kalhausen Gare", "type": "Gare accessible", "icone": "TER"}, "geometry": {"type": "Point", "coordinates": [7.125438, 49.035033]}}, {"type": "Feature", "properties": {"start": "Krimmeri Meinau", "stop_name": "Oermingen", "type": "Gare accessible", "icone": "TER"}, "geometry": {"type": "Point", "coordinates": [7.131732, 49.000372]}}, {"type": "Feature", "properties": {"start": "Krimmeri Meinau", "stop_name": "Diemeringen", "type": "Gare accessible", "icone": "TER"}, "geometry": {"type": "Point", "coordinates": [7.185252, 48.940533]}}, {"type": "Feature", "properties": {"start": "Krimmeri Meinau", "stop_name": "Tieffenbach - Struth", "type": "Gare accessible", "icone": "TER"}, "geometry": {"type": "Point", "coordinates": [7.255418, 48.90636]}}, {"type": "Feature", "properties": {"start": "Krimmeri Meinau", "stop_name": "Wingen-sur-Moder", "type": "Gare accessible", "icone": "TER"}, "geometry": {"type": "Point", "coordinates": [7.380538, 48.920092]}}, {"type": "Feature", "properties": {"start": "Krimmeri Meinau", "stop_name": "Ingwiller", "type": "Gare accessible", "icone": "TER"}, "geometry": {"type": "Point", "coordinates": [7.477162, 48.872407]}}, {"type": "Feature", "properties": {"start": "Krimmeri Meinau", "stop_name": "Obermodern", "type": "Gare accessible", "icone": "TER"}, "geometry": {"type": "Point", "coordinates": [7.547135, 48.842587]}}, {"type": "Feature", "properties": {"start": "Krimmeri Meinau", "stop_name": "Mommenheim", "type": "Gare accessible", "icone": "TER"}, "geometry": {"type": "Point", "coordinates": [7.642303, 48.755951]}}, {"type": "Feature", "properties": {"start": "Krimmeri Meinau", "stop_name": "Kehl", "type": "Gare accessible", "icone": "TER"}, "geometry": {"type": "Point", "coordinates": [7.8063, 48.5767]}}, {"type": "Feature", "properties": {"start": "Krimmeri Meinau", "stop_name": "Kork", "type": "Gare accessible", "icone": "TER"}, "geometry": {"type": "Point", "coordinates": [7.8744, 48.5702]}}, {"type": "Feature", "properties": {"start": "Krimmeri Meinau", "stop_name": "Legelshurst", "type": "Gare accessible", "icone": "TER"}, "geometry": {"type": "Point", "coordinates": [7.9138, 48.5585]}}, {"type": "Feature", "properties": {"start": "Krimmeri Meinau", "stop_name": "Appenweier", "type": "Gare accessible", "icone": "TER"}, "geometry": {"type": "Point", "coordinates": [7.9735, 48.5419]}}, {"type": "Feature", "properties": {"start": "Krimmeri Meinau", "stop_name": "Offenburg", "type": "Gare accessible", "icone": "TER"}, "geometry": {"type": "Point", "coordinates": [7.9468, 48.4765]}}]}