{"type": "FeatureCollection", "features": [{"type": "Feature", "properties": {"stop_name": "Kurtzenhouse CMDP", "type": "Gare s\u00e9lectionn\u00e9e"}, "geometry": {"type": "Point", "coordinates": [7.812572, 48.742614]}}, {"type": "Feature", "properties": {"stop_name": "Haguenau", "type": "Gare accessible"}, "geometry": {"type": "Point", "coordinates": [7.782757, 48.813486]}}, {"type": "Feature", "properties": {"stop_name": "Haguenau Statuette", "type": "Gare accessible"}, "geometry": {"type": "Point", "coordinates": [7.798091, 48.804194]}}, {"type": "Feature", "properties": {"stop_name": "Marienthal Basilique Notre-Dame", "type": "Gare accessible"}, "geometry": {"type": "Point", "coordinates": [7.816475, 48.780133]}}, {"type": "Feature", "properties": {"stop_name": "Marienthal", "type": "Gare accessible"}, "geometry": {"type": "Point", "coordinates": [7.823352, 48.781867999999996]}}, {"type": "Feature", "properties": {"stop_name": "Kaltenhouse Rue de Bischwiller", "type": "Gare accessible"}, "geometry": {"type": "Point", "coordinates": [7.836572, 48.789926]}}, {"type": "Feature", "properties": {"stop_name": "Bischwiller Vestra", "type": "Gare accessible"}, "geometry": {"type": "Point", "coordinates": [7.847867, 48.770589]}}, {"type": "Feature", "properties": {"stop_name": "Bischwiller", "type": "Gare accessible"}, "geometry": {"type": "Point", "coordinates": [7.851654, 48.765753000000004]}}, {"type": "Feature", "properties": {"stop_name": "Bischwiller \u00c9glise Catholique", "type": "Gare accessible"}, "geometry": {"type": "Point", "coordinates": [7.859784, 48.764098]}}, {"type": "Feature", "properties": {"stop_name": "Kurtzenhouse Mairie", "type": "Gare accessible"}, "geometry": {"type": "Point", "coordinates": [7.806639, 48.739129]}}, {"type": "Feature", "properties": {"stop_name": "Weyersheim Rue R\u00e9publique", "type": "Gare accessible"}, "geometry": {"type": "Point", "coordinates": [7.800244, 48.717811]}}, {"type": "Feature", "properties": {"stop_name": "Hoerdt Mairie", "type": "Gare accessible"}, "geometry": {"type": "Point", "coordinates": [7.784133, 48.698190000000004]}}, {"type": "Feature", "properties": {"stop_name": "Hoerdt Maison de Retraite", "type": "Gare accessible"}, "geometry": {"type": "Point", "coordinates": [7.782193, 48.692017]}}, {"type": "Feature", "properties": {"stop_name": "Strasbourg", "type": "Gare accessible"}, "geometry": {"type": "Point", "coordinates": [7.734793, 48.584532]}}, {"type": "Feature", "properties": {"stop_name": "Wissembourg", "type": "Gare accessible"}, "geometry": {"type": "Point", "coordinates": [7.95018, 49.031931]}}, {"type": "Feature", "properties": {"stop_name": "Soultz-sous-For\u00eats", "type": "Gare accessible"}, "geometry": {"type": "Point", "coordinates": [7.882664, 48.934775]}}, {"type": "Feature", "properties": {"stop_name": "Niederbronn-les-Bains", "type": "Gare accessible"}, "geometry": {"type": "Point", "coordinates": [7.63409, 48.952385]}}, {"type": "Feature", "properties": {"stop_name": "Reichshoffen", "type": "Gare accessible"}, "geometry": {"type": "Point", "coordinates": [7.658072, 48.930925]}}, {"type": "Feature", "properties": {"stop_name": "Gundershoffen", "type": "Gare accessible"}, "geometry": {"type": "Point", "coordinates": [7.653535, 48.905260999999996]}}, {"type": "Feature", "properties": {"stop_name": "Mertzwiller", "type": "Gare accessible"}, "geometry": {"type": "Point", "coordinates": [7.678244, 48.872056]}}, {"type": "Feature", "properties": {"stop_name": "Schweighouse-sur-Moder", "type": "Gare accessible"}, "geometry": {"type": "Point", "coordinates": [7.742564, 48.828677]}}]}