{"type": "FeatureCollection", "features": [{"type": "Feature", "properties": {"stop_name": "La Roche-sur-Yon", "type": "Gare s\u00e9lectionn\u00e9e", "icone": "Icon2"}, "geometry": {"type": "Point", "coordinates": [-1.43566, 46.672075]}}, {"type": "Feature", "properties": {"stop_name": "Nantes", "type": "Gare accessible", "icone": "Icon1"}, "geometry": {"type": "Point", "coordinates": [-1.5420770000000001, 47.217490999999995]}}, {"type": "Feature", "properties": {"stop_name": "Clisson", "type": "Gare accessible", "icone": "Icon1"}, "geometry": {"type": "Point", "coordinates": [-1.286292, 47.086015]}}, {"type": "Feature", "properties": {"stop_name": "Montaigu", "type": "Gare accessible", "icone": "Icon1"}, "geometry": {"type": "Point", "coordinates": [-1.3161889999999998, 46.98372]}}, {"type": "Feature", "properties": {"stop_name": "L'Herbergement - Les Brouzils", "type": "Gare accessible", "icone": "Icon1"}, "geometry": {"type": "Point", "coordinates": [-1.3712790000000001, 46.906946000000005]}}, {"type": "Feature", "properties": {"stop_name": "Belleville-Vend\u00e9e", "type": "Gare accessible", "icone": "Icon1"}, "geometry": {"type": "Point", "coordinates": [-1.434512, 46.788329]}}, {"type": "Feature", "properties": {"stop_name": "La Chaize-le-Vicomte", "type": "Gare accessible", "icone": "Icon1"}, "geometry": {"type": "Point", "coordinates": [-1.283601, 46.676840000000006]}}, {"type": "Feature", "properties": {"stop_name": "Fouger\u00e9", "type": "Gare accessible", "icone": "Icon1"}, "geometry": {"type": "Point", "coordinates": [-1.2321030000000002, 46.665362]}}, {"type": "Feature", "properties": {"stop_name": "Bournezeau", "type": "Gare accessible", "icone": "Icon1"}, "geometry": {"type": "Point", "coordinates": [-1.178402, 46.651524]}}, {"type": "Feature", "properties": {"stop_name": "Chantonnay", "type": "Gare accessible", "icone": "Icon1"}, "geometry": {"type": "Point", "coordinates": [-1.054325, 46.690068]}}, {"type": "Feature", "properties": {"stop_name": "Les Sables-d'Olonne", "type": "Gare accessible", "icone": "Icon1"}, "geometry": {"type": "Point", "coordinates": [-1.781116, 46.500032]}}, {"type": "Feature", "properties": {"stop_name": "La Mothe-Achard", "type": "Gare accessible", "icone": "Icon1"}, "geometry": {"type": "Point", "coordinates": [-1.659513, 46.606971]}}, {"type": "Feature", "properties": {"stop_name": "Olonne-sur-Mer", "type": "Gare accessible", "icone": "Icon1"}, "geometry": {"type": "Point", "coordinates": [-1.7673020000000002, 46.548653]}}, {"type": "Feature", "properties": {"stop_name": "La Rochelle", "type": "Gare accessible", "icone": "Icon1"}, "geometry": {"type": "Point", "coordinates": [-1.145853, 46.152705]}}, {"type": "Feature", "properties": {"stop_name": "Lu\u00e7on", "type": "Gare accessible", "icone": "Icon1"}, "geometry": {"type": "Point", "coordinates": [-1.1674209999999998, 46.463627]}}, {"type": "Feature", "properties": {"stop_name": "Pouzauges", "type": "Gare accessible", "icone": "Icon1"}, "geometry": {"type": "Point", "coordinates": [-0.8394459999999999, 46.78031]}}, {"type": "Feature", "properties": {"stop_name": "Cerizay", "type": "Gare accessible", "icone": "Icon1"}, "geometry": {"type": "Point", "coordinates": [-0.667313, 46.817551]}}, {"type": "Feature", "properties": {"stop_name": "Bressuire", "type": "Gare accessible", "icone": "Icon1"}, "geometry": {"type": "Point", "coordinates": [-0.49613999999999997, 46.838403]}}, {"type": "Feature", "properties": {"stop_name": "Thouars", "type": "Gare accessible", "icone": "Icon1"}, "geometry": {"type": "Point", "coordinates": [-0.21001999999999998, 46.985039]}}, {"type": "Feature", "properties": {"stop_name": "Montreuil-Bellay", "type": "Gare accessible", "icone": "Icon1"}, "geometry": {"type": "Point", "coordinates": [-0.148283, 47.125417999999996]}}, {"type": "Feature", "properties": {"stop_name": "Saumur", "type": "Gare accessible", "icone": "Icon1"}, "geometry": {"type": "Point", "coordinates": [-0.071403, 47.268994]}}, {"type": "Feature", "properties": {"stop_name": "Port Boulet", "type": "Gare accessible", "icone": "Icon1"}, "geometry": {"type": "Point", "coordinates": [0.155648, 47.248836]}}, {"type": "Feature", "properties": {"stop_name": "Langeais", "type": "Gare accessible", "icone": "Icon1"}, "geometry": {"type": "Point", "coordinates": [0.410104, 47.324058]}}, {"type": "Feature", "properties": {"stop_name": "Cinq-Mars-la-Pile", "type": "Gare accessible", "icone": "Icon1"}, "geometry": {"type": "Point", "coordinates": [0.459387, 47.345112]}}, {"type": "Feature", "properties": {"stop_name": "Tours", "type": "Gare accessible", "icone": "Icon1"}, "geometry": {"type": "Point", "coordinates": [0.692831, 47.389866]}}]}