{"type": "FeatureCollection", "features": [{"type": "Feature", "properties": {"stop_name": "La Source Orl\u00e9ans Voltaire", "type": "Gare s\u00e9lectionn\u00e9e"}, "geometry": {"type": "Point", "coordinates": [1.939017, 47.837289]}}, {"type": "Feature", "properties": {"stop_name": "Chartres P\u00f4le d'\u00c9change Compa", "type": "Gare accessible"}, "geometry": {"type": "Point", "coordinates": [1.476653, 48.446546999999995]}}, {"type": "Feature", "properties": {"stop_name": "Orl\u00e9ans Gare Routi\u00e8re", "type": "Gare accessible"}, "geometry": {"type": "Point", "coordinates": [1.906793, 47.90813]}}, {"type": "Feature", "properties": {"stop_name": "La Source Universit\u00e9", "type": "Gare accessible"}, "geometry": {"type": "Point", "coordinates": [1.934688, 47.839388]}}, {"type": "Feature", "properties": {"stop_name": "La Source Orl\u00e9ans Chataigniers", "type": "Gare accessible"}, "geometry": {"type": "Point", "coordinates": [1.929029, 47.841378999999996]}}]}