{"type": "FeatureCollection", "features": [{"type": "Feature", "properties": {"stop_name": "La Tour-du-Pin", "type": "Gare s\u00e9lectionn\u00e9e", "icone": "Icon2"}, "geometry": {"type": "Point", "coordinates": [5.449582, 45.560287]}}, {"type": "Feature", "properties": {"stop_name": "Grenoble", "type": "Gare accessible", "icone": "Icon1"}, "geometry": {"type": "Point", "coordinates": [5.714366, 45.192693]}}, {"type": "Feature", "properties": {"stop_name": "Voiron", "type": "Gare accessible", "icone": "Icon1"}, "geometry": {"type": "Point", "coordinates": [5.594959, 45.364034000000004]}}, {"type": "Feature", "properties": {"stop_name": "Bourgoin-Jallieu", "type": "Gare accessible", "icone": "Icon1"}, "geometry": {"type": "Point", "coordinates": [5.273362, 45.583982]}}, {"type": "Feature", "properties": {"stop_name": "La Verpilli\u00e8re", "type": "Gare accessible", "icone": "Icon1"}, "geometry": {"type": "Point", "coordinates": [5.150785, 45.627619]}}, {"type": "Feature", "properties": {"stop_name": "Lyon Part Dieu", "type": "Gare accessible", "icone": "Icon1"}, "geometry": {"type": "Point", "coordinates": [4.859409, 45.760596]}}, {"type": "Feature", "properties": {"stop_name": "Lyon Perrache", "type": "Gare accessible", "icone": "Icon1"}, "geometry": {"type": "Point", "coordinates": [4.825777, 45.748508]}}, {"type": "Feature", "properties": {"stop_name": "Rives", "type": "Gare accessible", "icone": "Icon1"}, "geometry": {"type": "Point", "coordinates": [5.491895, 45.357594]}}, {"type": "Feature", "properties": {"stop_name": "Moirans", "type": "Gare accessible", "icone": "Icon1"}, "geometry": {"type": "Point", "coordinates": [5.581934, 45.32216]}}, {"type": "Feature", "properties": {"stop_name": "Chamb\u00e9ry - Challes-les-Eaux", "type": "Gare accessible", "icone": "Icon1"}, "geometry": {"type": "Point", "coordinates": [5.919547, 45.571302]}}, {"type": "Feature", "properties": {"stop_name": "L\u00e9pin-le-Lac - La Bauche", "type": "Gare accessible", "icone": "Icon1"}, "geometry": {"type": "Point", "coordinates": [5.764584, 45.541546999999994]}}, {"type": "Feature", "properties": {"stop_name": "Pont-de-Beauvoisin", "type": "Gare accessible", "icone": "Icon1"}, "geometry": {"type": "Point", "coordinates": [5.680801, 45.524597]}}, {"type": "Feature", "properties": {"stop_name": "Saint-Andr\u00e9-le-Gaz", "type": "Gare accessible", "icone": "Icon1"}, "geometry": {"type": "Point", "coordinates": [5.524254, 45.544529]}}, {"type": "Feature", "properties": {"stop_name": "Montm\u00e9lian", "type": "Gare accessible", "icone": "Icon1"}, "geometry": {"type": "Point", "coordinates": [6.043175, 45.503082]}}, {"type": "Feature", "properties": {"stop_name": "Saint-Pierre-d'Albigny", "type": "Gare accessible", "icone": "Icon1"}, "geometry": {"type": "Point", "coordinates": [6.156289, 45.557399]}}, {"type": "Feature", "properties": {"stop_name": "Albertville", "type": "Gare accessible", "icone": "Icon1"}, "geometry": {"type": "Point", "coordinates": [6.383167, 45.672977]}}, {"type": "Feature", "properties": {"stop_name": "Mo\u00fbtiers-Salins-Brides-les-B.", "type": "Gare accessible", "icone": "Icon1"}, "geometry": {"type": "Point", "coordinates": [6.531399, 45.486470000000004]}}, {"type": "Feature", "properties": {"stop_name": "Aime - La Plagne", "type": "Gare accessible", "icone": "Icon1"}, "geometry": {"type": "Point", "coordinates": [6.648614, 45.554387]}}, {"type": "Feature", "properties": {"stop_name": "Landry", "type": "Gare accessible", "icone": "Icon1"}, "geometry": {"type": "Point", "coordinates": [6.733849, 45.574213]}}, {"type": "Feature", "properties": {"stop_name": "Bourg-Saint-Maurice", "type": "Gare accessible", "icone": "Icon1"}, "geometry": {"type": "Point", "coordinates": [6.771273, 45.619036]}}, {"type": "Feature", "properties": {"stop_name": "Notre-Dame de Brian\u00e7on", "type": "Gare accessible", "icone": "Icon1"}, "geometry": {"type": "Point", "coordinates": [6.468855, 45.539384000000005]}}, {"type": "Feature", "properties": {"stop_name": "Frontenex", "type": "Gare accessible", "icone": "Icon1"}, "geometry": {"type": "Point", "coordinates": [6.314041, 45.630568]}}, {"type": "Feature", "properties": {"stop_name": "Gr\u00e9sy-sur-Is\u00e8re", "type": "Gare accessible", "icone": "Icon1"}, "geometry": {"type": "Point", "coordinates": [6.258838, 45.594467]}}, {"type": "Feature", "properties": {"stop_name": "Saint-Avre - La Chambre", "type": "Gare accessible", "icone": "Icon1"}, "geometry": {"type": "Point", "coordinates": [6.302867, 45.353120000000004]}}, {"type": "Feature", "properties": {"stop_name": "Saint-Jean-de-Maurienne Arvan", "type": "Gare accessible", "icone": "Icon1"}, "geometry": {"type": "Point", "coordinates": [6.354716, 45.277542]}}, {"type": "Feature", "properties": {"stop_name": "Saint-Michel - Valloire", "type": "Gare accessible", "icone": "Icon1"}, "geometry": {"type": "Point", "coordinates": [6.471914, 45.216916]}}, {"type": "Feature", "properties": {"stop_name": "Modane", "type": "Gare accessible", "icone": "Icon1"}, "geometry": {"type": "Point", "coordinates": [6.659139, 45.193554999999996]}}, {"type": "Feature", "properties": {"stop_name": "Les Abrets - Fitilieu", "type": "Gare accessible", "icone": "Icon1"}, "geometry": {"type": "Point", "coordinates": [5.575473, 45.54214]}}, {"type": "Feature", "properties": {"stop_name": "Saint-B\u00e9ron - La Bridoire", "type": "Gare accessible", "icone": "Icon1"}, "geometry": {"type": "Point", "coordinates": [5.731907, 45.503939]}}, {"type": "Feature", "properties": {"stop_name": "Aiguebelette-le-Lac", "type": "Gare accessible", "icone": "Icon1"}, "geometry": {"type": "Point", "coordinates": [5.813122, 45.536322999999996]}}, {"type": "Feature", "properties": {"stop_name": "Cessieu", "type": "Gare accessible", "icone": "Icon1"}, "geometry": {"type": "Point", "coordinates": [5.376118, 45.56116]}}, {"type": "Feature", "properties": {"stop_name": "L'Isle-d'Abeau", "type": "Gare accessible", "icone": "Icon1"}, "geometry": {"type": "Point", "coordinates": [5.219598, 45.607647]}}, {"type": "Feature", "properties": {"stop_name": "Saint-Quentin-Fallavier", "type": "Gare accessible", "icone": "Icon1"}, "geometry": {"type": "Point", "coordinates": [5.099982, 45.638164]}}, {"type": "Feature", "properties": {"stop_name": "Saint-Priest", "type": "Gare accessible", "icone": "Icon1"}, "geometry": {"type": "Point", "coordinates": [4.934291, 45.686673]}}, {"type": "Feature", "properties": {"stop_name": "V\u00e9nissieux", "type": "Gare accessible", "icone": "Icon1"}, "geometry": {"type": "Point", "coordinates": [4.888007, 45.705608000000005]}}, {"type": "Feature", "properties": {"stop_name": "Lyon Jean Mac\u00e9", "type": "Gare accessible", "icone": "Icon1"}, "geometry": {"type": "Point", "coordinates": [4.841499, 45.74503]}}]}