{"type": "FeatureCollection", "features": [{"type": "Feature", "properties": {"stop_name": "Laqueuille", "type": "Gare s\u00e9lectionn\u00e9e"}, "geometry": {"type": "Point", "coordinates": [2.704976, 45.646916999999995]}}, {"type": "Feature", "properties": {"stop_name": "Saint-Sauves-d'Auvergne Bourg", "type": "Gare accessible"}, "geometry": {"type": "Point", "coordinates": [2.687917, 45.606802]}}, {"type": "Feature", "properties": {"stop_name": "La Bourboule Centre", "type": "Gare accessible"}, "geometry": {"type": "Point", "coordinates": [2.741159, 45.588976]}}, {"type": "Feature", "properties": {"stop_name": "La Bourboule", "type": "Gare accessible"}, "geometry": {"type": "Point", "coordinates": [2.746349, 45.590449]}}, {"type": "Feature", "properties": {"stop_name": "Le Mont-Dore Centre", "type": "Gare accessible"}, "geometry": {"type": "Point", "coordinates": [2.812262, 45.57157]}}, {"type": "Feature", "properties": {"stop_name": "Mont-Dore", "type": "Gare accessible"}, "geometry": {"type": "Point", "coordinates": [2.804775, 45.579415000000004]}}, {"type": "Feature", "properties": {"stop_name": "Clermont-Ferrand", "type": "Gare accessible"}, "geometry": {"type": "Point", "coordinates": [3.100543, 45.778945]}}, {"type": "Feature", "properties": {"stop_name": "Le Mont-Dore Ski", "type": "Gare accessible"}, "geometry": {"type": "Point", "coordinates": [2.816722, 45.542111]}}, {"type": "Feature", "properties": {"stop_name": "Rochefort-Montagne", "type": "Gare accessible"}, "geometry": {"type": "Point", "coordinates": [2.805494, 45.687132]}}, {"type": "Feature", "properties": {"stop_name": "Tauves", "type": "Gare accessible"}, "geometry": {"type": "Point", "coordinates": [2.622136, 45.560333]}}, {"type": "Feature", "properties": {"stop_name": "Bagnols-Stade", "type": "Gare accessible"}, "geometry": {"type": "Point", "coordinates": [2.597057, 45.513707000000004]}}, {"type": "Feature", "properties": {"stop_name": "Lanobre", "type": "Gare accessible"}, "geometry": {"type": "Point", "coordinates": [2.53395, 45.437003000000004]}}, {"type": "Feature", "properties": {"stop_name": "Bort-les-Orgues", "type": "Gare accessible"}, "geometry": {"type": "Point", "coordinates": [2.502565, 45.406434999999995]}}, {"type": "Feature", "properties": {"stop_name": "Bort-les-Orgues Ville", "type": "Gare accessible"}, "geometry": {"type": "Point", "coordinates": [2.499293, 45.399341]}}, {"type": "Feature", "properties": {"stop_name": "Les Quatre Routes de Saignes", "type": "Gare accessible"}, "geometry": {"type": "Point", "coordinates": [2.463695, 45.354]}}, {"type": "Feature", "properties": {"stop_name": "Ydes", "type": "Gare accessible"}, "geometry": {"type": "Point", "coordinates": [2.436326, 45.344155]}}, {"type": "Feature", "properties": {"stop_name": "Vendes", "type": "Gare accessible"}, "geometry": {"type": "Point", "coordinates": [2.388322, 45.296296999999996]}}, {"type": "Feature", "properties": {"stop_name": "Mauriac", "type": "Gare accessible"}, "geometry": {"type": "Point", "coordinates": [2.34469, 45.221666]}}, {"type": "Feature", "properties": {"stop_name": "Mauriac Lyc\u00e9e Cortat", "type": "Gare accessible"}, "geometry": {"type": "Point", "coordinates": [2.341249, 45.213395]}}, {"type": "Feature", "properties": {"stop_name": "Bourg-Lastic Place la Poste", "type": "Gare accessible"}, "geometry": {"type": "Point", "coordinates": [2.561542, 45.648387]}}, {"type": "Feature", "properties": {"stop_name": "Eygurande - Merlines", "type": "Gare accessible"}, "geometry": {"type": "Point", "coordinates": [2.460986, 45.645342]}}, {"type": "Feature", "properties": {"stop_name": "Ussel", "type": "Gare accessible"}, "geometry": {"type": "Point", "coordinates": [2.314403, 45.557382000000004]}}]}