{"type": "FeatureCollection", "features": [{"type": "Feature", "properties": {"start": "Laval", "stop_name": "Laval", "type": "Gare s\u00e9lectionn\u00e9e", "iconstarte": "Icon2"}, "geometry": {"type": "Point", "coordinates": [-0.760929, 48.076255]}}, {"type": "Feature", "properties": {"start": "Laval", "stop_name": "Monts\u00fbrs", "type": "Gare accessible", "icone": "Icon1"}, "geometry": {"type": "Point", "coordinates": [-0.550642, 48.14149]}}, {"type": "Feature", "properties": {"start": "Laval", "stop_name": "\u00c9vron", "type": "Gare accessible", "icone": "Icon1"}, "geometry": {"type": "Point", "coordinates": [-0.397155, 48.155517]}}, {"type": "Feature", "properties": {"start": "Laval", "stop_name": "Rouess\u00e9-Vass\u00e9", "type": "Gare accessible", "icone": "Icon1"}, "geometry": {"type": "Point", "coordinates": [-0.199779, 48.160076]}}, {"type": "Feature", "properties": {"start": "Laval", "stop_name": "Sill\u00e9-le-Guillaume", "type": "Gare accessible", "icone": "Icon1"}, "geometry": {"type": "Point", "coordinates": [-0.128891, 48.181795]}}, {"type": "Feature", "properties": {"start": "Laval", "stop_name": "Criss\u00e9", "type": "Gare accessible", "icone": "Icon1"}, "geometry": {"type": "Point", "coordinates": [-0.065929, 48.168212]}}, {"type": "Feature", "properties": {"start": "Laval", "stop_name": "Conlie", "type": "Gare accessible", "icone": "Icon1"}, "geometry": {"type": "Point", "coordinates": [-0.01162, 48.127221]}}, {"type": "Feature", "properties": {"start": "Laval", "stop_name": "Domfront", "type": "Gare accessible", "icone": "Icon1"}, "geometry": {"type": "Point", "coordinates": [0.026256, 48.107768]}}, {"type": "Feature", "properties": {"start": "Laval", "stop_name": "Le Mans", "type": "Gare accessible", "icone": "Icon1"}, "geometry": {"type": "Point", "coordinates": [0.192614, 47.995615]}}, {"type": "Feature", "properties": {"start": "Laval", "stop_name": "Voutr\u00e9", "type": "Gare accessible", "icone": "Icon1"}, "geometry": {"type": "Point", "coordinates": [-0.292219, 48.134157]}}, {"type": "Feature", "properties": {"start": "Laval", "stop_name": "Neau", "type": "Gare accessible", "icone": "Icon1"}, "geometry": {"type": "Point", "coordinates": [-0.47657, 48.157526]}}, {"type": "Feature", "properties": {"start": "Laval", "stop_name": "Louvern\u00e9", "type": "Gare accessible", "icone": "Icon1"}, "geometry": {"type": "Point", "coordinates": [-0.714347, 48.108817]}}, {"type": "Feature", "properties": {"start": "Laval", "stop_name": "Le Genest", "type": "Gare accessible", "icone": "Icon1"}, "geometry": {"type": "Point", "coordinates": [-0.885621, 48.096741]}}, {"type": "Feature", "properties": {"start": "Laval", "stop_name": "Port-Brillet", "type": "Gare accessible", "icone": "Icon1"}, "geometry": {"type": "Point", "coordinates": [-0.974047, 48.110707]}}, {"type": "Feature", "properties": {"start": "Laval", "stop_name": "Saint-Pierre-la-Cour", "type": "Gare accessible", "icone": "Icon1"}, "geometry": {"type": "Point", "coordinates": [-1.02558, 48.113651]}}, {"type": "Feature", "properties": {"start": "Laval", "stop_name": "Vitr\u00e9", "type": "Gare accessible", "icone": "Icon1"}, "geometry": {"type": "Point", "coordinates": [-1.211754, 48.122671]}}, {"type": "Feature", "properties": {"start": "Laval", "stop_name": "Ch\u00e2teaubourg", "type": "Gare accessible", "icone": "Icon1"}, "geometry": {"type": "Point", "coordinates": [-1.405159, 48.106361]}}, {"type": "Feature", "properties": {"start": "Laval", "stop_name": "Servon", "type": "Gare accessible", "icone": "Icon1"}, "geometry": {"type": "Point", "coordinates": [-1.46521, 48.112213]}}, {"type": "Feature", "properties": {"start": "Laval", "stop_name": "Noyal - Acign\u00e9", "type": "Gare accessible", "icone": "Icon1"}, "geometry": {"type": "Point", "coordinates": [-1.527765, 48.118792]}}, {"type": "Feature", "properties": {"start": "Laval", "stop_name": "Cesson-S\u00e9vign\u00e9", "type": "Gare accessible", "icone": "Icon1"}, "geometry": {"type": "Point", "coordinates": [-1.60211, 48.11281]}}, {"type": "Feature", "properties": {"start": "Laval", "stop_name": "Rennes", "type": "Gare accessible", "icone": "Icon1"}, "geometry": {"type": "Point", "coordinates": [-1.672744, 48.103517]}}, {"type": "Feature", "properties": {"start": "Laval", "stop_name": "Les Lacs", "type": "Gare accessible", "icone": "Icon1"}, "geometry": {"type": "Point", "coordinates": [-1.322266, 48.108891]}}, {"type": "Feature", "properties": {"start": "Laval", "stop_name": "Nantes", "type": "Gare accessible", "icone": "Icon1"}, "geometry": {"type": "Point", "coordinates": [-1.542077, 47.217491]}}, {"type": "Feature", "properties": {"start": "Laval", "stop_name": "Ancenis", "type": "Gare accessible", "icone": "Icon1"}, "geometry": {"type": "Point", "coordinates": [-1.177763, 47.369334]}}, {"type": "Feature", "properties": {"start": "Laval", "stop_name": "Angers Saint-Laud", "type": "Gare accessible", "icone": "Icon1"}, "geometry": {"type": "Point", "coordinates": [-0.55677, 47.464649]}}, {"type": "Feature", "properties": {"start": "Laval", "stop_name": "Sabl\u00e9-sur-Sarthe", "type": "Gare accessible", "icone": "Icon1"}, "geometry": {"type": "Point", "coordinates": [-0.342, 47.841759]}}, {"type": "Feature", "properties": {"start": "Laval", "stop_name": "Savenay", "type": "Gare accessible", "icone": "Icon1"}, "geometry": {"type": "Point", "coordinates": [-1.951007, 47.358602]}}, {"type": "Feature", "properties": {"start": "Laval", "stop_name": "Saint-Nazaire", "type": "Gare accessible", "icone": "Icon1"}, "geometry": {"type": "Point", "coordinates": [-2.211079, 47.286489]}}, {"type": "Feature", "properties": {"start": "Laval", "stop_name": "Pornichet", "type": "Gare accessible", "icone": "Icon1"}, "geometry": {"type": "Point", "coordinates": [-2.344865, 47.27043]}}, {"type": "Feature", "properties": {"start": "Laval", "stop_name": "La Baule les Pins", "type": "Gare accessible", "icone": "Icon1"}, "geometry": {"type": "Point", "coordinates": [-2.364885, 47.28345]}}, {"type": "Feature", "properties": {"start": "Laval", "stop_name": "La Baule-Escoublac", "type": "Gare accessible", "icone": "Icon1"}, "geometry": {"type": "Point", "coordinates": [-2.38921, 47.288459]}}, {"type": "Feature", "properties": {"start": "Laval", "stop_name": "Le Pouliguen", "type": "Gare accessible", "icone": "Icon1"}, "geometry": {"type": "Point", "coordinates": [-2.433126, 47.282504]}}, {"type": "Feature", "properties": {"start": "Laval", "stop_name": "Batz-sur-Mer", "type": "Gare accessible", "icone": "Icon1"}, "geometry": {"type": "Point", "coordinates": [-2.478869, 47.280855]}}, {"type": "Feature", "properties": {"start": "Laval", "stop_name": "Le Croisic", "type": "Gare accessible", "icone": "Icon1"}, "geometry": {"type": "Point", "coordinates": [-2.50734, 47.289889]}}]}