{"type": "FeatureCollection", "features": [{"type": "Feature", "properties": {"stop_name": "Le Burg", "type": "Gare s\u00e9lectionn\u00e9e", "icone": "Icon2"}, "geometry": {"type": "Point", "coordinates": [1.429814, 45.215796000000005]}}, {"type": "Feature", "properties": {"stop_name": "Brive-la-Gaillarde", "type": "Gare accessible", "icone": "Icon1"}, "geometry": {"type": "Point", "coordinates": [1.528634, 45.152601000000004]}}, {"type": "Feature", "properties": {"stop_name": "Varetz", "type": "Gare accessible", "icone": "Icon1"}, "geometry": {"type": "Point", "coordinates": [1.447454, 45.191122]}}, {"type": "Feature", "properties": {"stop_name": "Saint-Aulaire", "type": "Gare accessible", "icone": "Icon1"}, "geometry": {"type": "Point", "coordinates": [1.398697, 45.248841]}}, {"type": "Feature", "properties": {"stop_name": "Objat", "type": "Gare accessible", "icone": "Icon1"}, "geometry": {"type": "Point", "coordinates": [1.406982, 45.264695]}}]}