{"type": "FeatureCollection", "features": [{"type": "Feature", "properties": {"start": "Le Bruel", "stop_name": "Le Bruel", "type": "Gare s\u00e9lectionn\u00e9e", "iconstarte": "Icon2"}, "geometry": {"type": "Point", "coordinates": [3.358325, 44.481329]}}, {"type": "Feature", "properties": {"start": "Le Bruel", "stop_name": "N\u00eemes Centre", "type": "Gare accessible", "icone": "TER"}, "geometry": {"type": "Point", "coordinates": [4.365872, 43.832313]}}, {"type": "Feature", "properties": {"start": "Le Bruel", "stop_name": "Saint-Geni\u00e8s-de-Malgoir\u00e8s", "type": "Gare accessible", "icone": "TER"}, "geometry": {"type": "Point", "coordinates": [4.214942, 43.950168]}}, {"type": "Feature", "properties": {"start": "Le Bruel", "stop_name": "Al\u00e8s", "type": "Gare accessible", "icone": "TER"}, "geometry": {"type": "Point", "coordinates": [4.084948, 44.127825]}}, {"type": "Feature", "properties": {"start": "Le Bruel", "stop_name": "Grand-Combe la Pise", "type": "Gare accessible", "icone": "TER"}, "geometry": {"type": "Point", "coordinates": [4.032959, 44.209816]}}, {"type": "Feature", "properties": {"start": "Le Bruel", "stop_name": "La Levade", "type": "Gare accessible", "icone": "TER"}, "geometry": {"type": "Point", "coordinates": [4.010274, 44.228602]}}, {"type": "Feature", "properties": {"start": "Le Bruel", "stop_name": "Sainte-C\u00e9cile-d'Andorge", "type": "Gare accessible", "icone": "TER"}, "geometry": {"type": "Point", "coordinates": [3.97585, 44.255436]}}, {"type": "Feature", "properties": {"start": "Le Bruel", "stop_name": "Chamborigaud", "type": "Gare accessible", "icone": "TER"}, "geometry": {"type": "Point", "coordinates": [3.979333, 44.300243]}}, {"type": "Feature", "properties": {"start": "Le Bruel", "stop_name": "G\u00e9nolhac", "type": "Gare accessible", "icone": "TER"}, "geometry": {"type": "Point", "coordinates": [3.95164, 44.347119]}}, {"type": "Feature", "properties": {"start": "Le Bruel", "stop_name": "Villefort", "type": "Gare accessible", "icone": "TER"}, "geometry": {"type": "Point", "coordinates": [3.924015, 44.43951]}}, {"type": "Feature", "properties": {"start": "Le Bruel", "stop_name": "La Bastide-St-Laurent-les-B.", "type": "Gare accessible", "icone": "TER"}, "geometry": {"type": "Point", "coordinates": [3.904285, 44.593483]}}, {"type": "Feature", "properties": {"start": "Le Bruel", "stop_name": "Chasserad\u00e8s", "type": "Gare accessible", "icone": "TER"}, "geometry": {"type": "Point", "coordinates": [3.839932, 44.553985]}}, {"type": "Feature", "properties": {"start": "Le Bruel", "stop_name": "Belvezet", "type": "Gare accessible", "icone": "TER"}, "geometry": {"type": "Point", "coordinates": [3.751869, 44.561778]}}, {"type": "Feature", "properties": {"start": "Le Bruel", "stop_name": "Allenc", "type": "Gare accessible", "icone": "TER"}, "geometry": {"type": "Point", "coordinates": [3.663893, 44.541296]}}, {"type": "Feature", "properties": {"start": "Le Bruel", "stop_name": "Bagnols - Chadenet", "type": "Gare accessible", "icone": "TER"}, "geometry": {"type": "Point", "coordinates": [3.628178, 44.528613]}}, {"type": "Feature", "properties": {"start": "Le Bruel", "stop_name": "Mende", "type": "Gare accessible", "icone": "TER"}, "geometry": {"type": "Point", "coordinates": [3.501981, 44.522347]}}, {"type": "Feature", "properties": {"start": "Le Bruel", "stop_name": "Balsi\u00e8ges Bourg", "type": "Gare accessible", "icone": "TER"}, "geometry": {"type": "Point", "coordinates": [3.456598, 44.482212]}}, {"type": "Feature", "properties": {"start": "Le Bruel", "stop_name": "Barjac", "type": "Gare accessible", "icone": "TER"}, "geometry": {"type": "Point", "coordinates": [3.410979, 44.499264]}}, {"type": "Feature", "properties": {"start": "Le Bruel", "stop_name": "Chanac", "type": "Gare accessible", "icone": "TER"}, "geometry": {"type": "Point", "coordinates": [3.345412, 44.473979]}}, {"type": "Feature", "properties": {"start": "Le Bruel", "stop_name": "Les Salelles", "type": "Gare accessible", "icone": "TER"}, "geometry": {"type": "Point", "coordinates": [3.280401, 44.483269]}}, {"type": "Feature", "properties": {"start": "Le Bruel", "stop_name": "Le Monastier", "type": "Gare accessible", "icone": "TER"}, "geometry": {"type": "Point", "coordinates": [3.25213, 44.508936]}}, {"type": "Feature", "properties": {"start": "Le Bruel", "stop_name": "Chirac", "type": "Gare accessible", "icone": "TER"}, "geometry": {"type": "Point", "coordinates": [3.263818, 44.524661]}}, {"type": "Feature", "properties": {"start": "Le Bruel", "stop_name": "Marvejols", "type": "Gare accessible", "icone": "TER"}, "geometry": {"type": "Point", "coordinates": [3.281119, 44.544675]}}]}