{"type": "FeatureCollection", "features": [{"type": "Feature", "properties": {"start": "Le Cendre - Orcet", "stop_name": "Le Cendre - Orcet", "type": "Gare s\u00e9lectionn\u00e9e", "iconstarte": "Icon2"}, "geometry": {"type": "Point", "coordinates": [3.188682, 45.723828]}}, {"type": "Feature", "properties": {"start": "Le Cendre - Orcet", "stop_name": "Vic-le-Comte", "type": "Gare accessible", "icone": "Icon1"}, "geometry": {"type": "Point", "coordinates": [3.207042, 45.664941]}}, {"type": "Feature", "properties": {"start": "Le Cendre - Orcet", "stop_name": "Les Martres-de-Veyre", "type": "Gare accessible", "icone": "Icon1"}, "geometry": {"type": "Point", "coordinates": [3.193325, 45.688195]}}, {"type": "Feature", "properties": {"start": "Le Cendre - Orcet", "stop_name": "Sarli\u00e8ve - Cournon", "type": "Gare accessible", "icone": "Icon1"}, "geometry": {"type": "Point", "coordinates": [3.168075, 45.738743]}}, {"type": "Feature", "properties": {"start": "Le Cendre - Orcet", "stop_name": "Clermont la Pardieu", "type": "Gare accessible", "icone": "Icon1"}, "geometry": {"type": "Point", "coordinates": [3.134193, 45.766988]}}, {"type": "Feature", "properties": {"start": "Le Cendre - Orcet", "stop_name": "Clermont-Ferrand", "type": "Gare accessible", "icone": "Icon1"}, "geometry": {"type": "Point", "coordinates": [3.100543, 45.778945]}}, {"type": "Feature", "properties": {"start": "Le Cendre - Orcet", "stop_name": "Brioude", "type": "Gare accessible", "icone": "Icon1"}, "geometry": {"type": "Point", "coordinates": [3.37856, 45.300561]}}, {"type": "Feature", "properties": {"start": "Le Cendre - Orcet", "stop_name": "Arvant", "type": "Gare accessible", "icone": "Icon1"}, "geometry": {"type": "Point", "coordinates": [3.310554, 45.365459]}}, {"type": "Feature", "properties": {"start": "Le Cendre - Orcet", "stop_name": "Brassac-les-Mines - Sainte-Florine", "type": "Gare accessible", "icone": "Icon1"}, "geometry": {"type": "Point", "coordinates": [3.330167, 45.414246]}}, {"type": "Feature", "properties": {"start": "Le Cendre - Orcet", "stop_name": "Le Breuil-sur-Couze", "type": "Gare accessible", "icone": "Icon1"}, "geometry": {"type": "Point", "coordinates": [3.262221, 45.467099]}}, {"type": "Feature", "properties": {"start": "Le Cendre - Orcet", "stop_name": "Issoire", "type": "Gare accessible", "icone": "Icon1"}, "geometry": {"type": "Point", "coordinates": [3.25404, 45.543949]}}, {"type": "Feature", "properties": {"start": "Le Cendre - Orcet", "stop_name": "Parent - Coudes - Champeix", "type": "Gare accessible", "icone": "Icon1"}, "geometry": {"type": "Point", "coordinates": [3.216771, 45.614416]}}, {"type": "Feature", "properties": {"start": "Le Cendre - Orcet", "stop_name": "Neussargues", "type": "Gare accessible", "icone": "Icon1"}, "geometry": {"type": "Point", "coordinates": [2.979087, 45.125462]}}, {"type": "Feature", "properties": {"start": "Le Cendre - Orcet", "stop_name": "Massiac - Blesle", "type": "Gare accessible", "icone": "Icon1"}, "geometry": {"type": "Point", "coordinates": [3.196574, 45.253745]}}, {"type": "Feature", "properties": {"start": "Le Cendre - Orcet", "stop_name": "Riom - Ch\u00e2tel-Guyon", "type": "Gare accessible", "icone": "Icon1"}, "geometry": {"type": "Point", "coordinates": [3.120498, 45.889965]}}, {"type": "Feature", "properties": {"start": "Le Cendre - Orcet", "stop_name": "Vichy", "type": "Gare accessible", "icone": "Icon1"}, "geometry": {"type": "Point", "coordinates": [3.430476, 46.126991]}}, {"type": "Feature", "properties": {"start": "Le Cendre - Orcet", "stop_name": "Saint-Germain-des-Foss\u00e9s", "type": "Gare accessible", "icone": "Icon1"}, "geometry": {"type": "Point", "coordinates": [3.430574, 46.209239]}}, {"type": "Feature", "properties": {"start": "Le Cendre - Orcet", "stop_name": "Varennes-sur-Allier", "type": "Gare accessible", "icone": "Icon1"}, "geometry": {"type": "Point", "coordinates": [3.394239, 46.3155]}}, {"type": "Feature", "properties": {"start": "Le Cendre - Orcet", "stop_name": "Moulins sur Allier", "type": "Gare accessible", "icone": "Icon1"}, "geometry": {"type": "Point", "coordinates": [3.338782, 46.561394]}}, {"type": "Feature", "properties": {"start": "Le Cendre - Orcet", "stop_name": "Saint-Pierre-le-Mo\u00fbtier", "type": "Gare accessible", "icone": "Icon1"}, "geometry": {"type": "Point", "coordinates": [3.111738, 46.793278]}}, {"type": "Feature", "properties": {"start": "Le Cendre - Orcet", "stop_name": "Nevers", "type": "Gare accessible", "icone": "Icon1"}, "geometry": {"type": "Point", "coordinates": [3.150743, 46.987282]}}, {"type": "Feature", "properties": {"start": "Le Cendre - Orcet", "stop_name": "Bessay", "type": "Gare accessible", "icone": "Icon1"}, "geometry": {"type": "Point", "coordinates": [3.360642, 46.442973]}}, {"type": "Feature", "properties": {"start": "Le Cendre - Orcet", "stop_name": "Gerzat", "type": "Gare accessible", "icone": "Icon1"}, "geometry": {"type": "Point", "coordinates": [3.143236, 45.833488]}}, {"type": "Feature", "properties": {"start": "Le Cendre - Orcet", "stop_name": "Pontmort", "type": "Gare accessible", "icone": "Icon1"}, "geometry": {"type": "Point", "coordinates": [3.160014, 45.940101]}}, {"type": "Feature", "properties": {"start": "Le Cendre - Orcet", "stop_name": "Aubiat", "type": "Gare accessible", "icone": "Icon1"}, "geometry": {"type": "Point", "coordinates": [3.160514, 45.983827]}}, {"type": "Feature", "properties": {"start": "Le Cendre - Orcet", "stop_name": "Aigueperse", "type": "Gare accessible", "icone": "Icon1"}, "geometry": {"type": "Point", "coordinates": [3.197912, 46.014869]}}, {"type": "Feature", "properties": {"start": "Le Cendre - Orcet", "stop_name": "Gannat", "type": "Gare accessible", "icone": "Icon1"}, "geometry": {"type": "Point", "coordinates": [3.204773, 46.097592]}}]}