{"type": "FeatureCollection", "features": [{"type": "Feature", "properties": {"start": "Le Creusot", "stop_name": "Le Creusot", "type": "Gare s\u00e9lectionn\u00e9e", "iconstarte": "Icon2"}, "geometry": {"type": "Point", "coordinates": [4.430433, 46.807842]}}, {"type": "Feature", "properties": {"start": "Le Creusot", "stop_name": "Montchanin", "type": "Gare accessible", "icone": "Icon1"}, "geometry": {"type": "Point", "coordinates": [4.48147, 46.759211]}}, {"type": "Feature", "properties": {"start": "Le Creusot", "stop_name": "\u00c9tang-sur-Arroux", "type": "Gare accessible", "icone": "Icon1"}, "geometry": {"type": "Point", "coordinates": [4.183844, 46.867917]}}, {"type": "Feature", "properties": {"start": "Le Creusot", "stop_name": "Luzy", "type": "Gare accessible", "icone": "Icon1"}, "geometry": {"type": "Point", "coordinates": [3.9704, 46.7905]}}, {"type": "Feature", "properties": {"start": "Le Creusot", "stop_name": "Cercy-la-Tour", "type": "Gare accessible", "icone": "Icon1"}, "geometry": {"type": "Point", "coordinates": [3.645085, 46.85793]}}, {"type": "Feature", "properties": {"start": "Le Creusot", "stop_name": "Decize", "type": "Gare accessible", "icone": "Icon1"}, "geometry": {"type": "Point", "coordinates": [3.467289, 46.83736]}}, {"type": "Feature", "properties": {"start": "Le Creusot", "stop_name": "Imphy", "type": "Gare accessible", "icone": "Icon1"}, "geometry": {"type": "Point", "coordinates": [3.259737, 46.933402]}}, {"type": "Feature", "properties": {"start": "Le Creusot", "stop_name": "Nevers", "type": "Gare accessible", "icone": "Icon1"}, "geometry": {"type": "Point", "coordinates": [3.150743, 46.987282]}}, {"type": "Feature", "properties": {"start": "Le Creusot", "stop_name": "Dijon", "type": "Gare accessible", "icone": "Icon1"}, "geometry": {"type": "Point", "coordinates": [5.027256, 47.323411]}}, {"type": "Feature", "properties": {"start": "Le Creusot", "stop_name": "Beaune", "type": "Gare accessible", "icone": "Icon1"}, "geometry": {"type": "Point", "coordinates": [4.848423, 47.023014]}}, {"type": "Feature", "properties": {"start": "Le Creusot", "stop_name": "Gevrey-Chambertin", "type": "Gare accessible", "icone": "Icon1"}, "geometry": {"type": "Point", "coordinates": [4.998905, 47.227601]}}, {"type": "Feature", "properties": {"start": "Le Creusot", "stop_name": "Vougeot - Gilly-l\u00e8s-C\u00eeteaux", "type": "Gare accessible", "icone": "Icon1"}, "geometry": {"type": "Point", "coordinates": [4.971514, 47.175695]}}, {"type": "Feature", "properties": {"start": "Le Creusot", "stop_name": "Nuits-Saint-Georges", "type": "Gare accessible", "icone": "Icon1"}, "geometry": {"type": "Point", "coordinates": [4.956277, 47.130662]}}, {"type": "Feature", "properties": {"start": "Le Creusot", "stop_name": "Corgoloin", "type": "Gare accessible", "icone": "Icon1"}, "geometry": {"type": "Point", "coordinates": [4.916854, 47.084209]}}, {"type": "Feature", "properties": {"start": "Le Creusot", "stop_name": "Meursault", "type": "Gare accessible", "icone": "Icon1"}, "geometry": {"type": "Point", "coordinates": [4.795452, 46.969165]}}, {"type": "Feature", "properties": {"start": "Le Creusot", "stop_name": "Chagny", "type": "Gare accessible", "icone": "Icon1"}, "geometry": {"type": "Point", "coordinates": [4.749613, 46.907424]}}, {"type": "Feature", "properties": {"start": "Le Creusot", "stop_name": "Marmagne sous Creusot", "type": "Gare accessible", "icone": "Icon1"}, "geometry": {"type": "Point", "coordinates": [4.360199, 46.833457]}}, {"type": "Feature", "properties": {"start": "Le Creusot", "stop_name": "Saint-Symphorien-de-Marmagne", "type": "Gare accessible", "icone": "Icon1"}, "geometry": {"type": "Point", "coordinates": [4.337749, 46.844236]}}, {"type": "Feature", "properties": {"start": "Le Creusot", "stop_name": "Broye", "type": "Gare accessible", "icone": "Icon1"}, "geometry": {"type": "Point", "coordinates": [4.296098, 46.862105]}}, {"type": "Feature", "properties": {"start": "Le Creusot", "stop_name": "Mesvres", "type": "Gare accessible", "icone": "Icon1"}, "geometry": {"type": "Point", "coordinates": [4.244961, 46.862869]}}]}