{"type": "FeatureCollection", "features": [{"type": "Feature", "properties": {"start": "Les Aubrais", "stop_name": "Les Aubrais", "type": "Gare s\u00e9lectionn\u00e9e", "iconstarte": "Icon2"}, "geometry": {"type": "Point", "coordinates": [1.906629, 47.926801]}}, {"type": "Feature", "properties": {"start": "Les Aubrais", "stop_name": "Orl\u00e9ans", "type": "Gare accessible", "icone": "TER"}, "geometry": {"type": "Point", "coordinates": [1.904242, 47.907891]}}, {"type": "Feature", "properties": {"start": "Les Aubrais", "stop_name": "Paris Austerlitz", "type": "Gare accessible", "icone": "TER"}, "geometry": {"type": "Point", "coordinates": [2.364891, 48.842285]}}, {"type": "Feature", "properties": {"start": "Les Aubrais", "stop_name": "Blois - Chambord", "type": "Gare accessible", "icone": "TER"}, "geometry": {"type": "Point", "coordinates": [1.323759, 47.585449]}}, {"type": "Feature", "properties": {"start": "Les Aubrais", "stop_name": "Onzain - Chaumont-sur-Loire", "type": "Gare accessible", "icone": "TER"}, "geometry": {"type": "Point", "coordinates": [1.18595, 47.492]}}, {"type": "Feature", "properties": {"start": "Les Aubrais", "stop_name": "Amboise", "type": "Gare accessible", "icone": "TER"}, "geometry": {"type": "Point", "coordinates": [0.981267, 47.421469]}}, {"type": "Feature", "properties": {"start": "Les Aubrais", "stop_name": "Saint-Pierre-des-Corps", "type": "Gare accessible", "icone": "TER"}, "geometry": {"type": "Point", "coordinates": [0.723539, 47.38614]}}, {"type": "Feature", "properties": {"start": "Les Aubrais", "stop_name": "Tours", "type": "Gare accessible", "icone": "TER"}, "geometry": {"type": "Point", "coordinates": [0.692831, 47.389866]}}, {"type": "Feature", "properties": {"start": "Les Aubrais", "stop_name": "Meung-sur-Loire", "type": "Gare accessible", "icone": "TER"}, "geometry": {"type": "Point", "coordinates": [1.691921, 47.829954]}}, {"type": "Feature", "properties": {"start": "Les Aubrais", "stop_name": "Beaugency", "type": "Gare accessible", "icone": "TER"}, "geometry": {"type": "Point", "coordinates": [1.625944, 47.778404]}}, {"type": "Feature", "properties": {"start": "Les Aubrais", "stop_name": "Mer", "type": "Gare accessible", "icone": "TER"}, "geometry": {"type": "Point", "coordinates": [1.506363, 47.705894]}}, {"type": "Feature", "properties": {"start": "Les Aubrais", "stop_name": "Salbris", "type": "Gare accessible", "icone": "TER"}, "geometry": {"type": "Point", "coordinates": [2.047751, 47.425186]}}, {"type": "Feature", "properties": {"start": "Les Aubrais", "stop_name": "Vierzon", "type": "Gare accessible", "icone": "TER"}, "geometry": {"type": "Point", "coordinates": [2.059869, 47.226474]}}, {"type": "Feature", "properties": {"start": "Les Aubrais", "stop_name": "Bourges", "type": "Gare accessible", "icone": "TER"}, "geometry": {"type": "Point", "coordinates": [2.394236, 47.094129]}}, {"type": "Feature", "properties": {"start": "Les Aubrais", "stop_name": "Toury", "type": "Gare accessible", "icone": "TER"}, "geometry": {"type": "Point", "coordinates": [1.939565, 48.193606]}}, {"type": "Feature", "properties": {"start": "Les Aubrais", "stop_name": "Artenay", "type": "Gare accessible", "icone": "TER"}, "geometry": {"type": "Point", "coordinates": [1.883226, 48.081057]}}, {"type": "Feature", "properties": {"start": "Les Aubrais", "stop_name": "Cercottes", "type": "Gare accessible", "icone": "TER"}, "geometry": {"type": "Point", "coordinates": [1.884981, 47.986155]}}, {"type": "Feature", "properties": {"start": "Les Aubrais", "stop_name": "Chevilly", "type": "Gare accessible", "icone": "TER"}, "geometry": {"type": "Point", "coordinates": [1.879113, 48.026672]}}, {"type": "Feature", "properties": {"start": "Les Aubrais", "stop_name": "Ch\u00e2teau-Gaillard", "type": "Gare accessible", "icone": "TER"}, "geometry": {"type": "Point", "coordinates": [1.912815, 48.14169]}}, {"type": "Feature", "properties": {"start": "Les Aubrais", "stop_name": "Angerville", "type": "Gare accessible", "icone": "TER"}, "geometry": {"type": "Point", "coordinates": [2.003526, 48.311632]}}, {"type": "Feature", "properties": {"start": "Les Aubrais", "stop_name": "Nantes", "type": "Gare accessible", "icone": "TER"}, "geometry": {"type": "Point", "coordinates": [-1.542077, 47.217491]}}, {"type": "Feature", "properties": {"start": "Les Aubrais", "stop_name": "Ancenis", "type": "Gare accessible", "icone": "TER"}, "geometry": {"type": "Point", "coordinates": [-1.177763, 47.369334]}}, {"type": "Feature", "properties": {"start": "Les Aubrais", "stop_name": "Angers Saint-Laud", "type": "Gare accessible", "icone": "TER"}, "geometry": {"type": "Point", "coordinates": [-0.55677, 47.464649]}}, {"type": "Feature", "properties": {"start": "Les Aubrais", "stop_name": "Saumur", "type": "Gare accessible", "icone": "TER"}, "geometry": {"type": "Point", "coordinates": [-0.071403, 47.268994]}}, {"type": "Feature", "properties": {"start": "Les Aubrais", "stop_name": "Le Croisic", "type": "Gare accessible", "icone": "TER"}, "geometry": {"type": "Point", "coordinates": [-2.50734, 47.289889]}}, {"type": "Feature", "properties": {"start": "Les Aubrais", "stop_name": "Batz-sur-Mer", "type": "Gare accessible", "icone": "TER"}, "geometry": {"type": "Point", "coordinates": [-2.478869, 47.280855]}}, {"type": "Feature", "properties": {"start": "Les Aubrais", "stop_name": "Le Pouliguen", "type": "Gare accessible", "icone": "TER"}, "geometry": {"type": "Point", "coordinates": [-2.433126, 47.282504]}}, {"type": "Feature", "properties": {"start": "Les Aubrais", "stop_name": "La Baule-Escoublac", "type": "Gare accessible", "icone": "TER"}, "geometry": {"type": "Point", "coordinates": [-2.38921, 47.288459]}}, {"type": "Feature", "properties": {"start": "Les Aubrais", "stop_name": "La Baule les Pins", "type": "Gare accessible", "icone": "TER"}, "geometry": {"type": "Point", "coordinates": [-2.364885, 47.28345]}}, {"type": "Feature", "properties": {"start": "Les Aubrais", "stop_name": "Pornichet", "type": "Gare accessible", "icone": "TER"}, "geometry": {"type": "Point", "coordinates": [-2.344865, 47.27043]}}, {"type": "Feature", "properties": {"start": "Les Aubrais", "stop_name": "Saint-Nazaire", "type": "Gare accessible", "icone": "TER"}, "geometry": {"type": "Point", "coordinates": [-2.211079, 47.286489]}}, {"type": "Feature", "properties": {"start": "Les Aubrais", "stop_name": "Savenay", "type": "Gare accessible", "icone": "TER"}, "geometry": {"type": "Point", "coordinates": [-1.951007, 47.358602]}}, {"type": "Feature", "properties": {"start": "Les Aubrais", "stop_name": "Baule", "type": "Gare accessible", "icone": "TER"}, "geometry": {"type": "Point", "coordinates": [1.668274, 47.811886]}}, {"type": "Feature", "properties": {"start": "Les Aubrais", "stop_name": "Saint-Ay", "type": "Gare accessible", "icone": "TER"}, "geometry": {"type": "Point", "coordinates": [1.750163, 47.863162]}}, {"type": "Feature", "properties": {"start": "Les Aubrais", "stop_name": "Chaingy Fourneaux Plage", "type": "Gare accessible", "icone": "TER"}, "geometry": {"type": "Point", "coordinates": [1.782365, 47.877178]}}, {"type": "Feature", "properties": {"start": "Les Aubrais", "stop_name": "La Chapelle-Saint-Mesmin", "type": "Gare accessible", "icone": "TER"}, "geometry": {"type": "Point", "coordinates": [1.826981, 47.892935]}}, {"type": "Feature", "properties": {"start": "Les Aubrais", "stop_name": "\u00c9tampes", "type": "Gare accessible", "icone": "TER"}, "geometry": {"type": "Point", "coordinates": [2.159487, 48.436625]}}, {"type": "Feature", "properties": {"start": "Les Aubrais", "stop_name": "Guillerval", "type": "Gare accessible", "icone": "TER"}, "geometry": {"type": "Point", "coordinates": [2.059875, 48.374745]}}, {"type": "Feature", "properties": {"start": "Les Aubrais", "stop_name": "Monnerville", "type": "Gare accessible", "icone": "TER"}, "geometry": {"type": "Point", "coordinates": [2.032059, 48.348492]}}, {"type": "Feature", "properties": {"start": "Les Aubrais", "stop_name": "Boisseaux", "type": "Gare accessible", "icone": "TER"}, "geometry": {"type": "Point", "coordinates": [1.973296, 48.256418]}}, {"type": "Feature", "properties": {"start": "Les Aubrais", "stop_name": "Nevers", "type": "Gare accessible", "icone": "TER"}, "geometry": {"type": "Point", "coordinates": [3.150743, 46.987282]}}, {"type": "Feature", "properties": {"start": "Les Aubrais", "stop_name": "La Guerche-sur-l'Aubois", "type": "Gare accessible", "icone": "TER"}, "geometry": {"type": "Point", "coordinates": [2.948536, 46.947816]}}, {"type": "Feature", "properties": {"start": "Les Aubrais", "stop_name": "N\u00e9rondes", "type": "Gare accessible", "icone": "TER"}, "geometry": {"type": "Point", "coordinates": [2.82217, 46.99969]}}, {"type": "Feature", "properties": {"start": "Les Aubrais", "stop_name": "Bengy", "type": "Gare accessible", "icone": "TER"}, "geometry": {"type": "Point", "coordinates": [2.749149, 47.000438]}}, {"type": "Feature", "properties": {"start": "Les Aubrais", "stop_name": "Avord", "type": "Gare accessible", "icone": "TER"}, "geometry": {"type": "Point", "coordinates": [2.652335, 47.034874]}}, {"type": "Feature", "properties": {"start": "Les Aubrais", "stop_name": "Saint-Germain-du-Puy", "type": "Gare accessible", "icone": "TER"}, "geometry": {"type": "Point", "coordinates": [2.484833, 47.096554]}}, {"type": "Feature", "properties": {"start": "Les Aubrais", "stop_name": "Mehun-sur-Y\u00e8vre", "type": "Gare accessible", "icone": "TER"}, "geometry": {"type": "Point", "coordinates": [2.207134, 47.139441]}}, {"type": "Feature", "properties": {"start": "Les Aubrais", "stop_name": "Lamotte-Beuvron", "type": "Gare accessible", "icone": "TER"}, "geometry": {"type": "Point", "coordinates": [2.022077, 47.59411]}}, {"type": "Feature", "properties": {"start": "Les Aubrais", "stop_name": "La Fert\u00e9-Saint-Aubin", "type": "Gare accessible", "icone": "TER"}, "geometry": {"type": "Point", "coordinates": [1.932344, 47.721008]}}, {"type": "Feature", "properties": {"start": "Les Aubrais", "stop_name": "Saint-Cyr-en-Val", "type": "Gare accessible", "icone": "TER"}, "geometry": {"type": "Point", "coordinates": [1.947581, 47.819215]}}, {"type": "Feature", "properties": {"start": "Les Aubrais", "stop_name": "Argenton-sur-Creuse", "type": "Gare accessible", "icone": "TER"}, "geometry": {"type": "Point", "coordinates": [1.518256, 46.59225]}}, {"type": "Feature", "properties": {"start": "Les Aubrais", "stop_name": "Ch\u00e2teauroux", "type": "Gare accessible", "icone": "TER"}, "geometry": {"type": "Point", "coordinates": [1.699483, 46.809812]}}, {"type": "Feature", "properties": {"start": "Les Aubrais", "stop_name": "Neuvy-Pailloux", "type": "Gare accessible", "icone": "TER"}, "geometry": {"type": "Point", "coordinates": [1.862757, 46.882716]}}, {"type": "Feature", "properties": {"start": "Les Aubrais", "stop_name": "Issoudun", "type": "Gare accessible", "icone": "TER"}, "geometry": {"type": "Point", "coordinates": [1.985741, 46.948696]}}, {"type": "Feature", "properties": {"start": "Les Aubrais", "stop_name": "Sainte-Lizaigne", "type": "Gare accessible", "icone": "TER"}, "geometry": {"type": "Point", "coordinates": [2.0298, 47.002251]}}, {"type": "Feature", "properties": {"start": "Les Aubrais", "stop_name": "Reuilly", "type": "Gare accessible", "icone": "TER"}, "geometry": {"type": "Point", "coordinates": [2.04725, 47.086035]}}, {"type": "Feature", "properties": {"start": "Les Aubrais", "stop_name": "Theillay", "type": "Gare accessible", "icone": "TER"}, "geometry": {"type": "Point", "coordinates": [2.044474, 47.314519]}}, {"type": "Feature", "properties": {"start": "Les Aubrais", "stop_name": "Nouan-le-Fuzelier", "type": "Gare accessible", "icone": "TER"}, "geometry": {"type": "Point", "coordinates": [2.033227, 47.534054]}}]}