{"type": "FeatureCollection", "features": [{"type": "Feature", "properties": {"start": "Les Tuileries", "stop_name": "Les Tuileries", "type": "Gare s\u00e9lectionn\u00e9e", "iconstarte": "Icon2"}, "geometry": {"type": "Point", "coordinates": [6.147342, 46.249945]}}, {"type": "Feature", "properties": {"start": "Les Tuileries", "stop_name": "Annemasse", "type": "Gare accessible", "icone": "Icon1"}, "geometry": {"type": "Point", "coordinates": [6.236431, 46.199245]}}, {"type": "Feature", "properties": {"start": "Les Tuileries", "stop_name": "Ch\u00eane-Bourg", "type": "Gare accessible", "icone": "Icon1"}, "geometry": {"type": "Point", "coordinates": [6.197253, 46.196607]}}, {"type": "Feature", "properties": {"start": "Les Tuileries", "stop_name": "Gen\u00e8ve-Eaux-Vives", "type": "Gare accessible", "icone": "Icon1"}, "geometry": {"type": "Point", "coordinates": [6.16658, 46.201444]}}, {"type": "Feature", "properties": {"start": "Les Tuileries", "stop_name": "Gen\u00e8ve-Champel", "type": "Gare accessible", "icone": "Icon1"}, "geometry": {"type": "Point", "coordinates": [6.153505, 46.192191]}}, {"type": "Feature", "properties": {"start": "Les Tuileries", "stop_name": "Lancy-Bachet", "type": "Gare accessible", "icone": "Icon1"}, "geometry": {"type": "Point", "coordinates": [6.129372, 46.174333]}}, {"type": "Feature", "properties": {"start": "Les Tuileries", "stop_name": "Lancy-Pont-Rouge", "type": "Gare accessible", "icone": "Icon1"}, "geometry": {"type": "Point", "coordinates": [6.125333, 46.188897]}}, {"type": "Feature", "properties": {"start": "Les Tuileries", "stop_name": "Geneve", "type": "Gare accessible", "icone": "Icon1"}, "geometry": {"type": "Point", "coordinates": [6.14244, 46.21022]}}, {"type": "Feature", "properties": {"start": "Les Tuileries", "stop_name": "Gen\u00e8ve-S\u00e9cheron", "type": "Gare accessible", "icone": "Icon1"}, "geometry": {"type": "Point", "coordinates": [6.144557, 46.222438]}}, {"type": "Feature", "properties": {"start": "Les Tuileries", "stop_name": "Chamb\u00e9sy", "type": "Gare accessible", "icone": "Icon1"}, "geometry": {"type": "Point", "coordinates": [6.147342, 46.242378]}}, {"type": "Feature", "properties": {"start": "Les Tuileries", "stop_name": "Genthod-Bellevue", "type": "Gare accessible", "icone": "Icon1"}, "geometry": {"type": "Point", "coordinates": [6.153962, 46.256728]}}, {"type": "Feature", "properties": {"start": "Les Tuileries", "stop_name": "Creux-de-Genthod", "type": "Gare accessible", "icone": "Icon1"}, "geometry": {"type": "Point", "coordinates": [6.161319, 46.263758]}}, {"type": "Feature", "properties": {"start": "Les Tuileries", "stop_name": "Versoix", "type": "Gare accessible", "icone": "Icon1"}, "geometry": {"type": "Point", "coordinates": [6.165748, 46.279717]}}, {"type": "Feature", "properties": {"start": "Les Tuileries", "stop_name": "Pont-C\u00e9ard", "type": "Gare accessible", "icone": "Icon1"}, "geometry": {"type": "Point", "coordinates": [6.162667, 46.28739]}}, {"type": "Feature", "properties": {"start": "Les Tuileries", "stop_name": "Mies", "type": "Gare accessible", "icone": "Icon1"}, "geometry": {"type": "Point", "coordinates": [6.169566, 46.299879]}}, {"type": "Feature", "properties": {"start": "Les Tuileries", "stop_name": "Tannay", "type": "Gare accessible", "icone": "Icon1"}, "geometry": {"type": "Point", "coordinates": [6.181127, 46.307636]}}, {"type": "Feature", "properties": {"start": "Les Tuileries", "stop_name": "Coppet", "type": "Gare accessible", "icone": "Icon1"}, "geometry": {"type": "Point", "coordinates": [6.187829, 46.317378]}}, {"type": "Feature", "properties": {"start": "Les Tuileries", "stop_name": "Machilly", "type": "Gare accessible", "icone": "Icon1"}, "geometry": {"type": "Point", "coordinates": [6.328197, 46.251292]}}, {"type": "Feature", "properties": {"start": "Les Tuileries", "stop_name": "Bons-en-Chablais", "type": "Gare accessible", "icone": "Icon1"}, "geometry": {"type": "Point", "coordinates": [6.36647, 46.27011]}}, {"type": "Feature", "properties": {"start": "Les Tuileries", "stop_name": "Perrignier", "type": "Gare accessible", "icone": "Icon1"}, "geometry": {"type": "Point", "coordinates": [6.424888, 46.303341]}}, {"type": "Feature", "properties": {"start": "Les Tuileries", "stop_name": "Thonon-les-Bains", "type": "Gare accessible", "icone": "Icon1"}, "geometry": {"type": "Point", "coordinates": [6.481673, 46.368989]}}, {"type": "Feature", "properties": {"start": "Les Tuileries", "stop_name": "\u00c9vian-les-Bains", "type": "Gare accessible", "icone": "Icon1"}, "geometry": {"type": "Point", "coordinates": [6.577469, 46.397916]}}, {"type": "Feature", "properties": {"start": "Les Tuileries", "stop_name": "Reignier", "type": "Gare accessible", "icone": "Icon1"}, "geometry": {"type": "Point", "coordinates": [6.267539, 46.125636]}}, {"type": "Feature", "properties": {"start": "Les Tuileries", "stop_name": "La Roche-sur-Foron", "type": "Gare accessible", "icone": "Icon1"}, "geometry": {"type": "Point", "coordinates": [6.30384, 46.067542]}}, {"type": "Feature", "properties": {"start": "Les Tuileries", "stop_name": "Groisy - Thorens - La Caille", "type": "Gare accessible", "icone": "Icon1"}, "geometry": {"type": "Point", "coordinates": [6.175733, 46.01116]}}, {"type": "Feature", "properties": {"start": "Les Tuileries", "stop_name": "Pringy", "type": "Gare accessible", "icone": "Icon1"}, "geometry": {"type": "Point", "coordinates": [6.123338, 45.939517]}}, {"type": "Feature", "properties": {"start": "Les Tuileries", "stop_name": "Annecy", "type": "Gare accessible", "icone": "Icon1"}, "geometry": {"type": "Point", "coordinates": [6.121826, 45.902047]}}, {"type": "Feature", "properties": {"start": "Les Tuileries", "stop_name": "Saint-Pierre-en-Faucigny", "type": "Gare accessible", "icone": "Icon1"}, "geometry": {"type": "Point", "coordinates": [6.375782, 46.059357]}}, {"type": "Feature", "properties": {"start": "Les Tuileries", "stop_name": "Bonneville", "type": "Gare accessible", "icone": "Icon1"}, "geometry": {"type": "Point", "coordinates": [6.416493, 46.077752]}}, {"type": "Feature", "properties": {"start": "Les Tuileries", "stop_name": "Marignier", "type": "Gare accessible", "icone": "Icon1"}, "geometry": {"type": "Point", "coordinates": [6.507849, 46.088786]}}, {"type": "Feature", "properties": {"start": "Les Tuileries", "stop_name": "Cluses", "type": "Gare accessible", "icone": "Icon1"}, "geometry": {"type": "Point", "coordinates": [6.582771, 46.061468]}}, {"type": "Feature", "properties": {"start": "Les Tuileries", "stop_name": "Magland", "type": "Gare accessible", "icone": "Icon1"}, "geometry": {"type": "Point", "coordinates": [6.621524, 46.016951]}}, {"type": "Feature", "properties": {"start": "Les Tuileries", "stop_name": "Sallanches - Combloux - Meg\u00e8ve", "type": "Gare accessible", "icone": "Icon1"}, "geometry": {"type": "Point", "coordinates": [6.636458, 45.935699]}}, {"type": "Feature", "properties": {"start": "Les Tuileries", "stop_name": "Saint-Gervais-les-Bains-Le Fayet", "type": "Gare accessible", "icone": "Icon1"}, "geometry": {"type": "Point", "coordinates": [6.701331, 45.906423]}}]}