{"type": "FeatureCollection", "features": [{"type": "Feature", "properties": {"start": "Limoux", "stop_name": "Limoux", "type": "Gare s\u00e9lectionn\u00e9e", "iconstarte": "Icon2"}, "geometry": {"type": "Point", "coordinates": [2.222783, 43.056393]}}, {"type": "Feature", "properties": {"start": "Limoux", "stop_name": "Alet-les-Bains", "type": "Gare accessible", "icone": "Icon1"}, "geometry": {"type": "Point", "coordinates": [2.252189, 42.997403]}}, {"type": "Feature", "properties": {"start": "Limoux", "stop_name": "Couiza Saint-Anne", "type": "Gare accessible", "icone": "Icon1"}, "geometry": {"type": "Point", "coordinates": [2.253746, 42.941324]}}, {"type": "Feature", "properties": {"start": "Limoux", "stop_name": "Couiza - Montazels", "type": "Gare accessible", "icone": "Icon1"}, "geometry": {"type": "Point", "coordinates": [2.248537, 42.942375]}}, {"type": "Feature", "properties": {"start": "Limoux", "stop_name": "Esp\u00e9raza", "type": "Gare accessible", "icone": "Icon1"}, "geometry": {"type": "Point", "coordinates": [2.218403, 42.935933]}}, {"type": "Feature", "properties": {"start": "Limoux", "stop_name": "Campagne-sur-Aude Le Vieux Pont", "type": "Gare accessible", "icone": "Icon1"}, "geometry": {"type": "Point", "coordinates": [2.20542, 42.916866]}}, {"type": "Feature", "properties": {"start": "Limoux", "stop_name": "Quillan", "type": "Gare accessible", "icone": "Icon1"}, "geometry": {"type": "Point", "coordinates": [2.181787, 42.873947]}}, {"type": "Feature", "properties": {"start": "Limoux", "stop_name": "Limoux - Flassian", "type": "Gare accessible", "icone": "Icon1"}, "geometry": {"type": "Point", "coordinates": [2.218283, 43.068451]}}, {"type": "Feature", "properties": {"start": "Limoux", "stop_name": "Pomas", "type": "Gare accessible", "icone": "Icon1"}, "geometry": {"type": "Point", "coordinates": [2.28842, 43.112196]}}, {"type": "Feature", "properties": {"start": "Limoux", "stop_name": "Verzeille", "type": "Gare accessible", "icone": "Icon1"}, "geometry": {"type": "Point", "coordinates": [2.32155, 43.130422]}}, {"type": "Feature", "properties": {"start": "Limoux", "stop_name": "Couffoulens - Leuc", "type": "Gare accessible", "icone": "Icon1"}, "geometry": {"type": "Point", "coordinates": [2.316421, 43.155635]}}, {"type": "Feature", "properties": {"start": "Limoux", "stop_name": "Carcassonne", "type": "Gare accessible", "icone": "Icon1"}, "geometry": {"type": "Point", "coordinates": [2.351824, 43.218029]}}]}