{"type": "FeatureCollection", "features": [{"type": "Feature", "properties": {"stop_name": "Lisle-sur-Tarn", "type": "Gare s\u00e9lectionn\u00e9e", "icone": "Icon2"}, "geometry": {"type": "Point", "coordinates": [1.80823, 43.856390000000005]}}, {"type": "Feature", "properties": {"stop_name": "Tessonni\u00e8res", "type": "Gare accessible", "icone": "Icon1"}, "geometry": {"type": "Point", "coordinates": [1.936953, 43.928421]}}, {"type": "Feature", "properties": {"stop_name": "Gaillac", "type": "Gare accessible", "icone": "Icon1"}, "geometry": {"type": "Point", "coordinates": [1.89483, 43.905984000000004]}}, {"type": "Feature", "properties": {"stop_name": "Rabastens - Coufouleux", "type": "Gare accessible", "icone": "Icon1"}, "geometry": {"type": "Point", "coordinates": [1.730455, 43.819654]}}, {"type": "Feature", "properties": {"stop_name": "Saint-Sulpice", "type": "Gare accessible", "icone": "Icon1"}, "geometry": {"type": "Point", "coordinates": [1.680702, 43.775073]}}, {"type": "Feature", "properties": {"stop_name": "Montastruc-la-Conseill\u00e8re", "type": "Gare accessible", "icone": "Icon1"}, "geometry": {"type": "Point", "coordinates": [1.598016, 43.715984000000006]}}, {"type": "Feature", "properties": {"stop_name": "Toulouse Matabiau", "type": "Gare accessible", "icone": "Icon1"}, "geometry": {"type": "Point", "coordinates": [1.453616, 43.611206]}}, {"type": "Feature", "properties": {"stop_name": "Carmaux", "type": "Gare accessible", "icone": "Icon1"}, "geometry": {"type": "Point", "coordinates": [2.152401, 44.048782]}}, {"type": "Feature", "properties": {"stop_name": "Albi Madeleine", "type": "Gare accessible", "icone": "Icon1"}, "geometry": {"type": "Point", "coordinates": [2.141209, 43.938137]}}, {"type": "Feature", "properties": {"stop_name": "Albi Ville", "type": "Gare accessible", "icone": "Icon1"}, "geometry": {"type": "Point", "coordinates": [2.137958, 43.92238]}}, {"type": "Feature", "properties": {"stop_name": "Marssac-sur-Tarn RN88", "type": "Gare accessible", "icone": "Icon1"}, "geometry": {"type": "Point", "coordinates": [2.028608, 43.918546]}}, {"type": "Feature", "properties": {"stop_name": "Gragnague", "type": "Gare accessible", "icone": "Icon1"}, "geometry": {"type": "Point", "coordinates": [1.567514, 43.695951]}}, {"type": "Feature", "properties": {"stop_name": "Toulouse Argoulets", "type": "Gare accessible", "icone": "Icon1"}, "geometry": {"type": "Point", "coordinates": [1.4772, 43.6248]}}, {"type": "Feature", "properties": {"stop_name": "Naucelle", "type": "Gare accessible", "icone": "Icon1"}, "geometry": {"type": "Point", "coordinates": [2.363259, 44.185439]}}, {"type": "Feature", "properties": {"stop_name": "Baraqueville", "type": "Gare accessible", "icone": "Icon1"}, "geometry": {"type": "Point", "coordinates": [2.4274, 44.270512]}}, {"type": "Feature", "properties": {"stop_name": "Luc-Primaube", "type": "Gare accessible", "icone": "Icon1"}, "geometry": {"type": "Point", "coordinates": [2.554776, 44.2915]}}, {"type": "Feature", "properties": {"stop_name": "Rodez", "type": "Gare accessible", "icone": "Icon1"}, "geometry": {"type": "Point", "coordinates": [2.58056, 44.362633]}}, {"type": "Feature", "properties": {"stop_name": "Cordes - Vindrac", "type": "Gare accessible", "icone": "Icon1"}, "geometry": {"type": "Point", "coordinates": [1.900229, 44.067189]}}, {"type": "Feature", "properties": {"stop_name": "Lexos", "type": "Gare accessible", "icone": "Icon1"}, "geometry": {"type": "Point", "coordinates": [1.885101, 44.142396000000005]}}, {"type": "Feature", "properties": {"stop_name": "Lagu\u00e9pie", "type": "Gare accessible", "icone": "Icon1"}, "geometry": {"type": "Point", "coordinates": [1.968591, 44.145485]}}, {"type": "Feature", "properties": {"stop_name": "La Fouillade", "type": "Gare accessible", "icone": "Icon1"}, "geometry": {"type": "Point", "coordinates": [2.041993, 44.231109000000004]}}, {"type": "Feature", "properties": {"stop_name": "Villefranche-de-Rouergue", "type": "Gare accessible", "icone": "Icon1"}, "geometry": {"type": "Point", "coordinates": [2.036459, 44.347498]}}, {"type": "Feature", "properties": {"stop_name": "Villeneuve-d'Aveyron", "type": "Gare accessible", "icone": "Icon1"}, "geometry": {"type": "Point", "coordinates": [2.029952, 44.436802]}}, {"type": "Feature", "properties": {"stop_name": "Capdenac", "type": "Gare accessible", "icone": "Icon1"}, "geometry": {"type": "Point", "coordinates": [2.077963, 44.578246]}}, {"type": "Feature", "properties": {"stop_name": "Tanus", "type": "Gare accessible", "icone": "Icon1"}, "geometry": {"type": "Point", "coordinates": [2.314921, 44.100443]}}, {"type": "Feature", "properties": {"stop_name": "Marssac-sur-tarn", "type": "Gare accessible", "icone": "Icon1"}, "geometry": {"type": "Point", "coordinates": [2.02678, 43.91523]}}, {"type": "Feature", "properties": {"stop_name": "Roques\u00e9ri\u00e8re - Buzet", "type": "Gare accessible", "icone": "Icon1"}, "geometry": {"type": "Point", "coordinates": [1.619875, 43.751247]}}, {"type": "Feature", "properties": {"stop_name": "Montrab\u00e9", "type": "Gare accessible", "icone": "Icon1"}, "geometry": {"type": "Point", "coordinates": [1.524006, 43.644907]}}, {"type": "Feature", "properties": {"stop_name": "Salles-Courbati\u00e8s", "type": "Gare accessible", "icone": "Icon1"}, "geometry": {"type": "Point", "coordinates": [2.07892, 44.475085]}}, {"type": "Feature", "properties": {"stop_name": "Najac", "type": "Gare accessible", "icone": "Icon1"}, "geometry": {"type": "Point", "coordinates": [1.976163, 44.221802000000004]}}, {"type": "Feature", "properties": {"stop_name": "Figeac", "type": "Gare accessible", "icone": "Icon1"}, "geometry": {"type": "Point", "coordinates": [2.037355, 44.603515]}}]}