{"type": "FeatureCollection", "features": [{"type": "Feature", "properties": {"start": "Longueville", "stop_name": "Longueville", "type": "Gare s\u00e9lectionn\u00e9e", "iconstarte": "Icon2"}, "geometry": {"type": "Point", "coordinates": [3.249822, 48.513703]}}, {"type": "Feature", "properties": {"start": "Longueville", "stop_name": "Troyes", "type": "Gare accessible", "icone": "Icon1"}, "geometry": {"type": "Point", "coordinates": [4.065281, 48.296069]}}, {"type": "Feature", "properties": {"start": "Longueville", "stop_name": "Romilly-sur-Seine", "type": "Gare accessible", "icone": "Icon1"}, "geometry": {"type": "Point", "coordinates": [3.728887, 48.514433]}}, {"type": "Feature", "properties": {"start": "Longueville", "stop_name": "Nogent-sur-Seine", "type": "Gare accessible", "icone": "Icon1"}, "geometry": {"type": "Point", "coordinates": [3.493773, 48.497855]}}, {"type": "Feature", "properties": {"start": "Longueville", "stop_name": "Paris Est", "type": "Gare accessible", "icone": "Icon1"}, "geometry": {"type": "Point", "coordinates": [2.358424, 48.876742]}}, {"type": "Feature", "properties": {"start": "Longueville", "stop_name": "Culmont - Chalindrey", "type": "Gare accessible", "icone": "Icon1"}, "geometry": {"type": "Point", "coordinates": [5.443219, 47.810202]}}, {"type": "Feature", "properties": {"start": "Longueville", "stop_name": "Langres", "type": "Gare accessible", "icone": "Icon1"}, "geometry": {"type": "Point", "coordinates": [5.344406, 47.876947]}}, {"type": "Feature", "properties": {"start": "Longueville", "stop_name": "Chaumont", "type": "Gare accessible", "icone": "Icon1"}, "geometry": {"type": "Point", "coordinates": [5.1346, 48.10976]}}, {"type": "Feature", "properties": {"start": "Longueville", "stop_name": "Bar-sur-Aube", "type": "Gare accessible", "icone": "Icon1"}, "geometry": {"type": "Point", "coordinates": [4.706872, 48.238559]}}, {"type": "Feature", "properties": {"start": "Longueville", "stop_name": "Vendeuvre", "type": "Gare accessible", "icone": "Icon1"}, "geometry": {"type": "Point", "coordinates": [4.467214, 48.240069]}}]}