{"type": "FeatureCollection", "features": [{"type": "Feature", "properties": {"start": "Longuerue - Vieux-Manoir", "stop_name": "Longuerue - Vieux-Manoir", "type": "Gare s\u00e9lectionn\u00e9e", "iconstarte": "Icon2"}, "geometry": {"type": "Point", "coordinates": [1.276228, 49.556678]}}, {"type": "Feature", "properties": {"start": "Longuerue - Vieux-Manoir", "stop_name": "Rouen Rive Droite", "type": "Gare accessible", "icone": "Icon1"}, "geometry": {"type": "Point", "coordinates": [1.094103, 49.448663]}}, {"type": "Feature", "properties": {"start": "Longuerue - Vieux-Manoir", "stop_name": "Morgny", "type": "Gare accessible", "icone": "Icon1"}, "geometry": {"type": "Point", "coordinates": [1.247359, 49.522874]}}, {"type": "Feature", "properties": {"start": "Longuerue - Vieux-Manoir", "stop_name": "Mont\u00e9rolier - Buchy", "type": "Gare accessible", "icone": "Icon1"}, "geometry": {"type": "Point", "coordinates": [1.334721, 49.603166]}}, {"type": "Feature", "properties": {"start": "Longuerue - Vieux-Manoir", "stop_name": "Sommery", "type": "Gare accessible", "icone": "Icon1"}, "geometry": {"type": "Point", "coordinates": [1.435304, 49.629664]}}, {"type": "Feature", "properties": {"start": "Longuerue - Vieux-Manoir", "stop_name": "Serqueux", "type": "Gare accessible", "icone": "Icon1"}, "geometry": {"type": "Point", "coordinates": [1.539403, 49.631551]}}, {"type": "Feature", "properties": {"start": "Longuerue - Vieux-Manoir", "stop_name": "Formerie", "type": "Gare accessible", "icone": "Icon1"}, "geometry": {"type": "Point", "coordinates": [1.723582, 49.654606]}}, {"type": "Feature", "properties": {"start": "Longuerue - Vieux-Manoir", "stop_name": "Abancourt", "type": "Gare accessible", "icone": "Icon1"}, "geometry": {"type": "Point", "coordinates": [1.774297, 49.685621]}}, {"type": "Feature", "properties": {"start": "Longuerue - Vieux-Manoir", "stop_name": "Poix-de-Picardie", "type": "Gare accessible", "icone": "Icon1"}, "geometry": {"type": "Point", "coordinates": [1.989899, 49.777788]}}, {"type": "Feature", "properties": {"start": "Longuerue - Vieux-Manoir", "stop_name": "Saint-Roch (Somme)", "type": "Gare accessible", "icone": "Icon1"}, "geometry": {"type": "Point", "coordinates": [2.28377, 49.893454]}}, {"type": "Feature", "properties": {"start": "Longuerue - Vieux-Manoir", "stop_name": "Amiens", "type": "Gare accessible", "icone": "Icon1"}, "geometry": {"type": "Point", "coordinates": [2.308277, 49.890584]}}]}