{"type": "FeatureCollection", "features": [{"type": "Feature", "properties": {"stop_name": "Lorient", "type": "Gare s\u00e9lectionn\u00e9e", "icone": "Icon2"}, "geometry": {"type": "Point", "coordinates": [-3.366221, 47.755596999999995]}}, {"type": "Feature", "properties": {"stop_name": "Quimperl\u00e9", "type": "Gare accessible", "icone": "Icon1"}, "geometry": {"type": "Point", "coordinates": [-3.552693, 47.869375]}}, {"type": "Feature", "properties": {"stop_name": "Bannalec", "type": "Gare accessible", "icone": "Icon1"}, "geometry": {"type": "Point", "coordinates": [-3.7064169999999996, 47.926867]}}, {"type": "Feature", "properties": {"stop_name": "Rosporden", "type": "Gare accessible", "icone": "Icon1"}, "geometry": {"type": "Point", "coordinates": [-3.832702, 47.960224]}}, {"type": "Feature", "properties": {"stop_name": "Quimper", "type": "Gare accessible", "icone": "Icon1"}, "geometry": {"type": "Point", "coordinates": [-4.092103, 47.994455]}}, {"type": "Feature", "properties": {"stop_name": "Hennebont", "type": "Gare accessible", "icone": "Icon1"}, "geometry": {"type": "Point", "coordinates": [-3.285796, 47.79913]}}, {"type": "Feature", "properties": {"stop_name": "Land\u00e9vant", "type": "Gare accessible", "icone": "Icon1"}, "geometry": {"type": "Point", "coordinates": [-3.125131, 47.759578000000005]}}, {"type": "Feature", "properties": {"stop_name": "Landaul - Mendon", "type": "Gare accessible", "icone": "Icon1"}, "geometry": {"type": "Point", "coordinates": [-3.086017, 47.735988]}}, {"type": "Feature", "properties": {"stop_name": "Auray", "type": "Gare accessible", "icone": "Icon1"}, "geometry": {"type": "Point", "coordinates": [-2.9993630000000002, 47.680085]}}, {"type": "Feature", "properties": {"stop_name": "Vannes", "type": "Gare accessible", "icone": "Icon1"}, "geometry": {"type": "Point", "coordinates": [-2.75245, 47.665169]}}, {"type": "Feature", "properties": {"stop_name": "Sainte-Anne", "type": "Gare accessible", "icone": "Icon1"}, "geometry": {"type": "Point", "coordinates": [-2.960609, 47.678545]}}, {"type": "Feature", "properties": {"stop_name": "Questembert", "type": "Gare accessible", "icone": "Icon1"}, "geometry": {"type": "Point", "coordinates": [-2.449621, 47.683021000000004]}}, {"type": "Feature", "properties": {"stop_name": "Redon", "type": "Gare accessible", "icone": "Icon1"}, "geometry": {"type": "Point", "coordinates": [-2.08777, 47.652004]}}, {"type": "Feature", "properties": {"stop_name": "Brand\u00e9rion", "type": "Gare accessible", "icone": "Icon1"}, "geometry": {"type": "Point", "coordinates": [-3.19404, 47.782318]}}, {"type": "Feature", "properties": {"stop_name": "Malansac", "type": "Gare accessible", "icone": "Icon1"}, "geometry": {"type": "Point", "coordinates": [-2.2958689999999997, 47.675559]}}, {"type": "Feature", "properties": {"stop_name": "Gestel", "type": "Gare accessible", "icone": "Icon1"}, "geometry": {"type": "Point", "coordinates": [-3.4431339999999997, 47.80299]}}, {"type": "Feature", "properties": {"stop_name": "Rennes", "type": "Gare accessible", "icone": "Icon1"}, "geometry": {"type": "Point", "coordinates": [-1.6727439999999998, 48.103517]}}, {"type": "Feature", "properties": {"stop_name": "S\u00e9v\u00e9rac", "type": "Gare accessible", "icone": "Icon1"}, "geometry": {"type": "Point", "coordinates": [-2.0727279999999997, 47.549808]}}, {"type": "Feature", "properties": {"stop_name": "Saint-Gildas-des-bois", "type": "Gare accessible", "icone": "Icon1"}, "geometry": {"type": "Point", "coordinates": [-2.04394, 47.516647999999996]}}, {"type": "Feature", "properties": {"stop_name": "Dreff\u00e9ac", "type": "Gare accessible", "icone": "Icon1"}, "geometry": {"type": "Point", "coordinates": [-2.0501549999999997, 47.48236]}}, {"type": "Feature", "properties": {"stop_name": "Pontch\u00e2teau", "type": "Gare accessible", "icone": "Icon1"}, "geometry": {"type": "Point", "coordinates": [-2.088526, 47.435334000000005]}}, {"type": "Feature", "properties": {"stop_name": "Savenay", "type": "Gare accessible", "icone": "Icon1"}, "geometry": {"type": "Point", "coordinates": [-1.951007, 47.358602000000005]}}, {"type": "Feature", "properties": {"stop_name": "Cordemais", "type": "Gare accessible", "icone": "Icon1"}, "geometry": {"type": "Point", "coordinates": [-1.8466369999999999, 47.302201000000004]}}, {"type": "Feature", "properties": {"stop_name": "Saint-\u00c9tienne-de-Montluc", "type": "Gare accessible", "icone": "Icon1"}, "geometry": {"type": "Point", "coordinates": [-1.785654, 47.274784999999994]}}, {"type": "Feature", "properties": {"stop_name": "Cou\u00ebron", "type": "Gare accessible", "icone": "Icon1"}, "geometry": {"type": "Point", "coordinates": [-1.7236049999999998, 47.221916]}}, {"type": "Feature", "properties": {"stop_name": "La Basse Indre - Saint-Herblain", "type": "Gare accessible", "icone": "Icon1"}, "geometry": {"type": "Point", "coordinates": [-1.6605310000000002, 47.204116]}}, {"type": "Feature", "properties": {"stop_name": "Chantenay", "type": "Gare accessible", "icone": "Icon1"}, "geometry": {"type": "Point", "coordinates": [-1.5943319999999999, 47.1972]}}, {"type": "Feature", "properties": {"stop_name": "Nantes", "type": "Gare accessible", "icone": "Icon1"}, "geometry": {"type": "Point", "coordinates": [-1.5420770000000001, 47.217490999999995]}}, {"type": "Feature", "properties": {"stop_name": "Brest", "type": "Gare accessible", "icone": "Icon1"}, "geometry": {"type": "Point", "coordinates": [-4.480306, 48.38762]}}]}