{"type": "FeatureCollection", "features": [{"type": "Feature", "properties": {"stop_name": "Luxembourg", "type": "Gare s\u00e9lectionn\u00e9e", "icone": "Icon2"}, "geometry": {"type": "Point", "coordinates": [6.134722, 49.599722]}}, {"type": "Feature", "properties": {"stop_name": "Thionville", "type": "Gare accessible", "icone": "Icon1"}, "geometry": {"type": "Point", "coordinates": [6.168582, 49.353965]}}, {"type": "Feature", "properties": {"stop_name": "Hettange-Grande", "type": "Gare accessible", "icone": "Icon1"}, "geometry": {"type": "Point", "coordinates": [6.156759, 49.407685]}}, {"type": "Feature", "properties": {"stop_name": "Bettembourg", "type": "Gare accessible", "icone": "Icon1"}, "geometry": {"type": "Point", "coordinates": [6.101111, 49.516110999999995]}}, {"type": "Feature", "properties": {"stop_name": "Longwy", "type": "Gare accessible", "icone": "Icon1"}, "geometry": {"type": "Point", "coordinates": [5.76956, 49.513003999999995]}}, {"type": "Feature", "properties": {"stop_name": "Rodange", "type": "Gare accessible", "icone": "Icon1"}, "geometry": {"type": "Point", "coordinates": [5.843642, 49.550911]}}, {"type": "Feature", "properties": {"stop_name": "Petange", "type": "Gare accessible", "icone": "Icon1"}, "geometry": {"type": "Point", "coordinates": [5.8786, 49.554190000000006]}}, {"type": "Feature", "properties": {"stop_name": "Bascharage secteur Sanem", "type": "Gare accessible", "icone": "Icon1"}, "geometry": {"type": "Point", "coordinates": [5.9249, 49.5585]}}, {"type": "Feature", "properties": {"stop_name": "Dippach secteur Reckange", "type": "Gare accessible", "icone": "Icon1"}, "geometry": {"type": "Point", "coordinates": [5.99512, 49.572520000000004]}}, {"type": "Feature", "properties": {"stop_name": "Luxembourg secteur Hollerich", "type": "Gare accessible", "icone": "Icon1"}, "geometry": {"type": "Point", "coordinates": [6.11878, 49.595859999999995]}}, {"type": "Feature", "properties": {"stop_name": "Nancy", "type": "Gare accessible", "icone": "Icon1"}, "geometry": {"type": "Point", "coordinates": [6.174579, 48.689857]}}, {"type": "Feature", "properties": {"stop_name": "Pont-\u00e0-Mousson", "type": "Gare accessible", "icone": "Icon1"}, "geometry": {"type": "Point", "coordinates": [6.051021, 48.900348]}}, {"type": "Feature", "properties": {"stop_name": "Pagny-sur-Moselle", "type": "Gare accessible", "icone": "Icon1"}, "geometry": {"type": "Point", "coordinates": [6.025035, 48.9852]}}, {"type": "Feature", "properties": {"stop_name": "Metz", "type": "Gare accessible", "icone": "Icon1"}, "geometry": {"type": "Point", "coordinates": [6.177052, 49.109466]}}, {"type": "Feature", "properties": {"stop_name": "Hagondange", "type": "Gare accessible", "icone": "Icon1"}, "geometry": {"type": "Point", "coordinates": [6.16448, 49.25356]}}, {"type": "Feature", "properties": {"stop_name": "Uckange", "type": "Gare accessible", "icone": "Icon1"}, "geometry": {"type": "Point", "coordinates": [6.1566, 49.303459000000004]}}, {"type": "Feature", "properties": {"stop_name": "Howald", "type": "Gare accessible", "icone": "Icon1"}, "geometry": {"type": "Point", "coordinates": [6.13232, 49.58032]}}, {"type": "Feature", "properties": {"stop_name": "Maizi\u00e8res-l\u00e8s-Metz", "type": "Gare accessible", "icone": "Icon1"}, "geometry": {"type": "Point", "coordinates": [6.158727, 49.215536]}}, {"type": "Feature", "properties": {"stop_name": "Woippy", "type": "Gare accessible", "icone": "Icon1"}, "geometry": {"type": "Point", "coordinates": [6.155621, 49.148796999999995]}}, {"type": "Feature", "properties": {"stop_name": "Metz Nord", "type": "Gare accessible", "icone": "Icon1"}, "geometry": {"type": "Point", "coordinates": [6.167538, 49.136865]}}]}