{"type": "FeatureCollection", "features": [{"type": "Feature", "properties": {"stop_name": "Manzat", "type": "Gare s\u00e9lectionn\u00e9e"}, "geometry": {"type": "Point", "coordinates": [2.942202, 45.962471]}}, {"type": "Feature", "properties": {"stop_name": "Saint-Gervais Chateauneuf LPA", "type": "Gare accessible"}, "geometry": {"type": "Point", "coordinates": [2.808423, 46.030506]}}, {"type": "Feature", "properties": {"stop_name": "Saint-Gervais - Ch\u00e2teau-Neuf", "type": "Gare accessible"}, "geometry": {"type": "Point", "coordinates": [2.808136, 46.030316]}}, {"type": "Feature", "properties": {"stop_name": "Ch\u00e2teauneuf-les-Bains Lamontgie", "type": "Gare accessible"}, "geometry": {"type": "Point", "coordinates": [2.896332, 46.025605999999996]}}, {"type": "Feature", "properties": {"stop_name": "Ch\u00e2tel-Guyon Office de Tourisme", "type": "Gare accessible"}, "geometry": {"type": "Point", "coordinates": [3.074753, 45.918419]}}, {"type": "Feature", "properties": {"stop_name": "Riom - Ch\u00e2tel-Guyon", "type": "Gare accessible"}, "geometry": {"type": "Point", "coordinates": [3.120498, 45.889965000000004]}}]}