{"type": "FeatureCollection", "features": [{"type": "Feature", "properties": {"start": "Miribel", "stop_name": "Miribel", "type": "Gare s\u00e9lectionn\u00e9e", "iconstarte": "Icon2"}, "geometry": {"type": "Point", "coordinates": [4.953922, 45.822091]}}, {"type": "Feature", "properties": {"start": "Miribel", "stop_name": "Amb\u00e9rieu-en-Bugey", "type": "Gare accessible", "icone": "Icon1"}, "geometry": {"type": "Point", "coordinates": [5.342402, 45.954014]}}, {"type": "Feature", "properties": {"start": "Miribel", "stop_name": "Meximieux - P\u00e9rouges", "type": "Gare accessible", "icone": "Icon1"}, "geometry": {"type": "Point", "coordinates": [5.193296, 45.901783]}}, {"type": "Feature", "properties": {"start": "Miribel", "stop_name": "La Valbonne", "type": "Gare accessible", "icone": "Icon1"}, "geometry": {"type": "Point", "coordinates": [5.124964, 45.849268]}}, {"type": "Feature", "properties": {"start": "Miribel", "stop_name": "Montluel", "type": "Gare accessible", "icone": "Icon1"}, "geometry": {"type": "Point", "coordinates": [5.05753, 45.847783]}}, {"type": "Feature", "properties": {"start": "Miribel", "stop_name": "Beynost", "type": "Gare accessible", "icone": "Icon1"}, "geometry": {"type": "Point", "coordinates": [5.006947, 45.833898]}}, {"type": "Feature", "properties": {"start": "Miribel", "stop_name": "Saint-Maurice-de-Beynost", "type": "Gare accessible", "icone": "Icon1"}, "geometry": {"type": "Point", "coordinates": [4.976986, 45.827421]}}, {"type": "Feature", "properties": {"start": "Miribel", "stop_name": "Cr\u00e9pieux la Pape", "type": "Gare accessible", "icone": "Icon1"}, "geometry": {"type": "Point", "coordinates": [4.892701, 45.803918]}}, {"type": "Feature", "properties": {"start": "Miribel", "stop_name": "Lyon Part Dieu", "type": "Gare accessible", "icone": "Icon1"}, "geometry": {"type": "Point", "coordinates": [4.859409, 45.760596]}}, {"type": "Feature", "properties": {"start": "Miribel", "stop_name": "Givors Ville", "type": "Gare accessible", "icone": "Icon1"}, "geometry": {"type": "Point", "coordinates": [4.766086, 45.584948]}}, {"type": "Feature", "properties": {"start": "Miribel", "stop_name": "Rive-de-Gier", "type": "Gare accessible", "icone": "Icon1"}, "geometry": {"type": "Point", "coordinates": [4.606648, 45.524324]}}, {"type": "Feature", "properties": {"start": "Miribel", "stop_name": "Saint-Chamond", "type": "Gare accessible", "icone": "Icon1"}, "geometry": {"type": "Point", "coordinates": [4.516971, 45.472557]}}, {"type": "Feature", "properties": {"start": "Miribel", "stop_name": "Saint-\u00c9tienne Ch\u00e2teaucreux", "type": "Gare accessible", "icone": "Icon1"}, "geometry": {"type": "Point", "coordinates": [4.399722, 45.443366]}}]}