{"type": "FeatureCollection", "features": [{"type": "Feature", "properties": {"start": "Montargis", "stop_name": "Montargis", "type": "Gare s\u00e9lectionn\u00e9e", "iconstarte": "Icon2"}, "geometry": {"type": "Point", "coordinates": [2.742783, 48.006862]}}, {"type": "Feature", "properties": {"start": "Montargis", "stop_name": "Nevers", "type": "Gare accessible", "icone": "Icon1"}, "geometry": {"type": "Point", "coordinates": [3.150743, 46.987282]}}, {"type": "Feature", "properties": {"start": "Montargis", "stop_name": "Fourchambault", "type": "Gare accessible", "icone": "Icon1"}, "geometry": {"type": "Point", "coordinates": [3.087166, 47.01896]}}, {"type": "Feature", "properties": {"start": "Montargis", "stop_name": "Pougues-les-Eaux", "type": "Gare accessible", "icone": "Icon1"}, "geometry": {"type": "Point", "coordinates": [3.09403, 47.076784]}}, {"type": "Feature", "properties": {"start": "Montargis", "stop_name": "La Charit\u00e9-sur-Loire", "type": "Gare accessible", "icone": "Icon1"}, "geometry": {"type": "Point", "coordinates": [3.023883, 47.179914]}}, {"type": "Feature", "properties": {"start": "Montargis", "stop_name": "Cosne-sur-Loire", "type": "Gare accessible", "icone": "Icon1"}, "geometry": {"type": "Point", "coordinates": [2.93192, 47.413966]}}, {"type": "Feature", "properties": {"start": "Montargis", "stop_name": "Briare", "type": "Gare accessible", "icone": "Icon1"}, "geometry": {"type": "Point", "coordinates": [2.733652, 47.646363]}}, {"type": "Feature", "properties": {"start": "Montargis", "stop_name": "Gien", "type": "Gare accessible", "icone": "Icon1"}, "geometry": {"type": "Point", "coordinates": [2.636205, 47.699088]}}, {"type": "Feature", "properties": {"start": "Montargis", "stop_name": "Nogent-sur-Vernisson", "type": "Gare accessible", "icone": "Icon1"}, "geometry": {"type": "Point", "coordinates": [2.737816, 47.852782]}}, {"type": "Feature", "properties": {"start": "Montargis", "stop_name": "Nemours - Saint-Pierre", "type": "Gare accessible", "icone": "Icon1"}, "geometry": {"type": "Point", "coordinates": [2.685733, 48.267866]}}, {"type": "Feature", "properties": {"start": "Montargis", "stop_name": "Paris Bercy Bourg. Pays d'Auv.", "type": "Gare accessible", "icone": "Icon1"}, "geometry": {"type": "Point", "coordinates": [2.382791, 48.839215]}}, {"type": "Feature", "properties": {"start": "Montargis", "stop_name": "Tracy Sancerre", "type": "Gare accessible", "icone": "Icon1"}, "geometry": {"type": "Point", "coordinates": [2.880298, 47.338091]}}, {"type": "Feature", "properties": {"start": "Montargis", "stop_name": "Paris Gare de Lyon Hall 1 - 2", "type": "Gare accessible", "icone": "Icon1"}, "geometry": {"type": "Point", "coordinates": [2.373481, 48.844945]}}, {"type": "Feature", "properties": {"start": "Montargis", "stop_name": "Pouilly-sur-Loire", "type": "Gare accessible", "icone": "Icon1"}, "geometry": {"type": "Point", "coordinates": [2.966276, 47.282242]}}]}