{"type": "FeatureCollection", "features": [{"type": "Feature", "properties": {"stop_name": "Moret - Veneux-les-Sablons", "type": "Gare s\u00e9lectionn\u00e9e", "icone": "Icon2"}, "geometry": {"type": "Point", "coordinates": [2.799478, 48.378415999999994]}}, {"type": "Feature", "properties": {"stop_name": "Laroche - Migennes", "type": "Gare accessible", "icone": "Icon1"}, "geometry": {"type": "Point", "coordinates": [3.513191, 47.960998]}}, {"type": "Feature", "properties": {"stop_name": "Joigny", "type": "Gare accessible", "icone": "Icon1"}, "geometry": {"type": "Point", "coordinates": [3.392997, 47.973855]}}, {"type": "Feature", "properties": {"stop_name": "Saint-Julien-du-Sault", "type": "Gare accessible", "icone": "Icon1"}, "geometry": {"type": "Point", "coordinates": [3.302781, 48.026965000000004]}}, {"type": "Feature", "properties": {"stop_name": "Villeneuve-sur-Yonne", "type": "Gare accessible", "icone": "Icon1"}, "geometry": {"type": "Point", "coordinates": [3.286925, 48.085013000000004]}}, {"type": "Feature", "properties": {"stop_name": "\u00c9tigny - V\u00e9ron", "type": "Gare accessible", "icone": "Icon1"}, "geometry": {"type": "Point", "coordinates": [3.290743, 48.138276]}}, {"type": "Feature", "properties": {"stop_name": "Sens", "type": "Gare accessible", "icone": "Icon1"}, "geometry": {"type": "Point", "coordinates": [3.267833, 48.197856]}}, {"type": "Feature", "properties": {"stop_name": "Pont-sur-Yonne", "type": "Gare accessible", "icone": "Icon1"}, "geometry": {"type": "Point", "coordinates": [3.201463, 48.286287]}}, {"type": "Feature", "properties": {"stop_name": "Champigny", "type": "Gare accessible", "icone": "Icon1"}, "geometry": {"type": "Point", "coordinates": [3.130572, 48.323741999999996]}}, {"type": "Feature", "properties": {"stop_name": "Villeneuve-la-Guyard", "type": "Gare accessible", "icone": "Icon1"}, "geometry": {"type": "Point", "coordinates": [3.071655, 48.342425]}}, {"type": "Feature", "properties": {"stop_name": "Montereau", "type": "Gare accessible", "icone": "Icon1"}, "geometry": {"type": "Point", "coordinates": [2.94293, 48.379902]}}, {"type": "Feature", "properties": {"stop_name": "Saint-Mamm\u00e8s", "type": "Gare accessible", "icone": "Icon1"}, "geometry": {"type": "Point", "coordinates": [2.815917, 48.382156]}}, {"type": "Feature", "properties": {"stop_name": "Fontainebleau - Avon", "type": "Gare accessible", "icone": "Icon1"}, "geometry": {"type": "Point", "coordinates": [2.726237, 48.416331]}}, {"type": "Feature", "properties": {"stop_name": "Bois-le-Roi", "type": "Gare accessible", "icone": "Icon1"}, "geometry": {"type": "Point", "coordinates": [2.691606, 48.475567]}}, {"type": "Feature", "properties": {"stop_name": "Melun", "type": "Gare accessible", "icone": "Icon1"}, "geometry": {"type": "Point", "coordinates": [2.655349, 48.527583]}}, {"type": "Feature", "properties": {"stop_name": "Paris Gare de Lyon Hall 1 - 2", "type": "Gare accessible", "icone": "Icon1"}, "geometry": {"type": "Point", "coordinates": [2.373481, 48.844945]}}, {"type": "Feature", "properties": {"stop_name": "Paris Bercy Bourg. Pays d'Auv.", "type": "Gare accessible", "icone": "Icon1"}, "geometry": {"type": "Point", "coordinates": [2.382791, 48.839215]}}]}