{"type": "FeatureCollection", "features": [{"type": "Feature", "properties": {"start": "Muizon", "stop_name": "Muizon", "type": "Gare s\u00e9lectionn\u00e9e", "iconstarte": "Icon2"}, "geometry": {"type": "Point", "coordinates": [3.891529, 49.278101]}}, {"type": "Feature", "properties": {"start": "Muizon", "stop_name": "Reims", "type": "Gare accessible", "icone": "Icon1"}, "geometry": {"type": "Point", "coordinates": [4.021994, 49.258934]}}, {"type": "Feature", "properties": {"start": "Muizon", "stop_name": "Jonchery-sur-Vesle", "type": "Gare accessible", "icone": "Icon1"}, "geometry": {"type": "Point", "coordinates": [3.819422, 49.290057]}}, {"type": "Feature", "properties": {"start": "Muizon", "stop_name": "Breuil - Romain", "type": "Gare accessible", "icone": "Icon1"}, "geometry": {"type": "Point", "coordinates": [3.766532, 49.308414]}}, {"type": "Feature", "properties": {"start": "Muizon", "stop_name": "Magneux - Courlandon", "type": "Gare accessible", "icone": "Icon1"}, "geometry": {"type": "Point", "coordinates": [3.734412, 49.309899]}}, {"type": "Feature", "properties": {"start": "Muizon", "stop_name": "Fismes", "type": "Gare accessible", "icone": "Icon1"}, "geometry": {"type": "Point", "coordinates": [3.682126, 49.310722]}}]}