{"type": "FeatureCollection", "features": [{"type": "Feature", "properties": {"stop_name": "Neufch\u00e2tel-en-Bray", "type": "Gare s\u00e9lectionn\u00e9e"}, "geometry": {"type": "Point", "coordinates": [1.43547, 49.733443]}}, {"type": "Feature", "properties": {"stop_name": "Forges-les-Eaux", "type": "Gare accessible"}, "geometry": {"type": "Point", "coordinates": [1.553656, 49.614323999999996]}}, {"type": "Feature", "properties": {"stop_name": "Serqueux", "type": "Gare accessible"}, "geometry": {"type": "Point", "coordinates": [1.539403, 49.631551]}}, {"type": "Feature", "properties": {"stop_name": "Nesle - Saint-Saire", "type": "Gare accessible"}, "geometry": {"type": "Point", "coordinates": [1.494916, 49.697384]}}, {"type": "Feature", "properties": {"stop_name": "Neufch\u00e2tel-en-Bray T\u00eate de Cheval", "type": "Gare accessible"}, "geometry": {"type": "Point", "coordinates": [1.44923, 49.731271]}}, {"type": "Feature", "properties": {"stop_name": "Mesni\u00e8res-en-Bray", "type": "Gare accessible"}, "geometry": {"type": "Point", "coordinates": [1.380026, 49.765018]}}, {"type": "Feature", "properties": {"stop_name": "Bures-en-Bray Carrefour", "type": "Gare accessible"}, "geometry": {"type": "Point", "coordinates": [1.347249, 49.781683]}}, {"type": "Feature", "properties": {"stop_name": "Osmoy", "type": "Gare accessible"}, "geometry": {"type": "Point", "coordinates": [1.322809, 49.796127]}}, {"type": "Feature", "properties": {"stop_name": "Saint-Vaast-d'\u00c9quiqueville", "type": "Gare accessible"}, "geometry": {"type": "Point", "coordinates": [1.262741, 49.817021999999994]}}, {"type": "Feature", "properties": {"stop_name": "Freulleville", "type": "Gare accessible"}, "geometry": {"type": "Point", "coordinates": [1.246767, 49.827899]}}, {"type": "Feature", "properties": {"stop_name": "Meulers Centre", "type": "Gare accessible"}, "geometry": {"type": "Point", "coordinates": [1.226922, 49.841746]}}, {"type": "Feature", "properties": {"stop_name": "Dampierre-Saint-Nicolas Carrefour", "type": "Gare accessible"}, "geometry": {"type": "Point", "coordinates": [1.197531, 49.861405]}}, {"type": "Feature", "properties": {"stop_name": "Saint-Aubin-le-Cauf Mairie", "type": "Gare accessible"}, "geometry": {"type": "Point", "coordinates": [1.179309, 49.868821999999994]}}, {"type": "Feature", "properties": {"stop_name": "Arques-la-Bataille", "type": "Gare accessible"}, "geometry": {"type": "Point", "coordinates": [1.134456, 49.880478000000004]}}, {"type": "Feature", "properties": {"stop_name": "Dieppe", "type": "Gare accessible"}, "geometry": {"type": "Point", "coordinates": [1.081133, 49.921788]}}]}