{"type": "FeatureCollection", "features": [{"type": "Feature", "properties": {"start": "Nice-Ville", "stop_name": "Nice-Ville", "type": "Gare s\u00e9lectionn\u00e9e", "iconstarte": "Icon2"}, "geometry": {"type": "Point", "coordinates": [7.261904, 43.704556]}}, {"type": "Feature", "properties": {"start": "Nice-Ville", "stop_name": "Nice Saint-Augustin", "type": "Gare accessible", "icone": "Icon1"}, "geometry": {"type": "Point", "coordinates": [7.216199, 43.670728]}}, {"type": "Feature", "properties": {"start": "Nice-Ville", "stop_name": "Antibes", "type": "Gare accessible", "icone": "Icon1"}, "geometry": {"type": "Point", "coordinates": [7.119913, 43.585971]}}, {"type": "Feature", "properties": {"start": "Nice-Ville", "stop_name": "Cannes", "type": "Gare accessible", "icone": "Icon1"}, "geometry": {"type": "Point", "coordinates": [7.019711, 43.553908]}}, {"type": "Feature", "properties": {"start": "Nice-Ville", "stop_name": "Saint-Rapha\u00ebl Valescure", "type": "Gare accessible", "icone": "Icon1"}, "geometry": {"type": "Point", "coordinates": [6.769037, 43.423631]}}, {"type": "Feature", "properties": {"start": "Nice-Ville", "stop_name": "Les Arcs - Draguignan", "type": "Gare accessible", "icone": "Icon1"}, "geometry": {"type": "Point", "coordinates": [6.482424, 43.455725]}}, {"type": "Feature", "properties": {"start": "Nice-Ville", "stop_name": "Toulon", "type": "Gare accessible", "icone": "Icon1"}, "geometry": {"type": "Point", "coordinates": [5.929404, 43.128353]}}, {"type": "Feature", "properties": {"start": "Nice-Ville", "stop_name": "Ollioules - Sanary-sur-Mer", "type": "Gare accessible", "icone": "Icon1"}, "geometry": {"type": "Point", "coordinates": [5.825015, 43.122578]}}, {"type": "Feature", "properties": {"start": "Nice-Ville", "stop_name": "La Ciotat-Ceyreste", "type": "Gare accessible", "icone": "Icon1"}, "geometry": {"type": "Point", "coordinates": [5.632741, 43.199602]}}, {"type": "Feature", "properties": {"start": "Nice-Ville", "stop_name": "Aubagne", "type": "Gare accessible", "icone": "Icon1"}, "geometry": {"type": "Point", "coordinates": [5.566322, 43.296073]}}, {"type": "Feature", "properties": {"start": "Nice-Ville", "stop_name": "Marseille Blancarde", "type": "Gare accessible", "icone": "Icon1"}, "geometry": {"type": "Point", "coordinates": [5.406588, 43.296195]}}, {"type": "Feature", "properties": {"start": "Nice-Ville", "stop_name": "Marseille Saint-Charles", "type": "Gare accessible", "icone": "Icon1"}, "geometry": {"type": "Point", "coordinates": [5.380407, 43.302666]}}, {"type": "Feature", "properties": {"start": "Nice-Ville", "stop_name": "Carnoules", "type": "Gare accessible", "icone": "Icon1"}, "geometry": {"type": "Point", "coordinates": [6.186191, 43.297513]}}, {"type": "Feature", "properties": {"start": "Nice-Ville", "stop_name": "Nice Pont Michel", "type": "Gare accessible", "icone": "Icon1"}, "geometry": {"type": "Point", "coordinates": [7.291671, 43.722692]}}, {"type": "Feature", "properties": {"start": "Nice-Ville", "stop_name": "L'Ariane La Trinit\u00e9", "type": "Gare accessible", "icone": "Icon1"}, "geometry": {"type": "Point", "coordinates": [7.302478, 43.734399]}}, {"type": "Feature", "properties": {"start": "Nice-Ville", "stop_name": "La Trinit\u00e9 Victor", "type": "Gare accessible", "icone": "Icon1"}, "geometry": {"type": "Point", "coordinates": [7.311721, 43.742737]}}, {"type": "Feature", "properties": {"start": "Nice-Ville", "stop_name": "Drap - Cantaron", "type": "Gare accessible", "icone": "Icon1"}, "geometry": {"type": "Point", "coordinates": [7.317039, 43.759865]}}, {"type": "Feature", "properties": {"start": "Nice-Ville", "stop_name": "Halte de Fontanil - Lyc\u00e9e de Drap", "type": "Gare accessible", "icone": "Icon1"}, "geometry": {"type": "Point", "coordinates": [7.338854, 43.764152]}}, {"type": "Feature", "properties": {"start": "Nice-Ville", "stop_name": "Peillon - Sainte-Th\u00e8cle", "type": "Gare accessible", "icone": "Icon1"}, "geometry": {"type": "Point", "coordinates": [7.36684, 43.767871]}}, {"type": "Feature", "properties": {"start": "Nice-Ville", "stop_name": "Peille", "type": "Gare accessible", "icone": "Icon1"}, "geometry": {"type": "Point", "coordinates": [7.379854, 43.791907]}}, {"type": "Feature", "properties": {"start": "Nice-Ville", "stop_name": "L'Escar\u00e8ne", "type": "Gare accessible", "icone": "Icon1"}, "geometry": {"type": "Point", "coordinates": [7.351779, 43.839743]}}, {"type": "Feature", "properties": {"start": "Nice-Ville", "stop_name": "Tou\u00ebt-de-l'Escar\u00e8ne", "type": "Gare accessible", "icone": "Icon1"}, "geometry": {"type": "Point", "coordinates": [7.36437, 43.847073]}}, {"type": "Feature", "properties": {"start": "Nice-Ville", "stop_name": "Sospel", "type": "Gare accessible", "icone": "Icon1"}, "geometry": {"type": "Point", "coordinates": [7.453789, 43.876586]}}, {"type": "Feature", "properties": {"start": "Nice-Ville", "stop_name": "Breil-sur-Roya", "type": "Gare accessible", "icone": "Icon1"}, "geometry": {"type": "Point", "coordinates": [7.516446, 43.944057]}}, {"type": "Feature", "properties": {"start": "Nice-Ville", "stop_name": "Fontan - Saorge", "type": "Gare accessible", "icone": "Icon1"}, "geometry": {"type": "Point", "coordinates": [7.551626, 43.996638]}}, {"type": "Feature", "properties": {"start": "Nice-Ville", "stop_name": "Saint-Dalmas de Tende", "type": "Gare accessible", "icone": "Icon1"}, "geometry": {"type": "Point", "coordinates": [7.58345, 44.05582]}}, {"type": "Feature", "properties": {"start": "Nice-Ville", "stop_name": "La Brigue", "type": "Gare accessible", "icone": "Icon1"}, "geometry": {"type": "Point", "coordinates": [7.605575, 44.062611]}}, {"type": "Feature", "properties": {"start": "Nice-Ville", "stop_name": "Tende", "type": "Gare accessible", "icone": "Icon1"}, "geometry": {"type": "Point", "coordinates": [7.60003, 44.076111]}}, {"type": "Feature", "properties": {"start": "Nice-Ville", "stop_name": "VENTIMIGLIA", "type": "Gare accessible", "icone": "Icon1"}, "geometry": {"type": "Point", "coordinates": [7.610233, 43.792569]}}, {"type": "Feature", "properties": {"start": "Nice-Ville", "stop_name": "Menton Garavan", "type": "Gare accessible", "icone": "Icon1"}, "geometry": {"type": "Point", "coordinates": [7.51728, 43.785187]}}, {"type": "Feature", "properties": {"start": "Nice-Ville", "stop_name": "Menton", "type": "Gare accessible", "icone": "Icon1"}, "geometry": {"type": "Point", "coordinates": [7.493212, 43.774435]}}, {"type": "Feature", "properties": {"start": "Nice-Ville", "stop_name": "Carnoles", "type": "Gare accessible", "icone": "Icon1"}, "geometry": {"type": "Point", "coordinates": [7.481427, 43.76204]}}, {"type": "Feature", "properties": {"start": "Nice-Ville", "stop_name": "Roquebrune-Cap-Martin", "type": "Gare accessible", "icone": "Icon1"}, "geometry": {"type": "Point", "coordinates": [7.457343, 43.760618]}}, {"type": "Feature", "properties": {"start": "Nice-Ville", "stop_name": "Monaco-Monte-Carlo", "type": "Gare accessible", "icone": "Icon1"}, "geometry": {"type": "Point", "coordinates": [7.419747, 43.738414]}}, {"type": "Feature", "properties": {"start": "Nice-Ville", "stop_name": "Cap-d'Ail", "type": "Gare accessible", "icone": "Icon1"}, "geometry": {"type": "Point", "coordinates": [7.394384, 43.7206]}}, {"type": "Feature", "properties": {"start": "Nice-Ville", "stop_name": "\u00c8ze", "type": "Gare accessible", "icone": "Icon1"}, "geometry": {"type": "Point", "coordinates": [7.356948, 43.722327]}}, {"type": "Feature", "properties": {"start": "Nice-Ville", "stop_name": "Beaulieu-sur-Mer", "type": "Gare accessible", "icone": "Icon1"}, "geometry": {"type": "Point", "coordinates": [7.331631, 43.706692]}}, {"type": "Feature", "properties": {"start": "Nice-Ville", "stop_name": "Villefranche-sur-Mer", "type": "Gare accessible", "icone": "Icon1"}, "geometry": {"type": "Point", "coordinates": [7.314245, 43.707047]}}, {"type": "Feature", "properties": {"start": "Nice-Ville", "stop_name": "Nice Riquier", "type": "Gare accessible", "icone": "Icon1"}, "geometry": {"type": "Point", "coordinates": [7.290175, 43.705554]}}, {"type": "Feature", "properties": {"start": "Nice-Ville", "stop_name": "Saint-Laurent-du-Var", "type": "Gare accessible", "icone": "Icon1"}, "geometry": {"type": "Point", "coordinates": [7.194452, 43.662468]}}, {"type": "Feature", "properties": {"start": "Nice-Ville", "stop_name": "Cros de Cagnes", "type": "Gare accessible", "icone": "Icon1"}, "geometry": {"type": "Point", "coordinates": [7.167112, 43.660485]}}, {"type": "Feature", "properties": {"start": "Nice-Ville", "stop_name": "Cagnes-sur-Mer", "type": "Gare accessible", "icone": "Icon1"}, "geometry": {"type": "Point", "coordinates": [7.148122, 43.657687]}}, {"type": "Feature", "properties": {"start": "Nice-Ville", "stop_name": "Villeneuve-Loubet-Plage", "type": "Gare accessible", "icone": "Icon1"}, "geometry": {"type": "Point", "coordinates": [7.134066, 43.629928]}}, {"type": "Feature", "properties": {"start": "Nice-Ville", "stop_name": "Biot", "type": "Gare accessible", "icone": "Icon1"}, "geometry": {"type": "Point", "coordinates": [7.126192, 43.610937]}}, {"type": "Feature", "properties": {"start": "Nice-Ville", "stop_name": "Juan les Pins", "type": "Gare accessible", "icone": "Icon1"}, "geometry": {"type": "Point", "coordinates": [7.111472, 43.570939]}}, {"type": "Feature", "properties": {"start": "Nice-Ville", "stop_name": "Golfe Juan Vallauris", "type": "Gare accessible", "icone": "Icon1"}, "geometry": {"type": "Point", "coordinates": [7.073615, 43.566532]}}, {"type": "Feature", "properties": {"start": "Nice-Ville", "stop_name": "Le Bosquet", "type": "Gare accessible", "icone": "Icon1"}, "geometry": {"type": "Point", "coordinates": [6.981618, 43.551608]}}, {"type": "Feature", "properties": {"start": "Nice-Ville", "stop_name": "La Fray\u00e8re", "type": "Gare accessible", "icone": "Icon1"}, "geometry": {"type": "Point", "coordinates": [6.972046, 43.558143]}}, {"type": "Feature", "properties": {"start": "Nice-Ville", "stop_name": "Ranguin", "type": "Gare accessible", "icone": "Icon1"}, "geometry": {"type": "Point", "coordinates": [6.969316, 43.569167]}}, {"type": "Feature", "properties": {"start": "Nice-Ville", "stop_name": "Mouans-Sartoux", "type": "Gare accessible", "icone": "Icon1"}, "geometry": {"type": "Point", "coordinates": [6.974218, 43.620408]}}, {"type": "Feature", "properties": {"start": "Nice-Ville", "stop_name": "Grasse", "type": "Gare accessible", "icone": "Icon1"}, "geometry": {"type": "Point", "coordinates": [6.92555, 43.653344]}}, {"type": "Feature", "properties": {"start": "Nice-Ville", "stop_name": "Cannes La Bocca", "type": "Gare accessible", "icone": "Icon1"}, "geometry": {"type": "Point", "coordinates": [6.986661, 43.548871]}}, {"type": "Feature", "properties": {"start": "Nice-Ville", "stop_name": "Fr\u00e9jus", "type": "Gare accessible", "icone": "Icon1"}, "geometry": {"type": "Point", "coordinates": [6.732943, 43.43203]}}, {"type": "Feature", "properties": {"start": "Nice-Ville", "stop_name": "Mandelieu-la-Napoule", "type": "Gare accessible", "icone": "Icon1"}, "geometry": {"type": "Point", "coordinates": [6.941318, 43.52391]}}, {"type": "Feature", "properties": {"start": "Nice-Ville", "stop_name": "Th\u00e9oule-sur-Mer", "type": "Gare accessible", "icone": "Icon1"}, "geometry": {"type": "Point", "coordinates": [6.93696, 43.513499]}}, {"type": "Feature", "properties": {"start": "Nice-Ville", "stop_name": "Le Trayas", "type": "Gare accessible", "icone": "Icon1"}, "geometry": {"type": "Point", "coordinates": [6.924404, 43.474631]}}, {"type": "Feature", "properties": {"start": "Nice-Ville", "stop_name": "Anth\u00e9or Cap Roux", "type": "Gare accessible", "icone": "Icon1"}, "geometry": {"type": "Point", "coordinates": [6.892186, 43.434985]}}, {"type": "Feature", "properties": {"start": "Nice-Ville", "stop_name": "Agay", "type": "Gare accessible", "icone": "Icon1"}, "geometry": {"type": "Point", "coordinates": [6.8565, 43.43137]}}, {"type": "Feature", "properties": {"start": "Nice-Ville", "stop_name": "Le Dramont", "type": "Gare accessible", "icone": "Icon1"}, "geometry": {"type": "Point", "coordinates": [6.844289, 43.417829]}}, {"type": "Feature", "properties": {"start": "Nice-Ville", "stop_name": "Boulouris sur Mer", "type": "Gare accessible", "icone": "Icon1"}, "geometry": {"type": "Point", "coordinates": [6.808259, 43.416333]}}]}