{"type": "FeatureCollection", "features": [{"type": "Feature", "properties": {"stop_name": "Noyal - Acign\u00e9", "type": "Gare s\u00e9lectionn\u00e9e", "icone": "Icon2"}, "geometry": {"type": "Point", "coordinates": [-1.527765, 48.118792]}}, {"type": "Feature", "properties": {"stop_name": "Rennes", "type": "Gare accessible", "icone": "Icon1"}, "geometry": {"type": "Point", "coordinates": [-1.6727439999999998, 48.103517]}}, {"type": "Feature", "properties": {"stop_name": "Cesson-S\u00e9vign\u00e9", "type": "Gare accessible", "icone": "Icon1"}, "geometry": {"type": "Point", "coordinates": [-1.6021100000000001, 48.112809999999996]}}, {"type": "Feature", "properties": {"stop_name": "Servon", "type": "Gare accessible", "icone": "Icon1"}, "geometry": {"type": "Point", "coordinates": [-1.4652100000000001, 48.112213]}}, {"type": "Feature", "properties": {"stop_name": "Ch\u00e2teaubourg", "type": "Gare accessible", "icone": "Icon1"}, "geometry": {"type": "Point", "coordinates": [-1.405159, 48.106361]}}, {"type": "Feature", "properties": {"stop_name": "Les Lacs", "type": "Gare accessible", "icone": "Icon1"}, "geometry": {"type": "Point", "coordinates": [-1.322266, 48.108891]}}, {"type": "Feature", "properties": {"stop_name": "Vitr\u00e9", "type": "Gare accessible", "icone": "Icon1"}, "geometry": {"type": "Point", "coordinates": [-1.211754, 48.122671000000004]}}, {"type": "Feature", "properties": {"stop_name": "Laval", "type": "Gare accessible", "icone": "Icon1"}, "geometry": {"type": "Point", "coordinates": [-0.760929, 48.076254999999996]}}, {"type": "Feature", "properties": {"stop_name": "Le Genest", "type": "Gare accessible", "icone": "Icon1"}, "geometry": {"type": "Point", "coordinates": [-0.8856209999999999, 48.096740999999994]}}, {"type": "Feature", "properties": {"stop_name": "Port-Brillet", "type": "Gare accessible", "icone": "Icon1"}, "geometry": {"type": "Point", "coordinates": [-0.9740469999999999, 48.110707]}}, {"type": "Feature", "properties": {"stop_name": "Saint-Pierre-la-Cour", "type": "Gare accessible", "icone": "Icon1"}, "geometry": {"type": "Point", "coordinates": [-1.02558, 48.113651000000004]}}, {"type": "Feature", "properties": {"stop_name": "Le Mans", "type": "Gare accessible", "icone": "Icon1"}, "geometry": {"type": "Point", "coordinates": [0.192614, 47.995615]}}, {"type": "Feature", "properties": {"stop_name": "Sill\u00e9-le-Guillaume", "type": "Gare accessible", "icone": "Icon1"}, "geometry": {"type": "Point", "coordinates": [-0.128891, 48.181795]}}, {"type": "Feature", "properties": {"stop_name": "\u00c9vron", "type": "Gare accessible", "icone": "Icon1"}, "geometry": {"type": "Point", "coordinates": [-0.39715500000000004, 48.155516999999996]}}, {"type": "Feature", "properties": {"stop_name": "Neau", "type": "Gare accessible", "icone": "Icon1"}, "geometry": {"type": "Point", "coordinates": [-0.47657, 48.157526000000004]}}, {"type": "Feature", "properties": {"stop_name": "Monts\u00fbrs", "type": "Gare accessible", "icone": "Icon1"}, "geometry": {"type": "Point", "coordinates": [-0.550642, 48.141490000000005]}}, {"type": "Feature", "properties": {"stop_name": "Conlie", "type": "Gare accessible", "icone": "Icon1"}, "geometry": {"type": "Point", "coordinates": [-0.01162, 48.127221]}}]}