{"type": "FeatureCollection", "features": [{"type": "Feature", "properties": {"start": "Ourscamps", "stop_name": "Ourscamps", "type": "Gare s\u00e9lectionn\u00e9e", "iconstarte": "Icon2"}, "geometry": {"type": "Point", "coordinates": [2.954338, 49.533927]}}, {"type": "Feature", "properties": {"start": "Ourscamps", "stop_name": "Creil", "type": "Gare accessible", "icone": "Icon1"}, "geometry": {"type": "Point", "coordinates": [2.469293, 49.263775]}}, {"type": "Feature", "properties": {"start": "Ourscamps", "stop_name": "Rieux - Angicourt", "type": "Gare accessible", "icone": "Icon1"}, "geometry": {"type": "Point", "coordinates": [2.521185, 49.298581]}}, {"type": "Feature", "properties": {"start": "Ourscamps", "stop_name": "Pont-Sainte-Maxence", "type": "Gare accessible", "icone": "Icon1"}, "geometry": {"type": "Point", "coordinates": [2.602893, 49.309736]}}, {"type": "Feature", "properties": {"start": "Ourscamps", "stop_name": "Chevri\u00e8res", "type": "Gare accessible", "icone": "Icon1"}, "geometry": {"type": "Point", "coordinates": [2.682515, 49.337314]}}, {"type": "Feature", "properties": {"start": "Ourscamps", "stop_name": "Longueil-Sainte-Marie", "type": "Gare accessible", "icone": "Icon1"}, "geometry": {"type": "Point", "coordinates": [2.717636, 49.342407]}}, {"type": "Feature", "properties": {"start": "Ourscamps", "stop_name": "Le Meux - La Croix-Saint-Ouen", "type": "Gare accessible", "icone": "Icon1"}, "geometry": {"type": "Point", "coordinates": [2.753483, 49.35949]}}, {"type": "Feature", "properties": {"start": "Ourscamps", "stop_name": "Compi\u00e8gne", "type": "Gare accessible", "icone": "Icon1"}, "geometry": {"type": "Point", "coordinates": [2.823693, 49.421977]}}, {"type": "Feature", "properties": {"start": "Ourscamps", "stop_name": "Longueil-Annel", "type": "Gare accessible", "icone": "Icon1"}, "geometry": {"type": "Point", "coordinates": [2.862877, 49.466991]}}, {"type": "Feature", "properties": {"start": "Ourscamps", "stop_name": "Thourotte", "type": "Gare accessible", "icone": "Icon1"}, "geometry": {"type": "Point", "coordinates": [2.881771, 49.475429]}}, {"type": "Feature", "properties": {"start": "Ourscamps", "stop_name": "Rib\u00e9court", "type": "Gare accessible", "icone": "Icon1"}, "geometry": {"type": "Point", "coordinates": [2.927092, 49.506302]}}, {"type": "Feature", "properties": {"start": "Ourscamps", "stop_name": "Noyon", "type": "Gare accessible", "icone": "Icon1"}, "geometry": {"type": "Point", "coordinates": [3.006434, 49.577351]}}, {"type": "Feature", "properties": {"start": "Ourscamps", "stop_name": "Appilly", "type": "Gare accessible", "icone": "Icon1"}, "geometry": {"type": "Point", "coordinates": [3.120772, 49.580466]}}, {"type": "Feature", "properties": {"start": "Ourscamps", "stop_name": "Chauny", "type": "Gare accessible", "icone": "Icon1"}, "geometry": {"type": "Point", "coordinates": [3.223484, 49.611165]}}, {"type": "Feature", "properties": {"start": "Ourscamps", "stop_name": "Tergnier", "type": "Gare accessible", "icone": "Icon1"}, "geometry": {"type": "Point", "coordinates": [3.297253, 49.659129]}}, {"type": "Feature", "properties": {"start": "Ourscamps", "stop_name": "Mennessis", "type": "Gare accessible", "icone": "Icon1"}, "geometry": {"type": "Point", "coordinates": [3.270562, 49.692061]}}, {"type": "Feature", "properties": {"start": "Ourscamps", "stop_name": "Montescourt", "type": "Gare accessible", "icone": "Icon1"}, "geometry": {"type": "Point", "coordinates": [3.25206, 49.738786]}}, {"type": "Feature", "properties": {"start": "Ourscamps", "stop_name": "Saint-Quentin", "type": "Gare accessible", "icone": "Icon1"}, "geometry": {"type": "Point", "coordinates": [3.296958, 49.840025]}}, {"type": "Feature", "properties": {"start": "Ourscamps", "stop_name": "Viry-Noureuil", "type": "Gare accessible", "icone": "Icon1"}, "geometry": {"type": "Point", "coordinates": [3.250169, 49.627357]}}]}