{"type": "FeatureCollection", "features": [{"type": "Feature", "properties": {"start": "Paulhaguet", "stop_name": "Paulhaguet", "type": "Gare s\u00e9lectionn\u00e9e", "iconstarte": "Icon2"}, "geometry": {"type": "Point", "coordinates": [3.500626, 45.21023]}}, {"type": "Feature", "properties": {"start": "Paulhaguet", "stop_name": "Le Puy-en-Velay", "type": "Gare accessible", "icone": "Icon1"}, "geometry": {"type": "Point", "coordinates": [3.892421, 45.042866]}}, {"type": "Feature", "properties": {"start": "Paulhaguet", "stop_name": "Coubladour Rond-Point", "type": "Gare accessible", "icone": "Icon1"}, "geometry": {"type": "Point", "coordinates": [3.743527, 45.115378]}}, {"type": "Feature", "properties": {"start": "Paulhaguet", "stop_name": "Fix Saint-Geneys Rn102 Bourg", "type": "Gare accessible", "icone": "Icon1"}, "geometry": {"type": "Point", "coordinates": [3.668554, 45.142783]}}, {"type": "Feature", "properties": {"start": "Paulhaguet", "stop_name": "Saint-Georges-d'Aurac Bourg", "type": "Gare accessible", "icone": "Icon1"}, "geometry": {"type": "Point", "coordinates": [3.54073, 45.156213]}}, {"type": "Feature", "properties": {"start": "Paulhaguet", "stop_name": "Brioude", "type": "Gare accessible", "icone": "Icon1"}, "geometry": {"type": "Point", "coordinates": [3.37856, 45.300561]}}, {"type": "Feature", "properties": {"start": "Paulhaguet", "stop_name": "Arvant", "type": "Gare accessible", "icone": "Icon1"}, "geometry": {"type": "Point", "coordinates": [3.310554, 45.365459]}}, {"type": "Feature", "properties": {"start": "Paulhaguet", "stop_name": "Darsac", "type": "Gare accessible", "icone": "Icon1"}, "geometry": {"type": "Point", "coordinates": [3.736628, 45.142183]}}, {"type": "Feature", "properties": {"start": "Paulhaguet", "stop_name": "Lachaud-Curmilhac", "type": "Gare accessible", "icone": "Icon1"}, "geometry": {"type": "Point", "coordinates": [3.61043, 45.122888]}}, {"type": "Feature", "properties": {"start": "Paulhaguet", "stop_name": "Saint-Georges-d'Aurac", "type": "Gare accessible", "icone": "Icon1"}, "geometry": {"type": "Point", "coordinates": [3.494704, 45.160594]}}, {"type": "Feature", "properties": {"start": "Paulhaguet", "stop_name": "Brassac-les-Mines - Sainte-Florine", "type": "Gare accessible", "icone": "Icon1"}, "geometry": {"type": "Point", "coordinates": [3.330167, 45.414246]}}, {"type": "Feature", "properties": {"start": "Paulhaguet", "stop_name": "Le Breuil-sur-Couze", "type": "Gare accessible", "icone": "Icon1"}, "geometry": {"type": "Point", "coordinates": [3.262221, 45.467099]}}, {"type": "Feature", "properties": {"start": "Paulhaguet", "stop_name": "Issoire", "type": "Gare accessible", "icone": "Icon1"}, "geometry": {"type": "Point", "coordinates": [3.25404, 45.543949]}}, {"type": "Feature", "properties": {"start": "Paulhaguet", "stop_name": "Parent - Coudes - Champeix", "type": "Gare accessible", "icone": "Icon1"}, "geometry": {"type": "Point", "coordinates": [3.216771, 45.614416]}}, {"type": "Feature", "properties": {"start": "Paulhaguet", "stop_name": "Vic-le-Comte", "type": "Gare accessible", "icone": "Icon1"}, "geometry": {"type": "Point", "coordinates": [3.207042, 45.664941]}}, {"type": "Feature", "properties": {"start": "Paulhaguet", "stop_name": "Clermont la Pardieu", "type": "Gare accessible", "icone": "Icon1"}, "geometry": {"type": "Point", "coordinates": [3.134193, 45.766988]}}, {"type": "Feature", "properties": {"start": "Paulhaguet", "stop_name": "Clermont-Ferrand", "type": "Gare accessible", "icone": "Icon1"}, "geometry": {"type": "Point", "coordinates": [3.100543, 45.778945]}}]}