{"type": "FeatureCollection", "features": [{"type": "Feature", "properties": {"stop_name": "Peyrilhac - Saint-Jouvent", "type": "Gare s\u00e9lectionn\u00e9e", "icone": "Icon2"}, "geometry": {"type": "Point", "coordinates": [1.170226, 45.959862]}}, {"type": "Feature", "properties": {"stop_name": "Limoges B\u00e9n\u00e9dictins", "type": "Gare accessible", "icone": "Icon1"}, "geometry": {"type": "Point", "coordinates": [1.267419, 45.836207]}}, {"type": "Feature", "properties": {"stop_name": "Nieul", "type": "Gare accessible", "icone": "Icon1"}, "geometry": {"type": "Point", "coordinates": [1.172377, 45.927490999999996]}}, {"type": "Feature", "properties": {"stop_name": "Nantiat", "type": "Gare accessible", "icone": "Icon1"}, "geometry": {"type": "Point", "coordinates": [1.156418, 46.005707]}}, {"type": "Feature", "properties": {"stop_name": "Bellac", "type": "Gare accessible", "icone": "Icon1"}, "geometry": {"type": "Point", "coordinates": [1.046104, 46.125254999999996]}}, {"type": "Feature", "properties": {"stop_name": "Le Dorat", "type": "Gare accessible", "icone": "Icon1"}, "geometry": {"type": "Point", "coordinates": [1.079273, 46.211141]}}, {"type": "Feature", "properties": {"stop_name": "Lathus", "type": "Gare accessible", "icone": "Icon1"}, "geometry": {"type": "Point", "coordinates": [0.965009, 46.338091999999996]}}, {"type": "Feature", "properties": {"stop_name": "Montmorillon", "type": "Gare accessible", "icone": "Icon1"}, "geometry": {"type": "Point", "coordinates": [0.873747, 46.417497999999995]}}, {"type": "Feature", "properties": {"stop_name": "Lussac-les-Ch\u00e2teaux", "type": "Gare accessible", "icone": "Icon1"}, "geometry": {"type": "Point", "coordinates": [0.718698, 46.40515]}}, {"type": "Feature", "properties": {"stop_name": "Mignaloux - Nouaill\u00e9", "type": "Gare accessible", "icone": "Icon1"}, "geometry": {"type": "Point", "coordinates": [0.411955, 46.526258]}}, {"type": "Feature", "properties": {"stop_name": "Poitiers", "type": "Gare accessible", "icone": "Icon1"}, "geometry": {"type": "Point", "coordinates": [0.333136, 46.582232]}}]}