{"type": "FeatureCollection", "features": [{"type": "Feature", "properties": {"start": "Pibrac", "stop_name": "Pibrac", "type": "Gare s\u00e9lectionn\u00e9e", "iconstarte": "Icon2"}, "geometry": {"type": "Point", "coordinates": [1.289117, 43.621329]}}, {"type": "Feature", "properties": {"start": "Pibrac", "stop_name": "Auch", "type": "Gare accessible", "icone": "TER"}, "geometry": {"type": "Point", "coordinates": [0.596661, 43.647488]}}, {"type": "Feature", "properties": {"start": "Pibrac", "stop_name": "Aubiet", "type": "Gare accessible", "icone": "TER"}, "geometry": {"type": "Point", "coordinates": [0.789173, 43.650192]}}, {"type": "Feature", "properties": {"start": "Pibrac", "stop_name": "Gimont Cahuzac", "type": "Gare accessible", "icone": "TER"}, "geometry": {"type": "Point", "coordinates": [0.867711, 43.633194]}}, {"type": "Feature", "properties": {"start": "Pibrac", "stop_name": "L'Isle-Jourdain", "type": "Gare accessible", "icone": "TER"}, "geometry": {"type": "Point", "coordinates": [1.089829, 43.617185]}}, {"type": "Feature", "properties": {"start": "Pibrac", "stop_name": "M\u00e9renvielle", "type": "Gare accessible", "icone": "TER"}, "geometry": {"type": "Point", "coordinates": [1.15033, 43.636505]}}, {"type": "Feature", "properties": {"start": "Pibrac", "stop_name": "Brax - L\u00e9guevin", "type": "Gare accessible", "icone": "TER"}, "geometry": {"type": "Point", "coordinates": [1.236922, 43.614887]}}, {"type": "Feature", "properties": {"start": "Pibrac", "stop_name": "Colomiers Lyc\u00e9e International", "type": "Gare accessible", "icone": "TER"}, "geometry": {"type": "Point", "coordinates": [1.314116, 43.616306]}}, {"type": "Feature", "properties": {"start": "Pibrac", "stop_name": "Colomiers", "type": "Gare accessible", "icone": "TER"}, "geometry": {"type": "Point", "coordinates": [1.334221, 43.603734]}}, {"type": "Feature", "properties": {"start": "Pibrac", "stop_name": "Saint-Cyprien Ar\u00e8nes", "type": "Gare accessible", "icone": "TER"}, "geometry": {"type": "Point", "coordinates": [1.416493, 43.594048]}}, {"type": "Feature", "properties": {"start": "Pibrac", "stop_name": "Gallieni-Canc\u00e9rop\u00f4le", "type": "Gare accessible", "icone": "TER"}, "geometry": {"type": "Point", "coordinates": [1.41958, 43.573088]}}, {"type": "Feature", "properties": {"start": "Pibrac", "stop_name": "Saint-Agne", "type": "Gare accessible", "icone": "TER"}, "geometry": {"type": "Point", "coordinates": [1.45012, 43.579477]}}, {"type": "Feature", "properties": {"start": "Pibrac", "stop_name": "Toulouse Matabiau", "type": "Gare accessible", "icone": "TER"}, "geometry": {"type": "Point", "coordinates": [1.453616, 43.611206]}}, {"type": "Feature", "properties": {"start": "Pibrac", "stop_name": "Lardenne", "type": "Gare accessible", "icone": "TER"}, "geometry": {"type": "Point", "coordinates": [1.383056, 43.596688]}}]}