{"type": "FeatureCollection", "features": [{"type": "Feature", "properties": {"stop_name": "Pontrieux", "type": "Gare s\u00e9lectionn\u00e9e", "icone": "Icon2"}, "geometry": {"type": "Point", "coordinates": [-3.157428, 48.705644]}}, {"type": "Feature", "properties": {"stop_name": "Paimpol", "type": "Gare accessible", "icone": "Icon1"}, "geometry": {"type": "Point", "coordinates": [-3.046096, 48.77694]}}, {"type": "Feature", "properties": {"stop_name": "Lancerf", "type": "Gare accessible", "icone": "Icon1"}, "geometry": {"type": "Point", "coordinates": [-3.117832, 48.761875]}}, {"type": "Feature", "properties": {"stop_name": "Traou Nez", "type": "Gare accessible", "icone": "Icon1"}, "geometry": {"type": "Point", "coordinates": [-3.1349709999999997, 48.748551]}}, {"type": "Feature", "properties": {"stop_name": "Frynaudour", "type": "Gare accessible", "icone": "Icon1"}, "geometry": {"type": "Point", "coordinates": [-3.128453, 48.727592]}}, {"type": "Feature", "properties": {"stop_name": "Pontrieux Halte", "type": "Gare accessible", "icone": "Icon1"}, "geometry": {"type": "Point", "coordinates": [-3.164382, 48.698017]}}, {"type": "Feature", "properties": {"stop_name": "Br\u00e9lidy - Plouec", "type": "Gare accessible", "icone": "Icon1"}, "geometry": {"type": "Point", "coordinates": [-3.196214, 48.669154999999996]}}, {"type": "Feature", "properties": {"stop_name": "Tr\u00e9gonneau - Squiffiec", "type": "Gare accessible", "icone": "Icon1"}, "geometry": {"type": "Point", "coordinates": [-3.174252, 48.624358]}}, {"type": "Feature", "properties": {"stop_name": "Gourland", "type": "Gare accessible", "icone": "Icon1"}, "geometry": {"type": "Point", "coordinates": [-3.166819, 48.560998]}}, {"type": "Feature", "properties": {"stop_name": "Guingamp", "type": "Gare accessible", "icone": "Icon1"}, "geometry": {"type": "Point", "coordinates": [-3.143343, 48.555659000000006]}}]}