{"type": "FeatureCollection", "features": [{"type": "Feature", "properties": {"start": "Pont-de-Claix", "stop_name": "Pont-de-Claix", "type": "Gare s\u00e9lectionn\u00e9e", "iconstarte": "Icon2"}, "geometry": {"type": "Point", "coordinates": [5.699925, 45.125208]}}, {"type": "Feature", "properties": {"start": "Pont-de-Claix", "stop_name": "Grenoble", "type": "Gare accessible", "icone": "Icon1"}, "geometry": {"type": "Point", "coordinates": [5.714366, 45.192693]}}, {"type": "Feature", "properties": {"start": "Pont-de-Claix", "stop_name": "Jarrie - Vizille", "type": "Gare accessible", "icone": "Icon1"}, "geometry": {"type": "Point", "coordinates": [5.742357, 45.085439]}}, {"type": "Feature", "properties": {"start": "Pont-de-Claix", "stop_name": "Saint-Georges-de-Commiers", "type": "Gare accessible", "icone": "Icon1"}, "geometry": {"type": "Point", "coordinates": [5.701787, 45.043767]}}, {"type": "Feature", "properties": {"start": "Pont-de-Claix", "stop_name": "Vif", "type": "Gare accessible", "icone": "Icon1"}, "geometry": {"type": "Point", "coordinates": [5.685425, 45.047669]}}]}