{"type": "FeatureCollection", "features": [{"type": "Feature", "properties": {"start": "Pont-de-Buis", "stop_name": "Pont-de-Buis", "type": "Gare s\u00e9lectionn\u00e9e", "iconstarte": "Icon2"}, "geometry": {"type": "Point", "coordinates": [-4.086123, 48.254402]}}, {"type": "Feature", "properties": {"start": "Pont-de-Buis", "stop_name": "Quimper", "type": "Gare accessible", "icone": "TER"}, "geometry": {"type": "Point", "coordinates": [-4.092103, 47.994455]}}, {"type": "Feature", "properties": {"start": "Pont-de-Buis", "stop_name": "Ch\u00e2teaulin", "type": "Gare accessible", "icone": "TER"}, "geometry": {"type": "Point", "coordinates": [-4.094308, 48.201603]}}, {"type": "Feature", "properties": {"start": "Pont-de-Buis", "stop_name": "Dirinon", "type": "Gare accessible", "icone": "TER"}, "geometry": {"type": "Point", "coordinates": [-4.285355, 48.392667]}}, {"type": "Feature", "properties": {"start": "Pont-de-Buis", "stop_name": "Landerneau", "type": "Gare accessible", "icone": "TER"}, "geometry": {"type": "Point", "coordinates": [-4.256528, 48.453572]}}, {"type": "Feature", "properties": {"start": "Pont-de-Buis", "stop_name": "Brest", "type": "Gare accessible", "icone": "TER"}, "geometry": {"type": "Point", "coordinates": [-4.480306, 48.38762]}}]}