{"type": "FeatureCollection", "features": [{"type": "Feature", "properties": {"stop_name": "Romelfing \u00c9glise", "type": "Gare s\u00e9lectionn\u00e9e"}, "geometry": {"type": "Point", "coordinates": [7.024711, 48.831804]}}, {"type": "Feature", "properties": {"stop_name": "Sarrebourg H\u00f4pital", "type": "Gare accessible"}, "geometry": {"type": "Point", "coordinates": [7.050648, 48.730495]}}, {"type": "Feature", "properties": {"stop_name": "Sarrebourg", "type": "Gare accessible"}, "geometry": {"type": "Point", "coordinates": [7.05285, 48.73808]}}, {"type": "Feature", "properties": {"stop_name": "Sarrebourg Place Mathey", "type": "Gare accessible"}, "geometry": {"type": "Point", "coordinates": [7.057152, 48.736878999999995]}}, {"type": "Feature", "properties": {"stop_name": "Sarraltroff Gare", "type": "Gare accessible"}, "geometry": {"type": "Point", "coordinates": [7.065614, 48.77005]}}, {"type": "Feature", "properties": {"stop_name": "Sarraltroff Mairie", "type": "Gare accessible"}, "geometry": {"type": "Point", "coordinates": [7.060816, 48.774013000000004]}}, {"type": "Feature", "properties": {"stop_name": "Sarraltroff Rue de F\u00e9n\u00e9trange", "type": "Gare accessible"}, "geometry": {"type": "Point", "coordinates": [7.056506, 48.77713]}}, {"type": "Feature", "properties": {"stop_name": "Oberstinzel Rue Principale", "type": "Gare accessible"}, "geometry": {"type": "Point", "coordinates": [7.034662, 48.792843]}}, {"type": "Feature", "properties": {"stop_name": "Bettborn Grand Rue", "type": "Gare accessible"}, "geometry": {"type": "Point", "coordinates": [7.020655, 48.801309]}}, {"type": "Feature", "properties": {"stop_name": "Berthelming Principale", "type": "Gare accessible"}, "geometry": {"type": "Point", "coordinates": [7.00887, 48.818607]}}, {"type": "Feature", "properties": {"stop_name": "Berthelming Mairie", "type": "Gare accessible"}, "geometry": {"type": "Point", "coordinates": [7.007105, 48.816176]}}, {"type": "Feature", "properties": {"stop_name": "F\u00e9n\u00e9trange Gendarmerie", "type": "Gare accessible"}, "geometry": {"type": "Point", "coordinates": [7.019818, 48.844289]}}, {"type": "Feature", "properties": {"stop_name": "Sarrebourg LP Messmer", "type": "Gare accessible"}, "geometry": {"type": "Point", "coordinates": [7.072717, 48.737334999999995]}}, {"type": "Feature", "properties": {"stop_name": "Dolving Rue de Sarrebourg", "type": "Gare accessible"}, "geometry": {"type": "Point", "coordinates": [7.021862, 48.772285]}}, {"type": "Feature", "properties": {"stop_name": "Gosselming Poste", "type": "Gare accessible"}, "geometry": {"type": "Point", "coordinates": [7.00551, 48.790791]}}, {"type": "Feature", "properties": {"stop_name": "Gosselming Mairie", "type": "Gare accessible"}, "geometry": {"type": "Point", "coordinates": [7.000769, 48.793028]}}, {"type": "Feature", "properties": {"stop_name": "Sarrebourg Mairie", "type": "Gare accessible"}, "geometry": {"type": "Point", "coordinates": [7.053491, 48.732884000000006]}}, {"type": "Feature", "properties": {"stop_name": "Sarrebourg Route de Phalsbourg", "type": "Gare accessible"}, "geometry": {"type": "Point", "coordinates": [7.066387, 48.73875]}}]}