{"type": "FeatureCollection", "features": [{"type": "Feature", "properties": {"start": "Royat - Chamali\u00e8res", "stop_name": "Royat - Chamali\u00e8res", "type": "Gare s\u00e9lectionn\u00e9e", "iconstarte": "Icon2"}, "geometry": {"type": "Point", "coordinates": [3.061503, 45.767617]}}, {"type": "Feature", "properties": {"start": "Royat - Chamali\u00e8res", "stop_name": "Volvic", "type": "Gare accessible", "icone": "Icon1"}, "geometry": {"type": "Point", "coordinates": [3.003083, 45.864649]}}, {"type": "Feature", "properties": {"start": "Royat - Chamali\u00e8res", "stop_name": "Durtol - Nohanent", "type": "Gare accessible", "icone": "Icon1"}, "geometry": {"type": "Point", "coordinates": [3.048593, 45.794792]}}, {"type": "Feature", "properties": {"start": "Royat - Chamali\u00e8res", "stop_name": "Clermont la Rotonde", "type": "Gare accessible", "icone": "Icon1"}, "geometry": {"type": "Point", "coordinates": [3.09097, 45.768095]}}, {"type": "Feature", "properties": {"start": "Royat - Chamali\u00e8res", "stop_name": "Clermont-Ferrand", "type": "Gare accessible", "icone": "Icon1"}, "geometry": {"type": "Point", "coordinates": [3.100543, 45.778945]}}]}