{"type": "FeatureCollection", "features": [{"type": "Feature", "properties": {"start": "Saint-Agne", "stop_name": "Saint-Agne", "type": "Gare s\u00e9lectionn\u00e9e", "iconstarte": "Icon2"}, "geometry": {"type": "Point", "coordinates": [1.45012, 43.579477]}}, {"type": "Feature", "properties": {"start": "Saint-Agne", "stop_name": "Auch", "type": "Gare accessible", "icone": "Icon1"}, "geometry": {"type": "Point", "coordinates": [0.596661, 43.647488]}}, {"type": "Feature", "properties": {"start": "Saint-Agne", "stop_name": "Aubiet", "type": "Gare accessible", "icone": "Icon1"}, "geometry": {"type": "Point", "coordinates": [0.789173, 43.650192]}}, {"type": "Feature", "properties": {"start": "Saint-Agne", "stop_name": "Gimont Cahuzac", "type": "Gare accessible", "icone": "Icon1"}, "geometry": {"type": "Point", "coordinates": [0.867711, 43.633194]}}, {"type": "Feature", "properties": {"start": "Saint-Agne", "stop_name": "L'Isle-Jourdain", "type": "Gare accessible", "icone": "Icon1"}, "geometry": {"type": "Point", "coordinates": [1.089829, 43.617185]}}, {"type": "Feature", "properties": {"start": "Saint-Agne", "stop_name": "M\u00e9renvielle", "type": "Gare accessible", "icone": "Icon1"}, "geometry": {"type": "Point", "coordinates": [1.15033, 43.636505]}}, {"type": "Feature", "properties": {"start": "Saint-Agne", "stop_name": "Brax - L\u00e9guevin", "type": "Gare accessible", "icone": "Icon1"}, "geometry": {"type": "Point", "coordinates": [1.236922, 43.614887]}}, {"type": "Feature", "properties": {"start": "Saint-Agne", "stop_name": "Pibrac", "type": "Gare accessible", "icone": "Icon1"}, "geometry": {"type": "Point", "coordinates": [1.289117, 43.621329]}}, {"type": "Feature", "properties": {"start": "Saint-Agne", "stop_name": "Colomiers Lyc\u00e9e International", "type": "Gare accessible", "icone": "Icon1"}, "geometry": {"type": "Point", "coordinates": [1.314116, 43.616306]}}, {"type": "Feature", "properties": {"start": "Saint-Agne", "stop_name": "Colomiers", "type": "Gare accessible", "icone": "Icon1"}, "geometry": {"type": "Point", "coordinates": [1.334221, 43.603734]}}, {"type": "Feature", "properties": {"start": "Saint-Agne", "stop_name": "Saint-Cyprien Ar\u00e8nes", "type": "Gare accessible", "icone": "Icon1"}, "geometry": {"type": "Point", "coordinates": [1.416493, 43.594048]}}, {"type": "Feature", "properties": {"start": "Saint-Agne", "stop_name": "Gallieni-Canc\u00e9rop\u00f4le", "type": "Gare accessible", "icone": "Icon1"}, "geometry": {"type": "Point", "coordinates": [1.41958, 43.573088]}}, {"type": "Feature", "properties": {"start": "Saint-Agne", "stop_name": "Toulouse Matabiau", "type": "Gare accessible", "icone": "Icon1"}, "geometry": {"type": "Point", "coordinates": [1.453616, 43.611206]}}, {"type": "Feature", "properties": {"start": "Saint-Agne", "stop_name": "Lardenne", "type": "Gare accessible", "icone": "Icon1"}, "geometry": {"type": "Point", "coordinates": [1.383056, 43.596688]}}, {"type": "Feature", "properties": {"start": "Saint-Agne", "stop_name": "Foix", "type": "Gare accessible", "icone": "Icon1"}, "geometry": {"type": "Point", "coordinates": [1.60704, 42.969707]}}, {"type": "Feature", "properties": {"start": "Saint-Agne", "stop_name": "Saint-Jean-de-Verges", "type": "Gare accessible", "icone": "Icon1"}, "geometry": {"type": "Point", "coordinates": [1.608105, 43.01259]}}, {"type": "Feature", "properties": {"start": "Saint-Agne", "stop_name": "Varilhes", "type": "Gare accessible", "icone": "Icon1"}, "geometry": {"type": "Point", "coordinates": [1.628318, 43.041594]}}, {"type": "Feature", "properties": {"start": "Saint-Agne", "stop_name": "Pamiers", "type": "Gare accessible", "icone": "Icon1"}, "geometry": {"type": "Point", "coordinates": [1.619451, 43.116207]}}, {"type": "Feature", "properties": {"start": "Saint-Agne", "stop_name": "Le Vernet d'Ari\u00e8ge", "type": "Gare accessible", "icone": "Icon1"}, "geometry": {"type": "Point", "coordinates": [1.611911, 43.189541]}}, {"type": "Feature", "properties": {"start": "Saint-Agne", "stop_name": "Saverdun", "type": "Gare accessible", "icone": "Icon1"}, "geometry": {"type": "Point", "coordinates": [1.570636, 43.239335]}}, {"type": "Feature", "properties": {"start": "Saint-Agne", "stop_name": "Cintegabelle", "type": "Gare accessible", "icone": "Icon1"}, "geometry": {"type": "Point", "coordinates": [1.520477, 43.305409]}}, {"type": "Feature", "properties": {"start": "Saint-Agne", "stop_name": "Auterive", "type": "Gare accessible", "icone": "Icon1"}, "geometry": {"type": "Point", "coordinates": [1.468831, 43.348993]}}, {"type": "Feature", "properties": {"start": "Saint-Agne", "stop_name": "Venerque - Le Vernet", "type": "Gare accessible", "icone": "Icon1"}, "geometry": {"type": "Point", "coordinates": [1.425956, 43.433359]}}, {"type": "Feature", "properties": {"start": "Saint-Agne", "stop_name": "Pins-Justaret", "type": "Gare accessible", "icone": "Icon1"}, "geometry": {"type": "Point", "coordinates": [1.399645, 43.479213]}}, {"type": "Feature", "properties": {"start": "Saint-Agne", "stop_name": "Portet Saint-Simon", "type": "Gare accessible", "icone": "Icon1"}, "geometry": {"type": "Point", "coordinates": [1.389243, 43.527904]}}, {"type": "Feature", "properties": {"start": "Saint-Agne", "stop_name": "Tarascon-sur-Ari\u00e8ge", "type": "Gare accessible", "icone": "Icon1"}, "geometry": {"type": "Point", "coordinates": [1.600042, 42.849498]}}, {"type": "Feature", "properties": {"start": "Saint-Agne", "stop_name": "Les Cabannes", "type": "Gare accessible", "icone": "Icon1"}, "geometry": {"type": "Point", "coordinates": [1.686299, 42.786285]}}, {"type": "Feature", "properties": {"start": "Saint-Agne", "stop_name": "Luzenac - Garanou", "type": "Gare accessible", "icone": "Icon1"}, "geometry": {"type": "Point", "coordinates": [1.753416, 42.764472]}}, {"type": "Feature", "properties": {"start": "Saint-Agne", "stop_name": "Ax-les-Thermes", "type": "Gare accessible", "icone": "Icon1"}, "geometry": {"type": "Point", "coordinates": [1.833295, 42.724841]}}, {"type": "Feature", "properties": {"start": "Saint-Agne", "stop_name": "Latour-de-Carol - Enveitg", "type": "Gare accessible", "icone": "Icon1"}, "geometry": {"type": "Point", "coordinates": [1.904433, 42.458991]}}, {"type": "Feature", "properties": {"start": "Saint-Agne", "stop_name": "Port\u00e9-Puymorens", "type": "Gare accessible", "icone": "Icon1"}, "geometry": {"type": "Point", "coordinates": [1.824852, 42.538781]}}, {"type": "Feature", "properties": {"start": "Saint-Agne", "stop_name": "Andorre l'Hospitalet", "type": "Gare accessible", "icone": "Icon1"}, "geometry": {"type": "Point", "coordinates": [1.800264, 42.589453]}}, {"type": "Feature", "properties": {"start": "Saint-Agne", "stop_name": "M\u00e9rens-les-Vals", "type": "Gare accessible", "icone": "Icon1"}, "geometry": {"type": "Point", "coordinates": [1.837128, 42.659488]}}, {"type": "Feature", "properties": {"start": "Saint-Agne", "stop_name": "Muret", "type": "Gare accessible", "icone": "Icon1"}, "geometry": {"type": "Point", "coordinates": [1.324449, 43.464824]}}, {"type": "Feature", "properties": {"start": "Saint-Agne", "stop_name": "Boussens", "type": "Gare accessible", "icone": "Icon1"}, "geometry": {"type": "Point", "coordinates": [0.972543, 43.179617]}}, {"type": "Feature", "properties": {"start": "Saint-Agne", "stop_name": "Martres-Tolosane", "type": "Gare accessible", "icone": "Icon1"}, "geometry": {"type": "Point", "coordinates": [1.016416, 43.196254]}}, {"type": "Feature", "properties": {"start": "Saint-Agne", "stop_name": "Caz\u00e8res", "type": "Gare accessible", "icone": "Icon1"}, "geometry": {"type": "Point", "coordinates": [1.083106, 43.212834]}}, {"type": "Feature", "properties": {"start": "Saint-Agne", "stop_name": "Carbonne", "type": "Gare accessible", "icone": "Icon1"}, "geometry": {"type": "Point", "coordinates": [1.212514, 43.298219]}}, {"type": "Feature", "properties": {"start": "Saint-Agne", "stop_name": "Longages - No\u00e9", "type": "Gare accessible", "icone": "Icon1"}, "geometry": {"type": "Point", "coordinates": [1.251657, 43.356471]}}, {"type": "Feature", "properties": {"start": "Saint-Agne", "stop_name": "Le Fauga", "type": "Gare accessible", "icone": "Icon1"}, "geometry": {"type": "Point", "coordinates": [1.28306, 43.404424]}}, {"type": "Feature", "properties": {"start": "Saint-Agne", "stop_name": "Saint-Martory", "type": "Gare accessible", "icone": "Icon1"}, "geometry": {"type": "Point", "coordinates": [0.934754, 43.138672]}}, {"type": "Feature", "properties": {"start": "Saint-Agne", "stop_name": "Saint-Gaudens", "type": "Gare accessible", "icone": "Icon1"}, "geometry": {"type": "Point", "coordinates": [0.729154, 43.105048]}}, {"type": "Feature", "properties": {"start": "Saint-Agne", "stop_name": "Montr\u00e9jeau - Gourdan-Polignan", "type": "Gare accessible", "icone": "Icon1"}, "geometry": {"type": "Point", "coordinates": [0.57359, 43.078085]}}, {"type": "Feature", "properties": {"start": "Saint-Agne", "stop_name": "Lannemezan", "type": "Gare accessible", "icone": "Icon1"}, "geometry": {"type": "Point", "coordinates": [0.387367, 43.114273]}}, {"type": "Feature", "properties": {"start": "Saint-Agne", "stop_name": "Capvern", "type": "Gare accessible", "icone": "Icon1"}, "geometry": {"type": "Point", "coordinates": [0.329639, 43.103345]}}, {"type": "Feature", "properties": {"start": "Saint-Agne", "stop_name": "Tournay", "type": "Gare accessible", "icone": "Icon1"}, "geometry": {"type": "Point", "coordinates": [0.23915, 43.183662]}}, {"type": "Feature", "properties": {"start": "Saint-Agne", "stop_name": "Tarbes", "type": "Gare accessible", "icone": "Icon1"}, "geometry": {"type": "Point", "coordinates": [0.069442, 43.239863]}}, {"type": "Feature", "properties": {"start": "Saint-Agne", "stop_name": "Lourdes", "type": "Gare accessible", "icone": "Icon1"}, "geometry": {"type": "Point", "coordinates": [-0.042186, 43.100429]}}, {"type": "Feature", "properties": {"start": "Saint-Agne", "stop_name": "Coarraze - Nay", "type": "Gare accessible", "icone": "Icon1"}, "geometry": {"type": "Point", "coordinates": [-0.241699, 43.18183]}}, {"type": "Feature", "properties": {"start": "Saint-Agne", "stop_name": "Pau", "type": "Gare accessible", "icone": "Icon1"}, "geometry": {"type": "Point", "coordinates": [-0.369675, 43.291711]}}]}