{"type": "FeatureCollection", "features": [{"type": "Feature", "properties": {"start": "Saint-L\u00e9ger-sur-Dheune", "stop_name": "Saint-L\u00e9ger-sur-Dheune", "type": "Gare s\u00e9lectionn\u00e9e", "iconstarte": "Icon2"}, "geometry": {"type": "Point", "coordinates": [4.628604, 46.848453]}}, {"type": "Feature", "properties": {"start": "Saint-L\u00e9ger-sur-Dheune", "stop_name": "Chalon-sur-Sa\u00f4ne", "type": "Gare accessible", "icone": "Icon1"}, "geometry": {"type": "Point", "coordinates": [4.843479, 46.781622]}}, {"type": "Feature", "properties": {"start": "Saint-L\u00e9ger-sur-Dheune", "stop_name": "Chagny", "type": "Gare accessible", "icone": "Icon1"}, "geometry": {"type": "Point", "coordinates": [4.749613, 46.907424]}}, {"type": "Feature", "properties": {"start": "Saint-L\u00e9ger-sur-Dheune", "stop_name": "Santenay les Bains", "type": "Gare accessible", "icone": "Icon1"}, "geometry": {"type": "Point", "coordinates": [4.701641, 46.910682]}}, {"type": "Feature", "properties": {"start": "Saint-L\u00e9ger-sur-Dheune", "stop_name": "Cheilly-l\u00e8s-Maranges", "type": "Gare accessible", "icone": "Icon1"}, "geometry": {"type": "Point", "coordinates": [4.67579, 46.892569]}}, {"type": "Feature", "properties": {"start": "Saint-L\u00e9ger-sur-Dheune", "stop_name": "Montchanin", "type": "Gare accessible", "icone": "Icon1"}, "geometry": {"type": "Point", "coordinates": [4.48147, 46.759211]}}]}