{"type": "FeatureCollection", "features": [{"type": "Feature", "properties": {"stop_name": "Saint-Martin-d'H\u00e8res", "type": "Gare s\u00e9lectionn\u00e9e"}, "geometry": {"type": "Point", "coordinates": [5.768919, 45.193022]}}, {"type": "Feature", "properties": {"stop_name": "\u00c9vian-les-Bains", "type": "Gare accessible"}, "geometry": {"type": "Point", "coordinates": [6.577469, 46.397915999999995]}}, {"type": "Feature", "properties": {"stop_name": "Thonon-les-Bains", "type": "Gare accessible"}, "geometry": {"type": "Point", "coordinates": [6.481673, 46.368989]}}, {"type": "Feature", "properties": {"stop_name": "Bons-en-Chablais", "type": "Gare accessible"}, "geometry": {"type": "Point", "coordinates": [6.36647, 46.270109999999995]}}, {"type": "Feature", "properties": {"stop_name": "Annemasse", "type": "Gare accessible"}, "geometry": {"type": "Point", "coordinates": [6.236431, 46.199245]}}, {"type": "Feature", "properties": {"stop_name": "Saint-Julien-en-Genevois", "type": "Gare accessible"}, "geometry": {"type": "Point", "coordinates": [6.085527, 46.142075]}}, {"type": "Feature", "properties": {"stop_name": "Grenoble-Eug\u00e8ne-Chavant", "type": "Gare accessible"}, "geometry": {"type": "Point", "coordinates": [5.724751, 45.172844]}}, {"type": "Feature", "properties": {"stop_name": "Grenoble-Victor-Hugo", "type": "Gare accessible"}, "geometry": {"type": "Point", "coordinates": [5.724939, 45.188404999999996]}}, {"type": "Feature", "properties": {"stop_name": "Grenoble", "type": "Gare accessible"}, "geometry": {"type": "Point", "coordinates": [5.714366, 45.192693]}}, {"type": "Feature", "properties": {"stop_name": "Modane", "type": "Gare accessible"}, "geometry": {"type": "Point", "coordinates": [6.659139, 45.193554999999996]}}, {"type": "Feature", "properties": {"stop_name": "Saint-Michel - Valloire", "type": "Gare accessible"}, "geometry": {"type": "Point", "coordinates": [6.471914, 45.216916]}}, {"type": "Feature", "properties": {"stop_name": "Saint-Jean-de-Maurienne Arvan", "type": "Gare accessible"}, "geometry": {"type": "Point", "coordinates": [6.354716, 45.277542]}}, {"type": "Feature", "properties": {"stop_name": "Saint-Avre - La Chambre", "type": "Gare accessible"}, "geometry": {"type": "Point", "coordinates": [6.302867, 45.353120000000004]}}, {"type": "Feature", "properties": {"stop_name": "Chamonix-Mont-Blanc", "type": "Gare accessible"}, "geometry": {"type": "Point", "coordinates": [6.87363, 45.92277]}}, {"type": "Feature", "properties": {"stop_name": "Saint-Gervais-les-Bains Le Fayet", "type": "Gare accessible"}, "geometry": {"type": "Point", "coordinates": [6.701331, 45.906423]}}, {"type": "Feature", "properties": {"stop_name": "Sallanches - Combloux - Meg\u00e8ve", "type": "Gare accessible"}, "geometry": {"type": "Point", "coordinates": [6.636458, 45.935699]}}, {"type": "Feature", "properties": {"stop_name": "Meg\u00e8ve-Autogare", "type": "Gare accessible"}, "geometry": {"type": "Point", "coordinates": [6.618276, 45.858829]}}, {"type": "Feature", "properties": {"stop_name": "Praz-sur-Arly Office de Tourisme", "type": "Gare accessible"}, "geometry": {"type": "Point", "coordinates": [6.577007, 45.839413]}}, {"type": "Feature", "properties": {"stop_name": "Flumet-Office-de-Tourisme", "type": "Gare accessible"}, "geometry": {"type": "Point", "coordinates": [6.513975, 45.817764000000004]}}, {"type": "Feature", "properties": {"stop_name": "Ugine-Place-du-Val-d'Arly", "type": "Gare accessible"}, "geometry": {"type": "Point", "coordinates": [6.42127, 45.746294]}}, {"type": "Feature", "properties": {"stop_name": "Albertville", "type": "Gare accessible"}, "geometry": {"type": "Point", "coordinates": [6.383167, 45.672977]}}, {"type": "Feature", "properties": {"stop_name": "Bourg-Saint-Maurice", "type": "Gare accessible"}, "geometry": {"type": "Point", "coordinates": [6.771273, 45.619036]}}, {"type": "Feature", "properties": {"stop_name": "Aime - La Plagne", "type": "Gare accessible"}, "geometry": {"type": "Point", "coordinates": [6.648614, 45.554387]}}, {"type": "Feature", "properties": {"stop_name": "Mo\u00fbtiers-Salins-Brides-les-B.", "type": "Gare accessible"}, "geometry": {"type": "Point", "coordinates": [6.531399, 45.486470000000004]}}, {"type": "Feature", "properties": {"stop_name": "Aubenas Place de la Paix", "type": "Gare accessible"}, "geometry": {"type": "Point", "coordinates": [4.38922, 44.618128999999996]}}, {"type": "Feature", "properties": {"stop_name": "Aubenas Gare Routi\u00e8re", "type": "Gare accessible"}, "geometry": {"type": "Point", "coordinates": [4.407164, 44.61095]}}, {"type": "Feature", "properties": {"stop_name": "Lavilledieu Centre", "type": "Gare accessible"}, "geometry": {"type": "Point", "coordinates": [4.455409, 44.574187]}}, {"type": "Feature", "properties": {"stop_name": "Villeneuve-de-Berg-Centre", "type": "Gare accessible"}, "geometry": {"type": "Point", "coordinates": [4.498102, 44.554919]}}, {"type": "Feature", "properties": {"stop_name": "Saint-Jean-le-Centenier Centre", "type": "Gare accessible"}, "geometry": {"type": "Point", "coordinates": [4.536514, 44.58959]}}, {"type": "Feature", "properties": {"stop_name": "Alba-la-Romaine Ruines Romaines", "type": "Gare accessible"}, "geometry": {"type": "Point", "coordinates": [4.587551, 44.570312]}}, {"type": "Feature", "properties": {"stop_name": "Le Teil Sablons", "type": "Gare accessible"}, "geometry": {"type": "Point", "coordinates": [4.685618, 44.5527]}}, {"type": "Feature", "properties": {"stop_name": "Grenoble-Champollion", "type": "Gare accessible"}, "geometry": {"type": "Point", "coordinates": [5.725304, 45.186336]}}, {"type": "Feature", "properties": {"stop_name": "Montelimar Gare Routi\u00e8re", "type": "Gare accessible"}, "geometry": {"type": "Point", "coordinates": [4.745107, 44.559439000000005]}}, {"type": "Feature", "properties": {"stop_name": "Privas-Cours-du-Palais", "type": "Gare accessible"}, "geometry": {"type": "Point", "coordinates": [4.600045, 44.734577]}}, {"type": "Feature", "properties": {"stop_name": "COUX Centre", "type": "Gare accessible"}, "geometry": {"type": "Point", "coordinates": [4.623871, 44.736095]}}, {"type": "Feature", "properties": {"stop_name": "FLAVIAC Ren\u00e9 Cassin", "type": "Gare accessible"}, "geometry": {"type": "Point", "coordinates": [4.674194, 44.746402]}}, {"type": "Feature", "properties": {"stop_name": "Saint-Julien-en-Saint-Alban Centre", "type": "Gare accessible"}, "geometry": {"type": "Point", "coordinates": [4.69801, 44.754225]}}, {"type": "Feature", "properties": {"stop_name": "Le Pouzin Place Mar\u00e9chal Leclerc", "type": "Gare accessible"}, "geometry": {"type": "Point", "coordinates": [4.747765, 44.756135]}}, {"type": "Feature", "properties": {"stop_name": "La Voulte-sur-Rh\u00f4ne Mairie", "type": "Gare accessible"}, "geometry": {"type": "Point", "coordinates": [4.781381, 44.799428999999996]}}, {"type": "Feature", "properties": {"stop_name": "Charmes-sur-Rh\u00f4ne-centre", "type": "Gare accessible"}, "geometry": {"type": "Point", "coordinates": [4.834876, 44.862645]}}, {"type": "Feature", "properties": {"stop_name": "Annonay-Gare Routi\u00e8re", "type": "Gare accessible"}, "geometry": {"type": "Point", "coordinates": [4.66863, 45.24373]}}, {"type": "Feature", "properties": {"stop_name": "Tournon-Centre", "type": "Gare accessible"}, "geometry": {"type": "Point", "coordinates": [4.83421, 45.062979999999996]}}, {"type": "Feature", "properties": {"stop_name": "Tain-l'Hermitage - Tournon", "type": "Gare accessible"}, "geometry": {"type": "Point", "coordinates": [4.839708, 45.072178]}}, {"type": "Feature", "properties": {"stop_name": "Valence TGV Rh\u00f4ne-Alpes Sud", "type": "Gare accessible"}, "geometry": {"type": "Point", "coordinates": [4.978652, 44.991907]}}]}