{"type": "FeatureCollection", "features": [{"type": "Feature", "properties": {"start": "Saint-Denis-Pr\u00e8s-Martel", "stop_name": "Saint-Denis-Pr\u00e8s-Martel", "type": "Gare s\u00e9lectionn\u00e9e", "iconstarte": "Icon2"}, "geometry": {"type": "Point", "coordinates": [1.666238, 44.946029]}}, {"type": "Feature", "properties": {"start": "Saint-Denis-Pr\u00e8s-Martel", "stop_name": "Rodez", "type": "Gare accessible", "icone": "Icon1"}, "geometry": {"type": "Point", "coordinates": [2.58056, 44.362633]}}, {"type": "Feature", "properties": {"start": "Saint-Denis-Pr\u00e8s-Martel", "stop_name": "Saint-Christophe", "type": "Gare accessible", "icone": "Icon1"}, "geometry": {"type": "Point", "coordinates": [2.407758, 44.464619]}}, {"type": "Feature", "properties": {"start": "Saint-Denis-Pr\u00e8s-Martel", "stop_name": "Cransac", "type": "Gare accessible", "icone": "Icon1"}, "geometry": {"type": "Point", "coordinates": [2.271867, 44.522951]}}, {"type": "Feature", "properties": {"start": "Saint-Denis-Pr\u00e8s-Martel", "stop_name": "Aubin", "type": "Gare accessible", "icone": "Icon1"}, "geometry": {"type": "Point", "coordinates": [2.239313, 44.527276]}}, {"type": "Feature", "properties": {"start": "Saint-Denis-Pr\u00e8s-Martel", "stop_name": "Viviez - Decazeville", "type": "Gare accessible", "icone": "Icon1"}, "geometry": {"type": "Point", "coordinates": [2.218258, 44.555568]}}, {"type": "Feature", "properties": {"start": "Saint-Denis-Pr\u00e8s-Martel", "stop_name": "Capdenac", "type": "Gare accessible", "icone": "Icon1"}, "geometry": {"type": "Point", "coordinates": [2.077963, 44.578246]}}, {"type": "Feature", "properties": {"start": "Saint-Denis-Pr\u00e8s-Martel", "stop_name": "Figeac", "type": "Gare accessible", "icone": "Icon1"}, "geometry": {"type": "Point", "coordinates": [2.037355, 44.603515]}}, {"type": "Feature", "properties": {"start": "Saint-Denis-Pr\u00e8s-Martel", "stop_name": "Assier", "type": "Gare accessible", "icone": "Icon1"}, "geometry": {"type": "Point", "coordinates": [1.869757, 44.67468]}}, {"type": "Feature", "properties": {"start": "Saint-Denis-Pr\u00e8s-Martel", "stop_name": "Gramat", "type": "Gare accessible", "icone": "Icon1"}, "geometry": {"type": "Point", "coordinates": [1.722343, 44.773549]}}, {"type": "Feature", "properties": {"start": "Saint-Denis-Pr\u00e8s-Martel", "stop_name": "Rocamadour - Padirac", "type": "Gare accessible", "icone": "Icon1"}, "geometry": {"type": "Point", "coordinates": [1.657104, 44.818243]}}, {"type": "Feature", "properties": {"start": "Saint-Denis-Pr\u00e8s-Martel", "stop_name": "Les Quatre-Routes", "type": "Gare accessible", "icone": "Icon1"}, "geometry": {"type": "Point", "coordinates": [1.643914, 44.997639]}}, {"type": "Feature", "properties": {"start": "Saint-Denis-Pr\u00e8s-Martel", "stop_name": "Brive-la-Gaillarde", "type": "Gare accessible", "icone": "Icon1"}, "geometry": {"type": "Point", "coordinates": [1.528634, 45.152601]}}, {"type": "Feature", "properties": {"start": "Saint-Denis-Pr\u00e8s-Martel", "stop_name": "Turenne", "type": "Gare accessible", "icone": "Icon1"}, "geometry": {"type": "Point", "coordinates": [1.600704, 45.037954]}}, {"type": "Feature", "properties": {"start": "Saint-Denis-Pr\u00e8s-Martel", "stop_name": "Aurillac", "type": "Gare accessible", "icone": "Icon1"}, "geometry": {"type": "Point", "coordinates": [2.435583, 44.921041]}}, {"type": "Feature", "properties": {"start": "Saint-Denis-Pr\u00e8s-Martel", "stop_name": "Laroquebrou", "type": "Gare accessible", "icone": "Icon1"}, "geometry": {"type": "Point", "coordinates": [2.193081, 44.964267]}}, {"type": "Feature", "properties": {"start": "Saint-Denis-Pr\u00e8s-Martel", "stop_name": "Laval-de-C\u00e8re", "type": "Gare accessible", "icone": "Icon1"}, "geometry": {"type": "Point", "coordinates": [1.931781, 44.951167]}}, {"type": "Feature", "properties": {"start": "Saint-Denis-Pr\u00e8s-Martel", "stop_name": "Bretenoux - Biars", "type": "Gare accessible", "icone": "Icon1"}, "geometry": {"type": "Point", "coordinates": [1.844383, 44.927466]}}, {"type": "Feature", "properties": {"start": "Saint-Denis-Pr\u00e8s-Martel", "stop_name": "Puybrun", "type": "Gare accessible", "icone": "Icon1"}, "geometry": {"type": "Point", "coordinates": [1.784281, 44.921771]}}, {"type": "Feature", "properties": {"start": "Saint-Denis-Pr\u00e8s-Martel", "stop_name": "Vayrac", "type": "Gare accessible", "icone": "Icon1"}, "geometry": {"type": "Point", "coordinates": [1.70635, 44.950301]}}, {"type": "Feature", "properties": {"start": "Saint-Denis-Pr\u00e8s-Martel", "stop_name": "B\u00e9taille", "type": "Gare accessible", "icone": "Icon1"}, "geometry": {"type": "Point", "coordinates": [1.734326, 44.942455]}}]}