{"type": "FeatureCollection", "features": [{"type": "Feature", "properties": {"start": "Saint-Andr\u00e9-de-Cubzac", "stop_name": "Saint-Andr\u00e9-de-Cubzac", "type": "Gare s\u00e9lectionn\u00e9e", "iconstarte": "Icon2"}, "geometry": {"type": "Point", "coordinates": [-0.44048, 44.99122]}}, {"type": "Feature", "properties": {"start": "Saint-Andr\u00e9-de-Cubzac", "stop_name": "Saintes", "type": "Gare accessible", "icone": "Icon1"}, "geometry": {"type": "Point", "coordinates": [-0.6179, 45.74874]}}, {"type": "Feature", "properties": {"start": "Saint-Andr\u00e9-de-Cubzac", "stop_name": "Pons", "type": "Gare accessible", "icone": "Icon1"}, "geometry": {"type": "Point", "coordinates": [-0.539021, 45.578213]}}, {"type": "Feature", "properties": {"start": "Saint-Andr\u00e9-de-Cubzac", "stop_name": "Jonzac", "type": "Gare accessible", "icone": "Icon1"}, "geometry": {"type": "Point", "coordinates": [-0.44164, 45.438746]}}, {"type": "Feature", "properties": {"start": "Saint-Andr\u00e9-de-Cubzac", "stop_name": "Montendre", "type": "Gare accessible", "icone": "Icon1"}, "geometry": {"type": "Point", "coordinates": [-0.396233, 45.280514]}}, {"type": "Feature", "properties": {"start": "Saint-Andr\u00e9-de-Cubzac", "stop_name": "Saint-Mariens - Saint-Yzan", "type": "Gare accessible", "icone": "Icon1"}, "geometry": {"type": "Point", "coordinates": [-0.391834, 45.139057]}}, {"type": "Feature", "properties": {"start": "Saint-Andr\u00e9-de-Cubzac", "stop_name": "Cenon", "type": "Gare accessible", "icone": "Icon1"}, "geometry": {"type": "Point", "coordinates": [-0.533649, 44.856347]}}, {"type": "Feature", "properties": {"start": "Saint-Andr\u00e9-de-Cubzac", "stop_name": "Bordeaux Saint-Jean", "type": "Gare accessible", "icone": "Icon1"}, "geometry": {"type": "Point", "coordinates": [-0.556697, 44.825873]}}, {"type": "Feature", "properties": {"start": "Saint-Andr\u00e9-de-Cubzac", "stop_name": "Bussac", "type": "Gare accessible", "icone": "Icon1"}, "geometry": {"type": "Point", "coordinates": [-0.368249, 45.212034]}}, {"type": "Feature", "properties": {"start": "Saint-Andr\u00e9-de-Cubzac", "stop_name": "Rochefort", "type": "Gare accessible", "icone": "Icon1"}, "geometry": {"type": "Point", "coordinates": [-0.963556, 45.947189]}}, {"type": "Feature", "properties": {"start": "Saint-Andr\u00e9-de-Cubzac", "stop_name": "Ch\u00e2telaillon", "type": "Gare accessible", "icone": "Icon1"}, "geometry": {"type": "Point", "coordinates": [-1.091118, 46.078282]}}, {"type": "Feature", "properties": {"start": "Saint-Andr\u00e9-de-Cubzac", "stop_name": "La Rochelle", "type": "Gare accessible", "icone": "Icon1"}, "geometry": {"type": "Point", "coordinates": [-1.145853, 46.152705]}}, {"type": "Feature", "properties": {"start": "Saint-Andr\u00e9-de-Cubzac", "stop_name": "La Rochelle Porte Dauphine", "type": "Gare accessible", "icone": "Icon1"}, "geometry": {"type": "Point", "coordinates": [-1.151875, 46.167616]}}, {"type": "Feature", "properties": {"start": "Saint-Andr\u00e9-de-Cubzac", "stop_name": "Cavignac", "type": "Gare accessible", "icone": "Icon1"}, "geometry": {"type": "Point", "coordinates": [-0.382243, 45.105163]}}, {"type": "Feature", "properties": {"start": "Saint-Andr\u00e9-de-Cubzac", "stop_name": "Gauriaguet", "type": "Gare accessible", "icone": "Icon1"}, "geometry": {"type": "Point", "coordinates": [-0.399284, 45.054345]}}, {"type": "Feature", "properties": {"start": "Saint-Andr\u00e9-de-Cubzac", "stop_name": "Aubie - Saint-Antoine", "type": "Gare accessible", "icone": "Icon1"}, "geometry": {"type": "Point", "coordinates": [-0.419895, 45.015139]}}, {"type": "Feature", "properties": {"start": "Saint-Andr\u00e9-de-Cubzac", "stop_name": "Cubzac-les-Ponts", "type": "Gare accessible", "icone": "Icon1"}, "geometry": {"type": "Point", "coordinates": [-0.45901, 44.973115]}}, {"type": "Feature", "properties": {"start": "Saint-Andr\u00e9-de-Cubzac", "stop_name": "La Grave d'Ambar\u00e8s", "type": "Gare accessible", "icone": "Icon1"}, "geometry": {"type": "Point", "coordinates": [-0.476553, 44.935793]}}, {"type": "Feature", "properties": {"start": "Saint-Andr\u00e9-de-Cubzac", "stop_name": "Sainte-Eulalie - Carbon-Blanc", "type": "Gare accessible", "icone": "Icon1"}, "geometry": {"type": "Point", "coordinates": [-0.493752, 44.897919]}}]}