{"type": "FeatureCollection", "features": [{"type": "Feature", "properties": {"start": "Saint-Omer", "stop_name": "Saint-Omer", "type": "Gare s\u00e9lectionn\u00e9e", "iconstarte": "Icon2"}, "geometry": {"type": "Point", "coordinates": [2.266719, 50.753618]}}, {"type": "Feature", "properties": {"start": "Saint-Omer", "stop_name": "Calais Ville", "type": "Gare accessible", "icone": "Icon1"}, "geometry": {"type": "Point", "coordinates": [1.850885, 50.953466]}}, {"type": "Feature", "properties": {"start": "Saint-Omer", "stop_name": "Les Fontinettes", "type": "Gare accessible", "icone": "Icon1"}, "geometry": {"type": "Point", "coordinates": [1.849858, 50.941002]}}, {"type": "Feature", "properties": {"start": "Saint-Omer", "stop_name": "Audruicq", "type": "Gare accessible", "icone": "Icon1"}, "geometry": {"type": "Point", "coordinates": [2.07633, 50.875668]}}, {"type": "Feature", "properties": {"start": "Saint-Omer", "stop_name": "Watten - \u00c9perlecques", "type": "Gare accessible", "icone": "Icon1"}, "geometry": {"type": "Point", "coordinates": [2.207597, 50.826125]}}, {"type": "Feature", "properties": {"start": "Saint-Omer", "stop_name": "Hazebrouck", "type": "Gare accessible", "icone": "Icon1"}, "geometry": {"type": "Point", "coordinates": [2.541463, 50.724924]}}, {"type": "Feature", "properties": {"start": "Saint-Omer", "stop_name": "Bailleul", "type": "Gare accessible", "icone": "Icon1"}, "geometry": {"type": "Point", "coordinates": [2.734485, 50.729167]}}, {"type": "Feature", "properties": {"start": "Saint-Omer", "stop_name": "Armenti\u00e8res", "type": "Gare accessible", "icone": "Icon1"}, "geometry": {"type": "Point", "coordinates": [2.87768, 50.680848]}}, {"type": "Feature", "properties": {"start": "Saint-Omer", "stop_name": "Lille Centre Hospitalier R\u00e9gional", "type": "Gare accessible", "icone": "Icon1"}, "geometry": {"type": "Point", "coordinates": [3.034278, 50.614297]}}, {"type": "Feature", "properties": {"start": "Saint-Omer", "stop_name": "Don - Sainghin", "type": "Gare accessible", "icone": "Icon1"}, "geometry": {"type": "Point", "coordinates": [2.914402, 50.551726]}}, {"type": "Feature", "properties": {"start": "Saint-Omer", "stop_name": "Lens", "type": "Gare accessible", "icone": "Icon1"}, "geometry": {"type": "Point", "coordinates": [2.828301, 50.426866]}}, {"type": "Feature", "properties": {"start": "Saint-Omer", "stop_name": "Lille Porte de Douai", "type": "Gare accessible", "icone": "Icon1"}, "geometry": {"type": "Point", "coordinates": [3.075075, 50.612114]}}, {"type": "Feature", "properties": {"start": "Saint-Omer", "stop_name": "Wavrin", "type": "Gare accessible", "icone": "Icon1"}, "geometry": {"type": "Point", "coordinates": [2.936654, 50.574424]}}, {"type": "Feature", "properties": {"start": "Saint-Omer", "stop_name": "Bauvin - Provin", "type": "Gare accessible", "icone": "Icon1"}, "geometry": {"type": "Point", "coordinates": [2.90543, 50.511557]}}, {"type": "Feature", "properties": {"start": "Saint-Omer", "stop_name": "Meurchin", "type": "Gare accessible", "icone": "Icon1"}, "geometry": {"type": "Point", "coordinates": [2.892738, 50.496717]}}, {"type": "Feature", "properties": {"start": "Saint-Omer", "stop_name": "Pont-\u00e0-Vendin", "type": "Gare accessible", "icone": "Icon1"}, "geometry": {"type": "Point", "coordinates": [2.875266, 50.471303]}}, {"type": "Feature", "properties": {"start": "Saint-Omer", "stop_name": "Sallaumines", "type": "Gare accessible", "icone": "Icon1"}, "geometry": {"type": "Point", "coordinates": [2.855759, 50.42229]}}, {"type": "Feature", "properties": {"start": "Saint-Omer", "stop_name": "Lille Flandres", "type": "Gare accessible", "icone": "Icon1"}, "geometry": {"type": "Point", "coordinates": [3.06987, 50.636577]}}, {"type": "Feature", "properties": {"start": "Saint-Omer", "stop_name": "Pont d'Ardres", "type": "Gare accessible", "icone": "Icon1"}, "geometry": {"type": "Point", "coordinates": [1.970791, 50.892121]}}, {"type": "Feature", "properties": {"start": "Saint-Omer", "stop_name": "Nortkerque", "type": "Gare accessible", "icone": "Icon1"}, "geometry": {"type": "Point", "coordinates": [2.02363, 50.882822]}}, {"type": "Feature", "properties": {"start": "Saint-Omer", "stop_name": "Ruminghem", "type": "Gare accessible", "icone": "Icon1"}, "geometry": {"type": "Point", "coordinates": [2.158317, 50.861744]}}, {"type": "Feature", "properties": {"start": "Saint-Omer", "stop_name": "Renescure", "type": "Gare accessible", "icone": "Icon1"}, "geometry": {"type": "Point", "coordinates": [2.371364, 50.732006]}}, {"type": "Feature", "properties": {"start": "Saint-Omer", "stop_name": "Ebblinghem", "type": "Gare accessible", "icone": "Icon1"}, "geometry": {"type": "Point", "coordinates": [2.409058, 50.730637]}}, {"type": "Feature", "properties": {"start": "Saint-Omer", "stop_name": "Berguette - Isbergues", "type": "Gare accessible", "icone": "Icon1"}, "geometry": {"type": "Point", "coordinates": [2.462786, 50.61379]}}, {"type": "Feature", "properties": {"start": "Saint-Omer", "stop_name": "Ham-en-Artois", "type": "Gare accessible", "icone": "Icon1"}, "geometry": {"type": "Point", "coordinates": [2.46576, 50.590055]}}, {"type": "Feature", "properties": {"start": "Saint-Omer", "stop_name": "Lillers", "type": "Gare accessible", "icone": "Icon1"}, "geometry": {"type": "Point", "coordinates": [2.478906, 50.561711]}}, {"type": "Feature", "properties": {"start": "Saint-Omer", "stop_name": "B\u00e9thune", "type": "Gare accessible", "icone": "Icon1"}, "geometry": {"type": "Point", "coordinates": [2.640509, 50.521454]}}, {"type": "Feature", "properties": {"start": "Saint-Omer", "stop_name": "Noeux-Les-Mines", "type": "Gare accessible", "icone": "Icon1"}, "geometry": {"type": "Point", "coordinates": [2.673969, 50.48296]}}, {"type": "Feature", "properties": {"start": "Saint-Omer", "stop_name": "Bully - Grenay", "type": "Gare accessible", "icone": "Icon1"}, "geometry": {"type": "Point", "coordinates": [2.733391, 50.448357]}}, {"type": "Feature", "properties": {"start": "Saint-Omer", "stop_name": "Li\u00e9vin", "type": "Gare accessible", "icone": "Icon1"}, "geometry": {"type": "Point", "coordinates": [2.771851, 50.434247]}}, {"type": "Feature", "properties": {"start": "Saint-Omer", "stop_name": "Avion", "type": "Gare accessible", "icone": "Icon1"}, "geometry": {"type": "Point", "coordinates": [2.83363, 50.40721]}}, {"type": "Feature", "properties": {"start": "Saint-Omer", "stop_name": "Vimy", "type": "Gare accessible", "icone": "Icon1"}, "geometry": {"type": "Point", "coordinates": [2.82192, 50.374013]}}, {"type": "Feature", "properties": {"start": "Saint-Omer", "stop_name": "Arras", "type": "Gare accessible", "icone": "Icon1"}, "geometry": {"type": "Point", "coordinates": [2.781314, 50.286971]}}]}