{"type": "FeatureCollection", "features": [{"type": "Feature", "properties": {"start": "Saint-Julien-en-Genevois", "stop_name": "Saint-Julien-en-Genevois", "type": "Gare s\u00e9lectionn\u00e9e", "iconstarte": "Icon2"}, "geometry": {"type": "Point", "coordinates": [6.085527, 46.142075]}}, {"type": "Feature", "properties": {"start": "Saint-Julien-en-Genevois", "stop_name": "Bellegarde", "type": "Gare accessible", "icone": "Icon1"}, "geometry": {"type": "Point", "coordinates": [5.823483, 46.109425]}}, {"type": "Feature", "properties": {"start": "Saint-Julien-en-Genevois", "stop_name": "Valleiry", "type": "Gare accessible", "icone": "Icon1"}, "geometry": {"type": "Point", "coordinates": [5.967379, 46.109343]}}, {"type": "Feature", "properties": {"start": "Saint-Julien-en-Genevois", "stop_name": "Annemasse", "type": "Gare accessible", "icone": "Icon1"}, "geometry": {"type": "Point", "coordinates": [6.236431, 46.199245]}}, {"type": "Feature", "properties": {"start": "Saint-Julien-en-Genevois", "stop_name": "Machilly", "type": "Gare accessible", "icone": "Icon1"}, "geometry": {"type": "Point", "coordinates": [6.328197, 46.251292]}}, {"type": "Feature", "properties": {"start": "Saint-Julien-en-Genevois", "stop_name": "Bons-en-Chablais", "type": "Gare accessible", "icone": "Icon1"}, "geometry": {"type": "Point", "coordinates": [6.36647, 46.27011]}}, {"type": "Feature", "properties": {"start": "Saint-Julien-en-Genevois", "stop_name": "Perrignier", "type": "Gare accessible", "icone": "Icon1"}, "geometry": {"type": "Point", "coordinates": [6.424888, 46.303341]}}, {"type": "Feature", "properties": {"start": "Saint-Julien-en-Genevois", "stop_name": "Thonon-les-Bains", "type": "Gare accessible", "icone": "Icon1"}, "geometry": {"type": "Point", "coordinates": [6.481673, 46.368989]}}, {"type": "Feature", "properties": {"start": "Saint-Julien-en-Genevois", "stop_name": "\u00c9vian-les-Bains", "type": "Gare accessible", "icone": "Icon1"}, "geometry": {"type": "Point", "coordinates": [6.577469, 46.397916]}}, {"type": "Feature", "properties": {"start": "Saint-Julien-en-Genevois", "stop_name": "Reignier", "type": "Gare accessible", "icone": "Icon1"}, "geometry": {"type": "Point", "coordinates": [6.267539, 46.125636]}}, {"type": "Feature", "properties": {"start": "Saint-Julien-en-Genevois", "stop_name": "La Roche-sur-Foron", "type": "Gare accessible", "icone": "Icon1"}, "geometry": {"type": "Point", "coordinates": [6.30384, 46.067542]}}, {"type": "Feature", "properties": {"start": "Saint-Julien-en-Genevois", "stop_name": "Saint-Pierre-en-Faucigny", "type": "Gare accessible", "icone": "Icon1"}, "geometry": {"type": "Point", "coordinates": [6.375782, 46.059357]}}, {"type": "Feature", "properties": {"start": "Saint-Julien-en-Genevois", "stop_name": "Bonneville", "type": "Gare accessible", "icone": "Icon1"}, "geometry": {"type": "Point", "coordinates": [6.416493, 46.077752]}}, {"type": "Feature", "properties": {"start": "Saint-Julien-en-Genevois", "stop_name": "Marignier", "type": "Gare accessible", "icone": "Icon1"}, "geometry": {"type": "Point", "coordinates": [6.507849, 46.088786]}}, {"type": "Feature", "properties": {"start": "Saint-Julien-en-Genevois", "stop_name": "Cluses", "type": "Gare accessible", "icone": "Icon1"}, "geometry": {"type": "Point", "coordinates": [6.582771, 46.061468]}}, {"type": "Feature", "properties": {"start": "Saint-Julien-en-Genevois", "stop_name": "Magland", "type": "Gare accessible", "icone": "Icon1"}, "geometry": {"type": "Point", "coordinates": [6.621524, 46.016951]}}, {"type": "Feature", "properties": {"start": "Saint-Julien-en-Genevois", "stop_name": "Sallanches - Combloux - Meg\u00e8ve", "type": "Gare accessible", "icone": "Icon1"}, "geometry": {"type": "Point", "coordinates": [6.636458, 45.935699]}}, {"type": "Feature", "properties": {"start": "Saint-Julien-en-Genevois", "stop_name": "Saint-Gervais-les-Bains-Le Fayet", "type": "Gare accessible", "icone": "Icon1"}, "geometry": {"type": "Point", "coordinates": [6.701331, 45.906423]}}]}