{"type": "FeatureCollection", "features": [{"type": "Feature", "properties": {"start": "Saint-Victor - Thizy", "stop_name": "Saint-Victor - Thizy", "type": "Gare s\u00e9lectionn\u00e9e", "iconstarte": "Icon2"}, "geometry": {"type": "Point", "coordinates": [4.281106, 46.002585]}}, {"type": "Feature", "properties": {"start": "Saint-Victor - Thizy", "stop_name": "Lyon Perrache", "type": "Gare accessible", "icone": "Icon1"}, "geometry": {"type": "Point", "coordinates": [4.825777, 45.748508]}}, {"type": "Feature", "properties": {"start": "Saint-Victor - Thizy", "stop_name": "Lyon Part Dieu", "type": "Gare accessible", "icone": "Icon1"}, "geometry": {"type": "Point", "coordinates": [4.859409, 45.760596]}}, {"type": "Feature", "properties": {"start": "Saint-Victor - Thizy", "stop_name": "Albigny - Neuville", "type": "Gare accessible", "icone": "Icon1"}, "geometry": {"type": "Point", "coordinates": [4.832852, 45.874897]}}, {"type": "Feature", "properties": {"start": "Saint-Victor - Thizy", "stop_name": "Saint-Germain-au-Mont-d'Or", "type": "Gare accessible", "icone": "Icon1"}, "geometry": {"type": "Point", "coordinates": [4.804206, 45.888431]}}, {"type": "Feature", "properties": {"start": "Saint-Victor - Thizy", "stop_name": "Chazay - Marcilly", "type": "Gare accessible", "icone": "Icon1"}, "geometry": {"type": "Point", "coordinates": [4.725253, 45.873252]}}, {"type": "Feature", "properties": {"start": "Saint-Victor - Thizy", "stop_name": "Lozanne", "type": "Gare accessible", "icone": "Icon1"}, "geometry": {"type": "Point", "coordinates": [4.681474, 45.854174]}}, {"type": "Feature", "properties": {"start": "Saint-Victor - Thizy", "stop_name": "L'Arbresle", "type": "Gare accessible", "icone": "Icon1"}, "geometry": {"type": "Point", "coordinates": [4.618262, 45.833285]}}, {"type": "Feature", "properties": {"start": "Saint-Victor - Thizy", "stop_name": "Saint-Romain-de-Popey", "type": "Gare accessible", "icone": "Icon1"}, "geometry": {"type": "Point", "coordinates": [4.542447, 45.861414]}}, {"type": "Feature", "properties": {"start": "Saint-Victor - Thizy", "stop_name": "Pontcharra - Saint-Forgeux", "type": "Gare accessible", "icone": "Icon1"}, "geometry": {"type": "Point", "coordinates": [4.492904, 45.871541]}}, {"type": "Feature", "properties": {"start": "Saint-Victor - Thizy", "stop_name": "Tarare", "type": "Gare accessible", "icone": "Icon1"}, "geometry": {"type": "Point", "coordinates": [4.439175, 45.889866]}}, {"type": "Feature", "properties": {"start": "Saint-Victor - Thizy", "stop_name": "Amplepuis", "type": "Gare accessible", "icone": "Icon1"}, "geometry": {"type": "Point", "coordinates": [4.326763, 45.971014]}}, {"type": "Feature", "properties": {"start": "Saint-Victor - Thizy", "stop_name": "R\u00e9gny", "type": "Gare accessible", "icone": "Icon1"}, "geometry": {"type": "Point", "coordinates": [4.215263, 45.987743]}}, {"type": "Feature", "properties": {"start": "Saint-Victor - Thizy", "stop_name": "Le Coteau", "type": "Gare accessible", "icone": "Icon1"}, "geometry": {"type": "Point", "coordinates": [4.086281, 46.023988]}}, {"type": "Feature", "properties": {"start": "Saint-Victor - Thizy", "stop_name": "Roanne", "type": "Gare accessible", "icone": "Icon1"}, "geometry": {"type": "Point", "coordinates": [4.063207, 46.039383]}}, {"type": "Feature", "properties": {"start": "Saint-Victor - Thizy", "stop_name": "Lyon Vaise", "type": "Gare accessible", "icone": "Icon1"}, "geometry": {"type": "Point", "coordinates": [4.804186, 45.77976]}}]}