{"type": "FeatureCollection", "features": [{"type": "Feature", "properties": {"start": "Saint-Laurent-d'Aigouze", "stop_name": "Saint-Laurent-d'Aigouze", "type": "Gare s\u00e9lectionn\u00e9e", "iconstarte": "Icon2"}, "geometry": {"type": "Point", "coordinates": [4.19307, 43.639288]}}, {"type": "Feature", "properties": {"start": "Saint-Laurent-d'Aigouze", "stop_name": "Le Grau-du-Roi", "type": "Gare accessible", "icone": "Icon1"}, "geometry": {"type": "Point", "coordinates": [4.140338, 43.537127]}}, {"type": "Feature", "properties": {"start": "Saint-Laurent-d'Aigouze", "stop_name": "Aigues-Mortes", "type": "Gare accessible", "icone": "Icon1"}, "geometry": {"type": "Point", "coordinates": [4.19121, 43.570901]}}, {"type": "Feature", "properties": {"start": "Saint-Laurent-d'Aigouze", "stop_name": "Aimargues", "type": "Gare accessible", "icone": "Icon1"}, "geometry": {"type": "Point", "coordinates": [4.20845, 43.678643]}}, {"type": "Feature", "properties": {"start": "Saint-Laurent-d'Aigouze", "stop_name": "Le Cailar", "type": "Gare accessible", "icone": "Icon1"}, "geometry": {"type": "Point", "coordinates": [4.234803, 43.683217]}}, {"type": "Feature", "properties": {"start": "Saint-Laurent-d'Aigouze", "stop_name": "Vauvert", "type": "Gare accessible", "icone": "Icon1"}, "geometry": {"type": "Point", "coordinates": [4.270165, 43.695037]}}, {"type": "Feature", "properties": {"start": "Saint-Laurent-d'Aigouze", "stop_name": "Beauvoisin", "type": "Gare accessible", "icone": "Icon1"}, "geometry": {"type": "Point", "coordinates": [4.321218, 43.724503]}}, {"type": "Feature", "properties": {"start": "Saint-Laurent-d'Aigouze", "stop_name": "G\u00e9n\u00e9rac", "type": "Gare accessible", "icone": "Icon1"}, "geometry": {"type": "Point", "coordinates": [4.343474, 43.732438]}}, {"type": "Feature", "properties": {"start": "Saint-Laurent-d'Aigouze", "stop_name": "Saint-C\u00e9saire", "type": "Gare accessible", "icone": "Icon1"}, "geometry": {"type": "Point", "coordinates": [4.327634, 43.813345]}}, {"type": "Feature", "properties": {"start": "Saint-Laurent-d'Aigouze", "stop_name": "N\u00eemes Centre", "type": "Gare accessible", "icone": "Icon1"}, "geometry": {"type": "Point", "coordinates": [4.365872, 43.832313]}}]}