{"type": "FeatureCollection", "features": [{"type": "Feature", "properties": {"start": "Saint-Victor-l'Abbaye", "stop_name": "Saint-Victor-l'Abbaye", "type": "Gare s\u00e9lectionn\u00e9e", "iconstarte": "Icon2"}, "geometry": {"type": "Point", "coordinates": [1.109579, 49.677032]}}, {"type": "Feature", "properties": {"start": "Saint-Victor-l'Abbaye", "stop_name": "Dieppe", "type": "Gare accessible", "icone": "TER"}, "geometry": {"type": "Point", "coordinates": [1.081133, 49.921788]}}, {"type": "Feature", "properties": {"start": "Saint-Victor-l'Abbaye", "stop_name": "Saint-Aubin-sur-Scie", "type": "Gare accessible", "icone": "TER"}, "geometry": {"type": "Point", "coordinates": [1.066664, 49.871748]}}, {"type": "Feature", "properties": {"start": "Saint-Victor-l'Abbaye", "stop_name": "Longueville-sur-Scie", "type": "Gare accessible", "icone": "TER"}, "geometry": {"type": "Point", "coordinates": [1.110448, 49.791817]}}, {"type": "Feature", "properties": {"start": "Saint-Victor-l'Abbaye", "stop_name": "Auffay", "type": "Gare accessible", "icone": "TER"}, "geometry": {"type": "Point", "coordinates": [1.098424, 49.716091]}}, {"type": "Feature", "properties": {"start": "Saint-Victor-l'Abbaye", "stop_name": "Cl\u00e8res", "type": "Gare accessible", "icone": "TER"}, "geometry": {"type": "Point", "coordinates": [1.106175, 49.599113]}}, {"type": "Feature", "properties": {"start": "Saint-Victor-l'Abbaye", "stop_name": "Montville", "type": "Gare accessible", "icone": "TER"}, "geometry": {"type": "Point", "coordinates": [1.070046, 49.551284]}}, {"type": "Feature", "properties": {"start": "Saint-Victor-l'Abbaye", "stop_name": "Malaunay - Le Houlme", "type": "Gare accessible", "icone": "TER"}, "geometry": {"type": "Point", "coordinates": [1.03952, 49.513326]}}, {"type": "Feature", "properties": {"start": "Saint-Victor-l'Abbaye", "stop_name": "Maromme", "type": "Gare accessible", "icone": "TER"}, "geometry": {"type": "Point", "coordinates": [1.05056, 49.479899]}}, {"type": "Feature", "properties": {"start": "Saint-Victor-l'Abbaye", "stop_name": "Rouen Rive Droite", "type": "Gare accessible", "icone": "TER"}, "geometry": {"type": "Point", "coordinates": [1.094103, 49.448663]}}]}