{"type": "FeatureCollection", "features": [{"type": "Feature", "properties": {"start": "Saint-Denis-de-Pile", "stop_name": "Saint-Denis-de-Pile", "type": "Gare s\u00e9lectionn\u00e9e", "iconstarte": "Icon2"}, "geometry": {"type": "Point", "coordinates": [-0.197877, 44.978485]}}, {"type": "Feature", "properties": {"start": "Saint-Denis-de-Pile", "stop_name": "Bordeaux Saint-Jean", "type": "Gare accessible", "icone": "Icon1"}, "geometry": {"type": "Point", "coordinates": [-0.556697, 44.825873]}}, {"type": "Feature", "properties": {"start": "Saint-Denis-de-Pile", "stop_name": "Cenon", "type": "Gare accessible", "icone": "Icon1"}, "geometry": {"type": "Point", "coordinates": [-0.533649, 44.856347]}}, {"type": "Feature", "properties": {"start": "Saint-Denis-de-Pile", "stop_name": "Bassens", "type": "Gare accessible", "icone": "Icon1"}, "geometry": {"type": "Point", "coordinates": [-0.522282, 44.901307]}}, {"type": "Feature", "properties": {"start": "Saint-Denis-de-Pile", "stop_name": "La Gorp", "type": "Gare accessible", "icone": "Icon1"}, "geometry": {"type": "Point", "coordinates": [-0.496632, 44.92874]}}, {"type": "Feature", "properties": {"start": "Saint-Denis-de-Pile", "stop_name": "Saint-Loub\u00e8s", "type": "Gare accessible", "icone": "Icon1"}, "geometry": {"type": "Point", "coordinates": [-0.433198, 44.922266]}}, {"type": "Feature", "properties": {"start": "Saint-Denis-de-Pile", "stop_name": "Saint-Sulpice - Izon", "type": "Gare accessible", "icone": "Icon1"}, "geometry": {"type": "Point", "coordinates": [-0.392131, 44.914308]}}, {"type": "Feature", "properties": {"start": "Saint-Denis-de-Pile", "stop_name": "Vayres", "type": "Gare accessible", "icone": "Icon1"}, "geometry": {"type": "Point", "coordinates": [-0.317169, 44.897326]}}, {"type": "Feature", "properties": {"start": "Saint-Denis-de-Pile", "stop_name": "Libourne", "type": "Gare accessible", "icone": "Icon1"}, "geometry": {"type": "Point", "coordinates": [-0.236359, 44.915904]}}, {"type": "Feature", "properties": {"start": "Saint-Denis-de-Pile", "stop_name": "Coutras", "type": "Gare accessible", "icone": "Icon1"}, "geometry": {"type": "Point", "coordinates": [-0.131361, 45.036709]}}, {"type": "Feature", "properties": {"start": "Saint-Denis-de-Pile", "stop_name": "Les \u00c9glisottes", "type": "Gare accessible", "icone": "Icon1"}, "geometry": {"type": "Point", "coordinates": [-0.043522, 45.094305]}}, {"type": "Feature", "properties": {"start": "Saint-Denis-de-Pile", "stop_name": "Saint-Aigulin - La Roche-Chalais", "type": "Gare accessible", "icone": "Icon1"}, "geometry": {"type": "Point", "coordinates": [-0.018977, 45.157316]}}, {"type": "Feature", "properties": {"start": "Saint-Denis-de-Pile", "stop_name": "Chalais", "type": "Gare accessible", "icone": "Icon1"}, "geometry": {"type": "Point", "coordinates": [0.043448, 45.270875]}}, {"type": "Feature", "properties": {"start": "Saint-Denis-de-Pile", "stop_name": "Montmoreau", "type": "Gare accessible", "icone": "Icon1"}, "geometry": {"type": "Point", "coordinates": [0.13823, 45.398367]}}, {"type": "Feature", "properties": {"start": "Saint-Denis-de-Pile", "stop_name": "Angoul\u00eame", "type": "Gare accessible", "icone": "Icon1"}, "geometry": {"type": "Point", "coordinates": [0.164608, 45.653572]}}, {"type": "Feature", "properties": {"start": "Saint-Denis-de-Pile", "stop_name": "Pessac", "type": "Gare accessible", "icone": "Icon1"}, "geometry": {"type": "Point", "coordinates": [-0.631784, 44.804621]}}, {"type": "Feature", "properties": {"start": "Saint-Denis-de-Pile", "stop_name": "Pessac-Alouette", "type": "Gare accessible", "icone": "Icon1"}, "geometry": {"type": "Point", "coordinates": [-0.65946, 44.793462]}}, {"type": "Feature", "properties": {"start": "Saint-Denis-de-Pile", "stop_name": "Gazinet - Cestas", "type": "Gare accessible", "icone": "Icon1"}, "geometry": {"type": "Point", "coordinates": [-0.699448, 44.772247]}}, {"type": "Feature", "properties": {"start": "Saint-Denis-de-Pile", "stop_name": "Marcheprime", "type": "Gare accessible", "icone": "Icon1"}, "geometry": {"type": "Point", "coordinates": [-0.853726, 44.690532]}}, {"type": "Feature", "properties": {"start": "Saint-Denis-de-Pile", "stop_name": "Biganos Facture", "type": "Gare accessible", "icone": "Icon1"}, "geometry": {"type": "Point", "coordinates": [-0.96621, 44.637384]}}, {"type": "Feature", "properties": {"start": "Saint-Denis-de-Pile", "stop_name": "Le Teich", "type": "Gare accessible", "icone": "Icon1"}, "geometry": {"type": "Point", "coordinates": [-1.025564, 44.63248]}}, {"type": "Feature", "properties": {"start": "Saint-Denis-de-Pile", "stop_name": "Gujan-Mestras", "type": "Gare accessible", "icone": "Icon1"}, "geometry": {"type": "Point", "coordinates": [-1.069075, 44.640514]}}, {"type": "Feature", "properties": {"start": "Saint-Denis-de-Pile", "stop_name": "La Hume", "type": "Gare accessible", "icone": "Icon1"}, "geometry": {"type": "Point", "coordinates": [-1.116043, 44.639914]}}, {"type": "Feature", "properties": {"start": "Saint-Denis-de-Pile", "stop_name": "La Teste", "type": "Gare accessible", "icone": "Icon1"}, "geometry": {"type": "Point", "coordinates": [-1.14297, 44.636966]}}, {"type": "Feature", "properties": {"start": "Saint-Denis-de-Pile", "stop_name": "Arcachon", "type": "Gare accessible", "icone": "Icon1"}, "geometry": {"type": "Point", "coordinates": [-1.165323, 44.658967]}}]}