{"type": "FeatureCollection", "features": [{"type": "Feature", "properties": {"stop_name": "Saverne Haut Barr", "type": "Gare s\u00e9lectionn\u00e9e"}, "geometry": {"type": "Point", "coordinates": [7.352343, 48.73148]}}, {"type": "Feature", "properties": {"stop_name": "Obermodern", "type": "Gare accessible"}, "geometry": {"type": "Point", "coordinates": [7.547135, 48.842587]}}, {"type": "Feature", "properties": {"stop_name": "Bouxwiller Clos Des Seigneurs", "type": "Gare accessible"}, "geometry": {"type": "Point", "coordinates": [7.486641, 48.828192]}}, {"type": "Feature", "properties": {"stop_name": "Bouxwiller Centre", "type": "Gare accessible"}, "geometry": {"type": "Point", "coordinates": [7.483024, 48.827393]}}, {"type": "Feature", "properties": {"stop_name": "Bouxwiller Lyc\u00e9e Schattenmann", "type": "Gare accessible"}, "geometry": {"type": "Point", "coordinates": [7.478946, 48.826399]}}, {"type": "Feature", "properties": {"stop_name": "Neuwiller Rue de Bouxwiller", "type": "Gare accessible"}, "geometry": {"type": "Point", "coordinates": [7.407151, 48.822848]}}, {"type": "Feature", "properties": {"stop_name": "Neuwiller Pharmacie", "type": "Gare accessible"}, "geometry": {"type": "Point", "coordinates": [7.402853, 48.823614]}}, {"type": "Feature", "properties": {"stop_name": "Dossenheim Lotissement", "type": "Gare accessible"}, "geometry": {"type": "Point", "coordinates": [7.402116, 48.807528000000005]}}, {"type": "Feature", "properties": {"stop_name": "Dossenheim Mairie", "type": "Gare accessible"}, "geometry": {"type": "Point", "coordinates": [7.402476, 48.805191]}}, {"type": "Feature", "properties": {"stop_name": "Saverne Lyc\u00e9e Verne", "type": "Gare accessible"}, "geometry": {"type": "Point", "coordinates": [7.373398, 48.736039]}}, {"type": "Feature", "properties": {"stop_name": "Saverne Place des Dragons", "type": "Gare accessible"}, "geometry": {"type": "Point", "coordinates": [7.361915, 48.739602000000005]}}, {"type": "Feature", "properties": {"stop_name": "Ingwiller", "type": "Gare accessible"}, "geometry": {"type": "Point", "coordinates": [7.477162, 48.872407]}}, {"type": "Feature", "properties": {"stop_name": "Menchhoffen Abri", "type": "Gare accessible"}, "geometry": {"type": "Point", "coordinates": [7.496546, 48.858841999999996]}}, {"type": "Feature", "properties": {"stop_name": "Uttwiller Croisement", "type": "Gare accessible"}, "geometry": {"type": "Point", "coordinates": [7.487526, 48.846149]}}, {"type": "Feature", "properties": {"stop_name": "Saverne", "type": "Gare accessible"}, "geometry": {"type": "Point", "coordinates": [7.362055, 48.744483]}}, {"type": "Feature", "properties": {"stop_name": "Frohmuhl Lavoir", "type": "Gare accessible"}, "geometry": {"type": "Point", "coordinates": [7.280985, 48.907795]}}, {"type": "Feature", "properties": {"stop_name": "Col de Puberg", "type": "Gare accessible"}, "geometry": {"type": "Point", "coordinates": [7.318055, 48.916897999999996]}}, {"type": "Feature", "properties": {"stop_name": "Rosteig Monument aux Morts", "type": "Gare accessible"}, "geometry": {"type": "Point", "coordinates": [7.340953, 48.932970000000005]}}, {"type": "Feature", "properties": {"stop_name": "Wingen-sur-Moder Mairie", "type": "Gare accessible"}, "geometry": {"type": "Point", "coordinates": [7.371182, 48.923275]}}, {"type": "Feature", "properties": {"stop_name": "Wingen-sur-Moder", "type": "Gare accessible"}, "geometry": {"type": "Point", "coordinates": [7.380538, 48.920092]}}, {"type": "Feature", "properties": {"stop_name": "Wimmenau D.919 - Rue de la Gare", "type": "Gare accessible"}, "geometry": {"type": "Point", "coordinates": [7.420315, 48.910025]}}]}