{"type": "FeatureCollection", "features": [{"type": "Feature", "properties": {"start": "Selles-Saint-Denis", "stop_name": "Selles-Saint-Denis", "type": "Gare s\u00e9lectionn\u00e9e", "iconstarte": "Icon2"}, "geometry": {"type": "Point", "coordinates": [1.922242, 47.388383]}}, {"type": "Feature", "properties": {"start": "Selles-Saint-Denis", "stop_name": "Romorantin Blanc Argent", "type": "Gare accessible", "icone": "TER"}, "geometry": {"type": "Point", "coordinates": [1.739209, 47.355562]}}, {"type": "Feature", "properties": {"start": "Selles-Saint-Denis", "stop_name": "Faubourg d'Orl\u00e9ans", "type": "Gare accessible", "icone": "TER"}, "geometry": {"type": "Point", "coordinates": [1.740131, 47.366892]}}, {"type": "Feature", "properties": {"start": "Selles-Saint-Denis", "stop_name": "Villeherviers", "type": "Gare accessible", "icone": "TER"}, "geometry": {"type": "Point", "coordinates": [1.797256, 47.369401]}}, {"type": "Feature", "properties": {"start": "Selles-Saint-Denis", "stop_name": "Loreux", "type": "Gare accessible", "icone": "TER"}, "geometry": {"type": "Point", "coordinates": [1.834388, 47.39036]}}, {"type": "Feature", "properties": {"start": "Selles-Saint-Denis", "stop_name": "La Fert\u00e9-Imbault", "type": "Gare accessible", "icone": "TER"}, "geometry": {"type": "Point", "coordinates": [1.957994, 47.383743]}}, {"type": "Feature", "properties": {"start": "Selles-Saint-Denis", "stop_name": "Salbris", "type": "Gare accessible", "icone": "TER"}, "geometry": {"type": "Point", "coordinates": [2.047751, 47.425186]}}, {"type": "Feature", "properties": {"start": "Selles-Saint-Denis", "stop_name": "Les Quatre Roues", "type": "Gare accessible", "icone": "TER"}, "geometry": {"type": "Point", "coordinates": [1.702528, 47.332552]}}, {"type": "Feature", "properties": {"start": "Selles-Saint-Denis", "stop_name": "Base A\u00e9rienne", "type": "Gare accessible", "icone": "TER"}, "geometry": {"type": "Point", "coordinates": [1.681294, 47.320149]}}, {"type": "Feature", "properties": {"start": "Selles-Saint-Denis", "stop_name": "Pruniers", "type": "Gare accessible", "icone": "TER"}, "geometry": {"type": "Point", "coordinates": [1.67137, 47.313338]}}, {"type": "Feature", "properties": {"start": "Selles-Saint-Denis", "stop_name": "Gi\u00e8vres", "type": "Gare accessible", "icone": "TER"}, "geometry": {"type": "Point", "coordinates": [1.667814, 47.27878]}}, {"type": "Feature", "properties": {"start": "Selles-Saint-Denis", "stop_name": "Chabris", "type": "Gare accessible", "icone": "TER"}, "geometry": {"type": "Point", "coordinates": [1.646217, 47.25512]}}, {"type": "Feature", "properties": {"start": "Selles-Saint-Denis", "stop_name": "Varennes-sur-Fouzon", "type": "Gare accessible", "icone": "TER"}, "geometry": {"type": "Point", "coordinates": [1.61441, 47.21446]}}, {"type": "Feature", "properties": {"start": "Selles-Saint-Denis", "stop_name": "Valen\u00e7ay", "type": "Gare accessible", "icone": "TER"}, "geometry": {"type": "Point", "coordinates": [1.558658, 47.163055]}}]}