{"type": "FeatureCollection", "features": [{"type": "Feature", "properties": {"stop_name": "Siorac-en-P\u00e9rigord", "type": "Gare s\u00e9lectionn\u00e9e", "icone": "Icon2"}, "geometry": {"type": "Point", "coordinates": [0.984188, 44.819788]}}, {"type": "Feature", "properties": {"stop_name": "Agen", "type": "Gare accessible", "icone": "Icon1"}, "geometry": {"type": "Point", "coordinates": [0.620867, 44.207967]}}, {"type": "Feature", "properties": {"stop_name": "Penne", "type": "Gare accessible", "icone": "Icon1"}, "geometry": {"type": "Point", "coordinates": [0.803115, 44.379825]}}, {"type": "Feature", "properties": {"stop_name": "Monsempron-Libos", "type": "Gare accessible", "icone": "Icon1"}, "geometry": {"type": "Point", "coordinates": [0.94142, 44.486391]}}, {"type": "Feature", "properties": {"stop_name": "Sauveterre-la-L\u00e9mance", "type": "Gare accessible", "icone": "Icon1"}, "geometry": {"type": "Point", "coordinates": [1.011767, 44.589405]}}, {"type": "Feature", "properties": {"stop_name": "Villefranche-du-P\u00e9rigord", "type": "Gare accessible", "icone": "Icon1"}, "geometry": {"type": "Point", "coordinates": [1.049302, 44.627019]}}, {"type": "Feature", "properties": {"stop_name": "Belv\u00e8s", "type": "Gare accessible", "icone": "Icon1"}, "geometry": {"type": "Point", "coordinates": [1.012071, 44.777341]}}, {"type": "Feature", "properties": {"stop_name": "Le Buisson", "type": "Gare accessible", "icone": "Icon1"}, "geometry": {"type": "Point", "coordinates": [0.90818, 44.847245]}}, {"type": "Feature", "properties": {"stop_name": "Le Bugue", "type": "Gare accessible", "icone": "Icon1"}, "geometry": {"type": "Point", "coordinates": [0.943004, 44.905726]}}, {"type": "Feature", "properties": {"stop_name": "Les Eyzies", "type": "Gare accessible", "icone": "Icon1"}, "geometry": {"type": "Point", "coordinates": [1.008296, 44.941315]}}, {"type": "Feature", "properties": {"stop_name": "P\u00e9rigueux", "type": "Gare accessible", "icone": "Icon1"}, "geometry": {"type": "Point", "coordinates": [0.707879, 45.187408000000005]}}, {"type": "Feature", "properties": {"stop_name": "Bergerac", "type": "Gare accessible", "icone": "Icon1"}, "geometry": {"type": "Point", "coordinates": [0.489174, 44.857061]}}, {"type": "Feature", "properties": {"stop_name": "Lalinde", "type": "Gare accessible", "icone": "Icon1"}, "geometry": {"type": "Point", "coordinates": [0.742806, 44.839602]}}, {"type": "Feature", "properties": {"stop_name": "Tr\u00e9molat", "type": "Gare accessible", "icone": "Icon1"}, "geometry": {"type": "Point", "coordinates": [0.830342, 44.862556]}}, {"type": "Feature", "properties": {"stop_name": "Saint-Cyprien", "type": "Gare accessible", "icone": "Icon1"}, "geometry": {"type": "Point", "coordinates": [1.043574, 44.863407]}}, {"type": "Feature", "properties": {"stop_name": "Sarlat", "type": "Gare accessible", "icone": "Icon1"}, "geometry": {"type": "Point", "coordinates": [1.220469, 44.877114]}}, {"type": "Feature", "properties": {"stop_name": "Libourne", "type": "Gare accessible", "icone": "Icon1"}, "geometry": {"type": "Point", "coordinates": [-0.236359, 44.915904]}}, {"type": "Feature", "properties": {"stop_name": "Saint-\u00c9milion", "type": "Gare accessible", "icone": "Icon1"}, "geometry": {"type": "Point", "coordinates": [-0.159229, 44.881266]}}, {"type": "Feature", "properties": {"stop_name": "Castillon", "type": "Gare accessible", "icone": "Icon1"}, "geometry": {"type": "Point", "coordinates": [-0.04066, 44.856999]}}, {"type": "Feature", "properties": {"stop_name": "Lamothe-Montravel", "type": "Gare accessible", "icone": "Icon1"}, "geometry": {"type": "Point", "coordinates": [0.021556, 44.853701]}}, {"type": "Feature", "properties": {"stop_name": "V\u00e9lines", "type": "Gare accessible", "icone": "Icon1"}, "geometry": {"type": "Point", "coordinates": [0.10351, 44.852028999999995]}}, {"type": "Feature", "properties": {"stop_name": "Saint-Antoine-de-Breuilh", "type": "Gare accessible", "icone": "Icon1"}, "geometry": {"type": "Point", "coordinates": [0.152352, 44.846635]}}, {"type": "Feature", "properties": {"stop_name": "Sainte-Foy-la-Grande", "type": "Gare accessible", "icone": "Icon1"}, "geometry": {"type": "Point", "coordinates": [0.221491, 44.836847999999996]}}, {"type": "Feature", "properties": {"stop_name": "Gardonne", "type": "Gare accessible", "icone": "Icon1"}, "geometry": {"type": "Point", "coordinates": [0.331929, 44.834737]}}, {"type": "Feature", "properties": {"stop_name": "Lamonzie-Saint-Martin", "type": "Gare accessible", "icone": "Icon1"}, "geometry": {"type": "Point", "coordinates": [0.380259, 44.843408000000004]}}, {"type": "Feature", "properties": {"stop_name": "Mauzac", "type": "Gare accessible", "icone": "Icon1"}, "geometry": {"type": "Point", "coordinates": [0.789732, 44.855810999999996]}}, {"type": "Feature", "properties": {"stop_name": "Bordeaux Saint-Jean", "type": "Gare accessible", "icone": "Icon1"}, "geometry": {"type": "Point", "coordinates": [-0.556697, 44.825873]}}, {"type": "Feature", "properties": {"stop_name": "Cenon", "type": "Gare accessible", "icone": "Icon1"}, "geometry": {"type": "Point", "coordinates": [-0.5336489999999999, 44.856347]}}, {"type": "Feature", "properties": {"stop_name": "Boulazac Isle Manoire", "type": "Gare accessible", "icone": "Icon1"}, "geometry": {"type": "Point", "coordinates": [0.772787, 45.172052]}}, {"type": "Feature", "properties": {"stop_name": "Niversac", "type": "Gare accessible", "icone": "Icon1"}, "geometry": {"type": "Point", "coordinates": [0.80827, 45.138259000000005]}}, {"type": "Feature", "properties": {"stop_name": "Les Versannes", "type": "Gare accessible", "icone": "Icon1"}, "geometry": {"type": "Point", "coordinates": [0.8573, 45.088825]}}, {"type": "Feature", "properties": {"stop_name": "Laroque", "type": "Gare accessible", "icone": "Icon1"}, "geometry": {"type": "Point", "coordinates": [0.749793, 44.287521000000005]}}]}