{"type": "FeatureCollection", "features": [{"type": "Feature", "properties": {"start": "Somain", "stop_name": "Somain", "type": "Gare s\u00e9lectionn\u00e9e", "iconstarte": "Icon2"}, "geometry": {"type": "Point", "coordinates": [3.277319, 50.355699]}}, {"type": "Feature", "properties": {"start": "Somain", "stop_name": "Valenciennes", "type": "Gare accessible", "icone": "TER"}, "geometry": {"type": "Point", "coordinates": [3.517124, 50.363187]}}, {"type": "Feature", "properties": {"start": "Somain", "stop_name": "Beuvrages", "type": "Gare accessible", "icone": "TER"}, "geometry": {"type": "Point", "coordinates": [3.506007, 50.38944]}}, {"type": "Feature", "properties": {"start": "Somain", "stop_name": "Raismes", "type": "Gare accessible", "icone": "TER"}, "geometry": {"type": "Point", "coordinates": [3.478839, 50.39029]}}, {"type": "Feature", "properties": {"start": "Somain", "stop_name": "Wallers", "type": "Gare accessible", "icone": "TER"}, "geometry": {"type": "Point", "coordinates": [3.393922, 50.3845]}}, {"type": "Feature", "properties": {"start": "Somain", "stop_name": "Montigny-en-Ostrevent", "type": "Gare accessible", "icone": "TER"}, "geometry": {"type": "Point", "coordinates": [3.188369, 50.36151]}}, {"type": "Feature", "properties": {"start": "Somain", "stop_name": "Douai", "type": "Gare accessible", "icone": "TER"}, "geometry": {"type": "Point", "coordinates": [3.089958, 50.371673]}}, {"type": "Feature", "properties": {"start": "Somain", "stop_name": "Lille Flandres", "type": "Gare accessible", "icone": "TER"}, "geometry": {"type": "Point", "coordinates": [3.06987, 50.636577]}}, {"type": "Feature", "properties": {"start": "Somain", "stop_name": "Cambrai", "type": "Gare accessible", "icone": "TER"}, "geometry": {"type": "Point", "coordinates": [3.241197, 50.176582]}}, {"type": "Feature", "properties": {"start": "Somain", "stop_name": "Caudry", "type": "Gare accessible", "icone": "TER"}, "geometry": {"type": "Point", "coordinates": [3.40971, 50.111473]}}, {"type": "Feature", "properties": {"start": "Somain", "stop_name": "Busigny", "type": "Gare accessible", "icone": "TER"}, "geometry": {"type": "Point", "coordinates": [3.446436, 50.039547]}}, {"type": "Feature", "properties": {"start": "Somain", "stop_name": "Saint-Quentin", "type": "Gare accessible", "icone": "TER"}, "geometry": {"type": "Point", "coordinates": [3.296958, 49.840025]}}, {"type": "Feature", "properties": {"start": "Somain", "stop_name": "Bohain", "type": "Gare accessible", "icone": "TER"}, "geometry": {"type": "Point", "coordinates": [3.443168, 49.988418]}}, {"type": "Feature", "properties": {"start": "Somain", "stop_name": "Fresnoy-le-Grand", "type": "Gare accessible", "icone": "TER"}, "geometry": {"type": "Point", "coordinates": [3.432208, 49.949908]}}]}