{"type": "FeatureCollection", "features": [{"type": "Feature", "properties": {"stop_name": "Thionville", "type": "Gare s\u00e9lectionn\u00e9e", "icone": "Icon2"}, "geometry": {"type": "Point", "coordinates": [6.168582, 49.353965]}}, {"type": "Feature", "properties": {"stop_name": "Hettange-Grande", "type": "Gare accessible", "icone": "Icon1"}, "geometry": {"type": "Point", "coordinates": [6.156759, 49.407685]}}, {"type": "Feature", "properties": {"stop_name": "Bettembourg", "type": "Gare accessible", "icone": "Icon1"}, "geometry": {"type": "Point", "coordinates": [6.101111, 49.516110999999995]}}, {"type": "Feature", "properties": {"stop_name": "Luxembourg", "type": "Gare accessible", "icone": "Icon1"}, "geometry": {"type": "Point", "coordinates": [6.134722, 49.599722]}}, {"type": "Feature", "properties": {"stop_name": "Hayange", "type": "Gare accessible", "icone": "Icon1"}, "geometry": {"type": "Point", "coordinates": [6.073125, 49.330408]}}, {"type": "Feature", "properties": {"stop_name": "Audun-le-Roman", "type": "Gare accessible", "icone": "Icon1"}, "geometry": {"type": "Point", "coordinates": [5.89139, 49.366820000000004]}}, {"type": "Feature", "properties": {"stop_name": "Longuyon", "type": "Gare accessible", "icone": "Icon1"}, "geometry": {"type": "Point", "coordinates": [5.604551, 49.444412]}}, {"type": "Feature", "properties": {"stop_name": "Longwy", "type": "Gare accessible", "icone": "Icon1"}, "geometry": {"type": "Point", "coordinates": [5.76956, 49.513003999999995]}}, {"type": "Feature", "properties": {"stop_name": "Metz", "type": "Gare accessible", "icone": "Icon1"}, "geometry": {"type": "Point", "coordinates": [6.177052, 49.109466]}}, {"type": "Feature", "properties": {"stop_name": "Woippy", "type": "Gare accessible", "icone": "Icon1"}, "geometry": {"type": "Point", "coordinates": [6.155621, 49.148796999999995]}}, {"type": "Feature", "properties": {"stop_name": "Maizi\u00e8res-l\u00e8s-Metz", "type": "Gare accessible", "icone": "Icon1"}, "geometry": {"type": "Point", "coordinates": [6.158727, 49.215536]}}, {"type": "Feature", "properties": {"stop_name": "Hagondange", "type": "Gare accessible", "icone": "Icon1"}, "geometry": {"type": "Point", "coordinates": [6.16448, 49.25356]}}, {"type": "Feature", "properties": {"stop_name": "Uckange", "type": "Gare accessible", "icone": "Icon1"}, "geometry": {"type": "Point", "coordinates": [6.1566, 49.303459000000004]}}, {"type": "Feature", "properties": {"stop_name": "Metz Nord", "type": "Gare accessible", "icone": "Icon1"}, "geometry": {"type": "Point", "coordinates": [6.167538, 49.136865]}}, {"type": "Feature", "properties": {"stop_name": "Pagny-sur-Moselle", "type": "Gare accessible", "icone": "Icon1"}, "geometry": {"type": "Point", "coordinates": [6.025035, 48.9852]}}, {"type": "Feature", "properties": {"stop_name": "Pont-\u00e0-Mousson", "type": "Gare accessible", "icone": "Icon1"}, "geometry": {"type": "Point", "coordinates": [6.051021, 48.900348]}}, {"type": "Feature", "properties": {"stop_name": "Nancy", "type": "Gare accessible", "icone": "Icon1"}, "geometry": {"type": "Point", "coordinates": [6.174579, 48.689857]}}, {"type": "Feature", "properties": {"stop_name": "Montm\u00e9dy", "type": "Gare accessible", "icone": "Icon1"}, "geometry": {"type": "Point", "coordinates": [5.371672, 49.522878000000006]}}, {"type": "Feature", "properties": {"stop_name": "Carignan", "type": "Gare accessible", "icone": "Icon1"}, "geometry": {"type": "Point", "coordinates": [5.168517, 49.628671000000004]}}, {"type": "Feature", "properties": {"stop_name": "Sedan", "type": "Gare accessible", "icone": "Icon1"}, "geometry": {"type": "Point", "coordinates": [4.930373, 49.695024]}}, {"type": "Feature", "properties": {"stop_name": "Charleville-M\u00e9zi\u00e8res", "type": "Gare accessible", "icone": "Icon1"}, "geometry": {"type": "Point", "coordinates": [4.724344, 49.76763]}}, {"type": "Feature", "properties": {"stop_name": "Basse-Ham", "type": "Gare accessible", "icone": "Icon1"}, "geometry": {"type": "Point", "coordinates": [6.234873, 49.380546]}}, {"type": "Feature", "properties": {"stop_name": "Koenigsmacker", "type": "Gare accessible", "icone": "Icon1"}, "geometry": {"type": "Point", "coordinates": [6.27355, 49.396553999999995]}}, {"type": "Feature", "properties": {"stop_name": "Malling", "type": "Gare accessible", "icone": "Icon1"}, "geometry": {"type": "Point", "coordinates": [6.302207, 49.42152]}}, {"type": "Feature", "properties": {"stop_name": "Sierck-les-Bains", "type": "Gare accessible", "icone": "Icon1"}, "geometry": {"type": "Point", "coordinates": [6.350114, 49.443996999999996]}}, {"type": "Feature", "properties": {"stop_name": "Apach", "type": "Gare accessible", "icone": "Icon1"}, "geometry": {"type": "Point", "coordinates": [6.372365, 49.458963]}}, {"type": "Feature", "properties": {"stop_name": "Perl", "type": "Gare accessible", "icone": "Icon1"}, "geometry": {"type": "Point", "coordinates": [6.3693, 49.4731]}}, {"type": "Feature", "properties": {"stop_name": "Konz Mitte", "type": "Gare accessible", "icone": "Icon1"}, "geometry": {"type": "Point", "coordinates": [6.57329, 49.700046]}}, {"type": "Feature", "properties": {"stop_name": "Tr\u00e8ves", "type": "Gare accessible", "icone": "Icon1"}, "geometry": {"type": "Point", "coordinates": [6.6522, 49.7568]}}, {"type": "Feature", "properties": {"stop_name": "Howald", "type": "Gare accessible", "icone": "Icon1"}, "geometry": {"type": "Point", "coordinates": [6.13232, 49.58032]}}]}