{"type": "FeatureCollection", "features": [{"type": "Feature", "properties": {"stop_name": "Tournus", "type": "Gare s\u00e9lectionn\u00e9e", "icone": "Icon2"}, "geometry": {"type": "Point", "coordinates": [4.906562, 46.566724]}}, {"type": "Feature", "properties": {"stop_name": "Dijon", "type": "Gare accessible", "icone": "Icon1"}, "geometry": {"type": "Point", "coordinates": [5.027256, 47.323411]}}, {"type": "Feature", "properties": {"stop_name": "Beaune", "type": "Gare accessible", "icone": "Icon1"}, "geometry": {"type": "Point", "coordinates": [4.848423, 47.023014]}}, {"type": "Feature", "properties": {"stop_name": "Chagny", "type": "Gare accessible", "icone": "Icon1"}, "geometry": {"type": "Point", "coordinates": [4.749613, 46.907424]}}, {"type": "Feature", "properties": {"stop_name": "Chalon-sur-Sa\u00f4ne", "type": "Gare accessible", "icone": "Icon1"}, "geometry": {"type": "Point", "coordinates": [4.843479, 46.781622]}}, {"type": "Feature", "properties": {"stop_name": "M\u00e2con", "type": "Gare accessible", "icone": "Icon1"}, "geometry": {"type": "Point", "coordinates": [4.824887, 46.302572]}}, {"type": "Feature", "properties": {"stop_name": "Belleville sur S\u00e2one", "type": "Gare accessible", "icone": "Icon1"}, "geometry": {"type": "Point", "coordinates": [4.729011, 46.111952]}}, {"type": "Feature", "properties": {"stop_name": "Villefranche-sur-Sa\u00f4ne", "type": "Gare accessible", "icone": "Icon1"}, "geometry": {"type": "Point", "coordinates": [4.720798, 45.984482]}}, {"type": "Feature", "properties": {"stop_name": "Saint-Germain-au-Mont-d'Or", "type": "Gare accessible", "icone": "Icon1"}, "geometry": {"type": "Point", "coordinates": [4.804206, 45.888431]}}, {"type": "Feature", "properties": {"stop_name": "Lyon Part Dieu", "type": "Gare accessible", "icone": "Icon1"}, "geometry": {"type": "Point", "coordinates": [4.859409, 45.760596]}}, {"type": "Feature", "properties": {"stop_name": "Sens", "type": "Gare accessible", "icone": "Icon1"}, "geometry": {"type": "Point", "coordinates": [3.267833, 48.197856]}}, {"type": "Feature", "properties": {"stop_name": "\u00c9tigny - V\u00e9ron", "type": "Gare accessible", "icone": "Icon1"}, "geometry": {"type": "Point", "coordinates": [3.290743, 48.138276]}}, {"type": "Feature", "properties": {"stop_name": "Villeneuve-sur-Yonne", "type": "Gare accessible", "icone": "Icon1"}, "geometry": {"type": "Point", "coordinates": [3.286925, 48.085013000000004]}}, {"type": "Feature", "properties": {"stop_name": "Saint-Julien-du-Sault", "type": "Gare accessible", "icone": "Icon1"}, "geometry": {"type": "Point", "coordinates": [3.302781, 48.026965000000004]}}, {"type": "Feature", "properties": {"stop_name": "Joigny", "type": "Gare accessible", "icone": "Icon1"}, "geometry": {"type": "Point", "coordinates": [3.392997, 47.973855]}}, {"type": "Feature", "properties": {"stop_name": "Laroche - Migennes", "type": "Gare accessible", "icone": "Icon1"}, "geometry": {"type": "Point", "coordinates": [3.513191, 47.960998]}}, {"type": "Feature", "properties": {"stop_name": "Saint-Florentin - Vergigny", "type": "Gare accessible", "icone": "Icon1"}, "geometry": {"type": "Point", "coordinates": [3.731036, 47.981058000000004]}}, {"type": "Feature", "properties": {"stop_name": "Tonnerre", "type": "Gare accessible", "icone": "Icon1"}, "geometry": {"type": "Point", "coordinates": [3.97355, 47.85938]}}, {"type": "Feature", "properties": {"stop_name": "Nuits sous Ravi\u00e8res", "type": "Gare accessible", "icone": "Icon1"}, "geometry": {"type": "Point", "coordinates": [4.211709, 47.729307]}}, {"type": "Feature", "properties": {"stop_name": "Montbard", "type": "Gare accessible", "icone": "Icon1"}, "geometry": {"type": "Point", "coordinates": [4.336212, 47.618741]}}, {"type": "Feature", "properties": {"stop_name": "Les Laumes - Al\u00e9sia", "type": "Gare accessible", "icone": "Icon1"}, "geometry": {"type": "Point", "coordinates": [4.462602, 47.543054]}}, {"type": "Feature", "properties": {"stop_name": "Lyon Perrache", "type": "Gare accessible", "icone": "Icon1"}, "geometry": {"type": "Point", "coordinates": [4.825777, 45.748508]}}, {"type": "Feature", "properties": {"stop_name": "Paris Bercy Bourg. Pays d'Auv.", "type": "Gare accessible", "icone": "Icon1"}, "geometry": {"type": "Point", "coordinates": [2.382791, 48.839215]}}, {"type": "Feature", "properties": {"stop_name": "Paris Gare de Lyon Hall 1 - 2", "type": "Gare accessible", "icone": "Icon1"}, "geometry": {"type": "Point", "coordinates": [2.373481, 48.844945]}}, {"type": "Feature", "properties": {"stop_name": "Nuits-Saint-Georges", "type": "Gare accessible", "icone": "Icon1"}, "geometry": {"type": "Point", "coordinates": [4.956277, 47.130662]}}, {"type": "Feature", "properties": {"stop_name": "Gevrey-Chambertin", "type": "Gare accessible", "icone": "Icon1"}, "geometry": {"type": "Point", "coordinates": [4.998905, 47.227601]}}, {"type": "Feature", "properties": {"stop_name": "Vougeot - Gilly-l\u00e8s-C\u00eeteaux", "type": "Gare accessible", "icone": "Icon1"}, "geometry": {"type": "Point", "coordinates": [4.971514, 47.175695000000005]}}, {"type": "Feature", "properties": {"stop_name": "Corgoloin", "type": "Gare accessible", "icone": "Icon1"}, "geometry": {"type": "Point", "coordinates": [4.916854, 47.084209]}}, {"type": "Feature", "properties": {"stop_name": "Meursault", "type": "Gare accessible", "icone": "Icon1"}, "geometry": {"type": "Point", "coordinates": [4.795452, 46.969165000000004]}}, {"type": "Feature", "properties": {"stop_name": "Rully", "type": "Gare accessible", "icone": "Icon1"}, "geometry": {"type": "Point", "coordinates": [4.760736, 46.880287]}}, {"type": "Feature", "properties": {"stop_name": "Fontaines - Mercurey", "type": "Gare accessible", "icone": "Icon1"}, "geometry": {"type": "Point", "coordinates": [4.775005, 46.851258]}}, {"type": "Feature", "properties": {"stop_name": "Sennecey-le-Grand", "type": "Gare accessible", "icone": "Icon1"}, "geometry": {"type": "Point", "coordinates": [4.874277, 46.64066]}}, {"type": "Feature", "properties": {"stop_name": "Fleurville - Pont-de-Vaux", "type": "Gare accessible", "icone": "Icon1"}, "geometry": {"type": "Point", "coordinates": [4.884195, 46.450874]}}, {"type": "Feature", "properties": {"stop_name": "Senozan", "type": "Gare accessible", "icone": "Icon1"}, "geometry": {"type": "Point", "coordinates": [4.871063, 46.392145]}}]}