{"type": "FeatureCollection", "features": [{"type": "Feature", "properties": {"stop_name": "Tou\u00ebt-de-l'Escar\u00e8ne", "type": "Gare s\u00e9lectionn\u00e9e", "icone": "Icon2"}, "geometry": {"type": "Point", "coordinates": [7.36437, 43.847072999999995]}}, {"type": "Feature", "properties": {"stop_name": "Nice-Ville", "type": "Gare accessible", "icone": "Icon1"}, "geometry": {"type": "Point", "coordinates": [7.261904, 43.704556]}}, {"type": "Feature", "properties": {"stop_name": "Nice Pont Michel", "type": "Gare accessible", "icone": "Icon1"}, "geometry": {"type": "Point", "coordinates": [7.291671, 43.722691999999995]}}, {"type": "Feature", "properties": {"stop_name": "La Trinit\u00e9 Victor", "type": "Gare accessible", "icone": "Icon1"}, "geometry": {"type": "Point", "coordinates": [7.311721, 43.742737]}}, {"type": "Feature", "properties": {"stop_name": "Drap - Cantaron", "type": "Gare accessible", "icone": "Icon1"}, "geometry": {"type": "Point", "coordinates": [7.317039, 43.759865000000005]}}, {"type": "Feature", "properties": {"stop_name": "Halte de Fontanil - Lyc\u00e9e de Drap", "type": "Gare accessible", "icone": "Icon1"}, "geometry": {"type": "Point", "coordinates": [7.338854, 43.764152]}}, {"type": "Feature", "properties": {"stop_name": "Peillon - Sainte-Th\u00e8cle", "type": "Gare accessible", "icone": "Icon1"}, "geometry": {"type": "Point", "coordinates": [7.36684, 43.767871]}}, {"type": "Feature", "properties": {"stop_name": "Peille", "type": "Gare accessible", "icone": "Icon1"}, "geometry": {"type": "Point", "coordinates": [7.379854, 43.791907]}}, {"type": "Feature", "properties": {"stop_name": "L'Escar\u00e8ne", "type": "Gare accessible", "icone": "Icon1"}, "geometry": {"type": "Point", "coordinates": [7.351779, 43.839743]}}, {"type": "Feature", "properties": {"stop_name": "Sospel", "type": "Gare accessible", "icone": "Icon1"}, "geometry": {"type": "Point", "coordinates": [7.453789, 43.876585999999996]}}, {"type": "Feature", "properties": {"stop_name": "Breil-sur-Roya", "type": "Gare accessible", "icone": "Icon1"}, "geometry": {"type": "Point", "coordinates": [7.516446, 43.944057]}}, {"type": "Feature", "properties": {"stop_name": "Fontan - Saorge", "type": "Gare accessible", "icone": "Icon1"}, "geometry": {"type": "Point", "coordinates": [7.551626, 43.996638]}}, {"type": "Feature", "properties": {"stop_name": "Saint-Dalmas de Tende", "type": "Gare accessible", "icone": "Icon1"}, "geometry": {"type": "Point", "coordinates": [7.58345, 44.055820000000004]}}, {"type": "Feature", "properties": {"stop_name": "La Brigue", "type": "Gare accessible", "icone": "Icon1"}, "geometry": {"type": "Point", "coordinates": [7.605575, 44.062611]}}, {"type": "Feature", "properties": {"stop_name": "Tende", "type": "Gare accessible", "icone": "Icon1"}, "geometry": {"type": "Point", "coordinates": [7.60003, 44.076111]}}, {"type": "Feature", "properties": {"stop_name": "L'Ariane La Trinit\u00e9", "type": "Gare accessible", "icone": "Icon1"}, "geometry": {"type": "Point", "coordinates": [7.302478, 43.734398999999996]}}]}