{"type": "FeatureCollection", "features": [{"type": "Feature", "properties": {"start": "Trith-Saint-L\u00e9ger", "stop_name": "Trith-Saint-L\u00e9ger", "type": "Gare s\u00e9lectionn\u00e9e", "iconstarte": "Icon2"}, "geometry": {"type": "Point", "coordinates": [3.489508, 50.331565]}}, {"type": "Feature", "properties": {"start": "Trith-Saint-L\u00e9ger", "stop_name": "Cambrai", "type": "Gare accessible", "icone": "Icon1"}, "geometry": {"type": "Point", "coordinates": [3.241197, 50.176582]}}, {"type": "Feature", "properties": {"start": "Trith-Saint-L\u00e9ger", "stop_name": "Escaudoeuvres", "type": "Gare accessible", "icone": "Icon1"}, "geometry": {"type": "Point", "coordinates": [3.275473, 50.191744]}}, {"type": "Feature", "properties": {"start": "Trith-Saint-L\u00e9ger", "stop_name": "Iwuy", "type": "Gare accessible", "icone": "Icon1"}, "geometry": {"type": "Point", "coordinates": [3.329875, 50.225853]}}, {"type": "Feature", "properties": {"start": "Trith-Saint-L\u00e9ger", "stop_name": "Bouchain", "type": "Gare accessible", "icone": "Icon1"}, "geometry": {"type": "Point", "coordinates": [3.33173, 50.278151]}}, {"type": "Feature", "properties": {"start": "Trith-Saint-L\u00e9ger", "stop_name": "Lourches", "type": "Gare accessible", "icone": "Icon1"}, "geometry": {"type": "Point", "coordinates": [3.343186, 50.310238]}}, {"type": "Feature", "properties": {"start": "Trith-Saint-L\u00e9ger", "stop_name": "Denain", "type": "Gare accessible", "icone": "Icon1"}, "geometry": {"type": "Point", "coordinates": [3.388679, 50.33445]}}, {"type": "Feature", "properties": {"start": "Trith-Saint-L\u00e9ger", "stop_name": "Prouvy - Thiant", "type": "Gare accessible", "icone": "Icon1"}, "geometry": {"type": "Point", "coordinates": [3.46127, 50.316488]}}, {"type": "Feature", "properties": {"start": "Trith-Saint-L\u00e9ger", "stop_name": "Valenciennes", "type": "Gare accessible", "icone": "Icon1"}, "geometry": {"type": "Point", "coordinates": [3.517124, 50.363187]}}]}