{"type": "FeatureCollection", "features": [{"type": "Feature", "properties": {"start": "Trouville - Deauville", "stop_name": "Trouville - Deauville", "type": "Gare s\u00e9lectionn\u00e9e", "iconstarte": "Icon2"}, "geometry": {"type": "Point", "coordinates": [0.084167, 49.360005]}}, {"type": "Feature", "properties": {"start": "Trouville - Deauville", "stop_name": "Paris Saint-Lazare", "type": "Gare accessible", "icone": "Icon1"}, "geometry": {"type": "Point", "coordinates": [2.325331, 48.876242]}}, {"type": "Feature", "properties": {"start": "Trouville - Deauville", "stop_name": "\u00c9vreux Normandie", "type": "Gare accessible", "icone": "Icon1"}, "geometry": {"type": "Point", "coordinates": [1.149629, 49.018748]}}, {"type": "Feature", "properties": {"start": "Trouville - Deauville", "stop_name": "Bernay", "type": "Gare accessible", "icone": "Icon1"}, "geometry": {"type": "Point", "coordinates": [0.595688, 49.087116]}}, {"type": "Feature", "properties": {"start": "Trouville - Deauville", "stop_name": "Lisieux", "type": "Gare accessible", "icone": "Icon1"}, "geometry": {"type": "Point", "coordinates": [0.231143, 49.138299]}}, {"type": "Feature", "properties": {"start": "Trouville - Deauville", "stop_name": "Pont-l'\u00c9v\u00eaque", "type": "Gare accessible", "icone": "Icon1"}, "geometry": {"type": "Point", "coordinates": [0.191974, 49.287044]}}, {"type": "Feature", "properties": {"start": "Trouville - Deauville", "stop_name": "Rouen Rive Droite", "type": "Gare accessible", "icone": "Icon1"}, "geometry": {"type": "Point", "coordinates": [1.094103, 49.448663]}}, {"type": "Feature", "properties": {"start": "Trouville - Deauville", "stop_name": "Le Grand Jardin", "type": "Gare accessible", "icone": "Icon1"}, "geometry": {"type": "Point", "coordinates": [0.227207, 49.150322]}}, {"type": "Feature", "properties": {"start": "Trouville - Deauville", "stop_name": "Dives - Cabourg", "type": "Gare accessible", "icone": "Icon1"}, "geometry": {"type": "Point", "coordinates": [-0.107696, 49.286472]}}, {"type": "Feature", "properties": {"start": "Trouville - Deauville", "stop_name": "Dives-sur-Mer Port-Guillaume", "type": "Gare accessible", "icone": "Icon1"}, "geometry": {"type": "Point", "coordinates": [-0.101012, 49.291056]}}, {"type": "Feature", "properties": {"start": "Trouville - Deauville", "stop_name": "Houlgate", "type": "Gare accessible", "icone": "Icon1"}, "geometry": {"type": "Point", "coordinates": [-0.077355, 49.300195]}}, {"type": "Feature", "properties": {"start": "Trouville - Deauville", "stop_name": "Villers-sur-Mer", "type": "Gare accessible", "icone": "Icon1"}, "geometry": {"type": "Point", "coordinates": [0.009715, 49.315876]}}, {"type": "Feature", "properties": {"start": "Trouville - Deauville", "stop_name": "Blonville-sur-Mer - Benerville", "type": "Gare accessible", "icone": "Icon1"}, "geometry": {"type": "Point", "coordinates": [0.035663, 49.331398]}}]}