{"type": "FeatureCollection", "features": [{"type": "Feature", "properties": {"stop_name": "Trouville - Deauville", "type": "Gare s\u00e9lectionn\u00e9e", "icone": "Icon2"}, "geometry": {"type": "Point", "coordinates": [0.084167, 49.360005]}}, {"type": "Feature", "properties": {"stop_name": "Paris Saint-Lazare", "type": "Gare accessible", "icone": "Icon1"}, "geometry": {"type": "Point", "coordinates": [2.325331, 48.876242]}}, {"type": "Feature", "properties": {"stop_name": "\u00c9vreux Normandie", "type": "Gare accessible", "icone": "Icon1"}, "geometry": {"type": "Point", "coordinates": [1.149629, 49.018747999999995]}}, {"type": "Feature", "properties": {"stop_name": "Bernay", "type": "Gare accessible", "icone": "Icon1"}, "geometry": {"type": "Point", "coordinates": [0.595688, 49.087115999999995]}}, {"type": "Feature", "properties": {"stop_name": "Lisieux", "type": "Gare accessible", "icone": "Icon1"}, "geometry": {"type": "Point", "coordinates": [0.231143, 49.138298999999996]}}, {"type": "Feature", "properties": {"stop_name": "Pont-l'\u00c9v\u00eaque", "type": "Gare accessible", "icone": "Icon1"}, "geometry": {"type": "Point", "coordinates": [0.191974, 49.287044]}}, {"type": "Feature", "properties": {"stop_name": "Le Grand Jardin", "type": "Gare accessible", "icone": "Icon1"}, "geometry": {"type": "Point", "coordinates": [0.227207, 49.150321999999996]}}]}