{"type": "FeatureCollection", "features": [{"type": "Feature", "properties": {"stop_name": "Verzeille", "type": "Gare s\u00e9lectionn\u00e9e", "icone": "Icon2"}, "geometry": {"type": "Point", "coordinates": [2.32155, 43.130421999999996]}}, {"type": "Feature", "properties": {"stop_name": "Limoux", "type": "Gare accessible", "icone": "Icon1"}, "geometry": {"type": "Point", "coordinates": [2.222783, 43.056393]}}, {"type": "Feature", "properties": {"stop_name": "Limoux - Flassian", "type": "Gare accessible", "icone": "Icon1"}, "geometry": {"type": "Point", "coordinates": [2.218283, 43.068451]}}, {"type": "Feature", "properties": {"stop_name": "Pomas", "type": "Gare accessible", "icone": "Icon1"}, "geometry": {"type": "Point", "coordinates": [2.28842, 43.112196000000004]}}, {"type": "Feature", "properties": {"stop_name": "Couffoulens - Leuc", "type": "Gare accessible", "icone": "Icon1"}, "geometry": {"type": "Point", "coordinates": [2.316421, 43.155635]}}, {"type": "Feature", "properties": {"stop_name": "Carcassonne", "type": "Gare accessible", "icone": "Icon1"}, "geometry": {"type": "Point", "coordinates": [2.351824, 43.218029]}}]}