{"type": "FeatureCollection", "features": [{"type": "Feature", "properties": {"stop_name": "Villeneuve-de-Berg-Centre", "type": "Gare s\u00e9lectionn\u00e9e"}, "geometry": {"type": "Point", "coordinates": [4.498102, 44.554919]}}, {"type": "Feature", "properties": {"stop_name": "Aubenas Place de la Paix", "type": "Gare accessible"}, "geometry": {"type": "Point", "coordinates": [4.38922, 44.618128999999996]}}, {"type": "Feature", "properties": {"stop_name": "Aubenas Gare Routi\u00e8re", "type": "Gare accessible"}, "geometry": {"type": "Point", "coordinates": [4.407164, 44.61095]}}, {"type": "Feature", "properties": {"stop_name": "Lavilledieu Centre", "type": "Gare accessible"}, "geometry": {"type": "Point", "coordinates": [4.455409, 44.574187]}}, {"type": "Feature", "properties": {"stop_name": "Saint-Jean-le-Centenier Centre", "type": "Gare accessible"}, "geometry": {"type": "Point", "coordinates": [4.536514, 44.58959]}}, {"type": "Feature", "properties": {"stop_name": "Alba-la-Romaine Ruines Romaines", "type": "Gare accessible"}, "geometry": {"type": "Point", "coordinates": [4.587551, 44.570312]}}, {"type": "Feature", "properties": {"stop_name": "Le Teil Sablons", "type": "Gare accessible"}, "geometry": {"type": "Point", "coordinates": [4.685618, 44.5527]}}, {"type": "Feature", "properties": {"stop_name": "Montelimar Gare Routi\u00e8re", "type": "Gare accessible"}, "geometry": {"type": "Point", "coordinates": [4.745107, 44.559439000000005]}}, {"type": "Feature", "properties": {"stop_name": "Valence TGV Rh\u00f4ne-Alpes Sud", "type": "Gare accessible"}, "geometry": {"type": "Point", "coordinates": [4.978652, 44.991907]}}, {"type": "Feature", "properties": {"stop_name": "Grenoble", "type": "Gare accessible"}, "geometry": {"type": "Point", "coordinates": [5.714366, 45.192693]}}, {"type": "Feature", "properties": {"stop_name": "Grenoble-Champollion", "type": "Gare accessible"}, "geometry": {"type": "Point", "coordinates": [5.725304, 45.186336]}}, {"type": "Feature", "properties": {"stop_name": "Saint-Martin-d'H\u00e8res", "type": "Gare accessible"}, "geometry": {"type": "Point", "coordinates": [5.768919, 45.193022]}}]}