{"type": "FeatureCollection", "features": [{"type": "Feature", "properties": {"start": "Wilwisheim", "stop_name": "Wilwisheim", "type": "Gare s\u00e9lectionn\u00e9e", "iconstarte": "Icon2"}, "geometry": {"type": "Point", "coordinates": [7.507836, 48.745877]}}, {"type": "Feature", "properties": {"start": "Wilwisheim", "stop_name": "Strasbourg", "type": "Gare accessible", "icone": "Icon1"}, "geometry": {"type": "Point", "coordinates": [7.734793, 48.584532]}}, {"type": "Feature", "properties": {"start": "Wilwisheim", "stop_name": "Stephansfeld", "type": "Gare accessible", "icone": "Icon1"}, "geometry": {"type": "Point", "coordinates": [7.704595, 48.717587]}}, {"type": "Feature", "properties": {"start": "Wilwisheim", "stop_name": "Brumath", "type": "Gare accessible", "icone": "Icon1"}, "geometry": {"type": "Point", "coordinates": [7.700421, 48.733077]}}, {"type": "Feature", "properties": {"start": "Wilwisheim", "stop_name": "Mommenheim", "type": "Gare accessible", "icone": "Icon1"}, "geometry": {"type": "Point", "coordinates": [7.642303, 48.755951]}}, {"type": "Feature", "properties": {"start": "Wilwisheim", "stop_name": "Schwindratzheim", "type": "Gare accessible", "icone": "Icon1"}, "geometry": {"type": "Point", "coordinates": [7.600597, 48.753658]}}, {"type": "Feature", "properties": {"start": "Wilwisheim", "stop_name": "Hochfelden", "type": "Gare accessible", "icone": "Icon1"}, "geometry": {"type": "Point", "coordinates": [7.572281, 48.755416]}}, {"type": "Feature", "properties": {"start": "Wilwisheim", "stop_name": "Dettwiller", "type": "Gare accessible", "icone": "Icon1"}, "geometry": {"type": "Point", "coordinates": [7.465077, 48.751916]}}, {"type": "Feature", "properties": {"start": "Wilwisheim", "stop_name": "Steinbourg", "type": "Gare accessible", "icone": "Icon1"}, "geometry": {"type": "Point", "coordinates": [7.416299, 48.763529]}}, {"type": "Feature", "properties": {"start": "Wilwisheim", "stop_name": "Saverne", "type": "Gare accessible", "icone": "Icon1"}, "geometry": {"type": "Point", "coordinates": [7.362055, 48.744483]}}, {"type": "Feature", "properties": {"start": "Wilwisheim", "stop_name": "Sarrebourg", "type": "Gare accessible", "icone": "Icon1"}, "geometry": {"type": "Point", "coordinates": [7.05285, 48.73808]}}, {"type": "Feature", "properties": {"start": "Wilwisheim", "stop_name": "R\u00e9ding", "type": "Gare accessible", "icone": "Icon1"}, "geometry": {"type": "Point", "coordinates": [7.095885, 48.74296]}}, {"type": "Feature", "properties": {"start": "Wilwisheim", "stop_name": "Lutzelbourg", "type": "Gare accessible", "icone": "Icon1"}, "geometry": {"type": "Point", "coordinates": [7.251587, 48.730011]}}, {"type": "Feature", "properties": {"start": "Wilwisheim", "stop_name": "Vendenheim", "type": "Gare accessible", "icone": "Icon1"}, "geometry": {"type": "Point", "coordinates": [7.717777, 48.665922]}}]}