{"type": "FeatureCollection", "features": [{"type": "Feature", "properties": {"stop_name": "Wittring Pont", "type": "Gare s\u00e9lectionn\u00e9e"}, "geometry": {"type": "Point", "coordinates": [7.150877, 49.053325]}}, {"type": "Feature", "properties": {"stop_name": "Sarre-Union", "type": "Gare accessible"}, "geometry": {"type": "Point", "coordinates": [7.085044, 48.936017]}}, {"type": "Feature", "properties": {"stop_name": "Keskastel Gare", "type": "Gare accessible"}, "geometry": {"type": "Point", "coordinates": [7.049639, 48.966364]}}, {"type": "Feature", "properties": {"stop_name": "Sarralbe Centre", "type": "Gare accessible"}, "geometry": {"type": "Point", "coordinates": [7.028793, 48.998501]}}, {"type": "Feature", "properties": {"stop_name": "Herbitzheim Msp", "type": "Gare accessible"}, "geometry": {"type": "Point", "coordinates": [7.081511, 49.012883]}}, {"type": "Feature", "properties": {"stop_name": "Herbitzheim Mairie", "type": "Gare accessible"}, "geometry": {"type": "Point", "coordinates": [7.082943, 49.01705]}}, {"type": "Feature", "properties": {"stop_name": "Kalhausen Gare", "type": "Gare accessible"}, "geometry": {"type": "Point", "coordinates": [7.125438, 49.035033]}}, {"type": "Feature", "properties": {"stop_name": "Zetting Salle des F\u00eates", "type": "Gare accessible"}, "geometry": {"type": "Point", "coordinates": [7.135454, 49.079405]}}, {"type": "Feature", "properties": {"stop_name": "Sarreinsming Pont", "type": "Gare accessible"}, "geometry": {"type": "Point", "coordinates": [7.109377, 49.086364]}}, {"type": "Feature", "properties": {"stop_name": "R\u00e9melfing Centre", "type": "Gare accessible"}, "geometry": {"type": "Point", "coordinates": [7.092517, 49.091669]}}, {"type": "Feature", "properties": {"stop_name": "Sarreguemines", "type": "Gare accessible"}, "geometry": {"type": "Point", "coordinates": [7.068576, 49.10738]}}, {"type": "Feature", "properties": {"stop_name": "Sarrebourg", "type": "Gare accessible"}, "geometry": {"type": "Point", "coordinates": [7.05285, 48.73808]}}, {"type": "Feature", "properties": {"stop_name": "Sarrebourg Place Mathey", "type": "Gare accessible"}, "geometry": {"type": "Point", "coordinates": [7.057152, 48.736878999999995]}}, {"type": "Feature", "properties": {"stop_name": "Sarrebourg M\u00e9phisto", "type": "Gare accessible"}, "geometry": {"type": "Point", "coordinates": [7.067186, 48.749685]}}, {"type": "Feature", "properties": {"stop_name": "Sarraltroff Gare", "type": "Gare accessible"}, "geometry": {"type": "Point", "coordinates": [7.065614, 48.77005]}}, {"type": "Feature", "properties": {"stop_name": "Sarraltroff Mairie", "type": "Gare accessible"}, "geometry": {"type": "Point", "coordinates": [7.060816, 48.774013000000004]}}, {"type": "Feature", "properties": {"stop_name": "Sarraltroff Rue de F\u00e9n\u00e9trange", "type": "Gare accessible"}, "geometry": {"type": "Point", "coordinates": [7.056506, 48.77713]}}, {"type": "Feature", "properties": {"stop_name": "Oberstinzel Rue Principale", "type": "Gare accessible"}, "geometry": {"type": "Point", "coordinates": [7.034662, 48.792843]}}, {"type": "Feature", "properties": {"stop_name": "Bettborn Grand Rue", "type": "Gare accessible"}, "geometry": {"type": "Point", "coordinates": [7.020655, 48.801309]}}, {"type": "Feature", "properties": {"stop_name": "Berthelming Principale", "type": "Gare accessible"}, "geometry": {"type": "Point", "coordinates": [7.00887, 48.818607]}}, {"type": "Feature", "properties": {"stop_name": "Berthelming Mairie", "type": "Gare accessible"}, "geometry": {"type": "Point", "coordinates": [7.007105, 48.816176]}}, {"type": "Feature", "properties": {"stop_name": "Romelfling Rue de l'Europe", "type": "Gare accessible"}, "geometry": {"type": "Point", "coordinates": [7.020692, 48.831943]}}, {"type": "Feature", "properties": {"stop_name": "F\u00e9n\u00e9trange Gendarmerie", "type": "Gare accessible"}, "geometry": {"type": "Point", "coordinates": [7.019818, 48.844289]}}, {"type": "Feature", "properties": {"stop_name": "F\u00e9n\u00e9trange Le Val Fleuri", "type": "Gare accessible"}, "geometry": {"type": "Point", "coordinates": [7.019126, 48.847801000000004]}}, {"type": "Feature", "properties": {"stop_name": "Niederstinzel Principale", "type": "Gare accessible"}, "geometry": {"type": "Point", "coordinates": [7.031502, 48.863212]}}, {"type": "Feature", "properties": {"stop_name": "Diedendorf Rond-Point", "type": "Gare accessible"}, "geometry": {"type": "Point", "coordinates": [7.054301, 48.876884999999994]}}, {"type": "Feature", "properties": {"stop_name": "Wolfskirchen Rue du Moulin", "type": "Gare accessible"}, "geometry": {"type": "Point", "coordinates": [7.071746, 48.879298]}}, {"type": "Feature", "properties": {"stop_name": "Bischtroff-sur-Sarre Mairie", "type": "Gare accessible"}, "geometry": {"type": "Point", "coordinates": [7.071829, 48.901094]}}, {"type": "Feature", "properties": {"stop_name": "Sarrewerden Lotissement", "type": "Gare accessible"}, "geometry": {"type": "Point", "coordinates": [7.085991, 48.920772]}}, {"type": "Feature", "properties": {"stop_name": "Sarrewerden \u00c9glise", "type": "Gare accessible"}, "geometry": {"type": "Point", "coordinates": [7.082091, 48.923799]}}, {"type": "Feature", "properties": {"stop_name": "Schopperten Gare", "type": "Gare accessible"}, "geometry": {"type": "Point", "coordinates": [7.055736, 48.945665999999996]}}, {"type": "Feature", "properties": {"stop_name": "Saint-Jean-de-Bassel \u00c9glise", "type": "Gare accessible"}, "geometry": {"type": "Point", "coordinates": [6.99114, 48.803627]}}, {"type": "Feature", "properties": {"stop_name": "Gosselming Mairie", "type": "Gare accessible"}, "geometry": {"type": "Point", "coordinates": [7.000769, 48.793028]}}, {"type": "Feature", "properties": {"stop_name": "Gosselming Poste", "type": "Gare accessible"}, "geometry": {"type": "Point", "coordinates": [7.00551, 48.790791]}}, {"type": "Feature", "properties": {"stop_name": "Dolving Rue de Sarrebourg", "type": "Gare accessible"}, "geometry": {"type": "Point", "coordinates": [7.021862, 48.772285]}}, {"type": "Feature", "properties": {"stop_name": "Saint-Jean-de-Bassel", "type": "Gare accessible"}, "geometry": {"type": "Point", "coordinates": [6.991191, 48.803595]}}, {"type": "Feature", "properties": {"stop_name": "Sarrebourg Route de Phalsbourg", "type": "Gare accessible"}, "geometry": {"type": "Point", "coordinates": [7.066387, 48.73875]}}]}