{"type": "FeatureCollection", "features": [{"type": "Feature", "properties": {"start": "Ytrac", "stop_name": "Ytrac", "type": "Gare s\u00e9lectionn\u00e9e", "iconstarte": "Icon2"}, "geometry": {"type": "Point", "coordinates": [2.364402, 44.910652]}}, {"type": "Feature", "properties": {"start": "Ytrac", "stop_name": "Figeac", "type": "Gare accessible", "icone": "Icon1"}, "geometry": {"type": "Point", "coordinates": [2.037355, 44.603515]}}, {"type": "Feature", "properties": {"start": "Ytrac", "stop_name": "Bagnac", "type": "Gare accessible", "icone": "Icon1"}, "geometry": {"type": "Point", "coordinates": [2.160192, 44.665276]}}, {"type": "Feature", "properties": {"start": "Ytrac", "stop_name": "Maurs", "type": "Gare accessible", "icone": "Icon1"}, "geometry": {"type": "Point", "coordinates": [2.199653, 44.706158]}}, {"type": "Feature", "properties": {"start": "Ytrac", "stop_name": "Boisset", "type": "Gare accessible", "icone": "Icon1"}, "geometry": {"type": "Point", "coordinates": [2.249767, 44.786038]}}, {"type": "Feature", "properties": {"start": "Ytrac", "stop_name": "Le Rouget", "type": "Gare accessible", "icone": "Icon1"}, "geometry": {"type": "Point", "coordinates": [2.235479, 44.856294]}}, {"type": "Feature", "properties": {"start": "Ytrac", "stop_name": "Pers", "type": "Gare accessible", "icone": "Icon1"}, "geometry": {"type": "Point", "coordinates": [2.240404, 44.88703]}}, {"type": "Feature", "properties": {"start": "Ytrac", "stop_name": "Lacapelle-Viescamp", "type": "Gare accessible", "icone": "Icon1"}, "geometry": {"type": "Point", "coordinates": [2.265482, 44.920348]}}, {"type": "Feature", "properties": {"start": "Ytrac", "stop_name": "Aurillac", "type": "Gare accessible", "icone": "Icon1"}, "geometry": {"type": "Point", "coordinates": [2.435583, 44.921041]}}]}