{"type": "FeatureCollection", "features": [{"type": "Feature", "properties": {"stop_name": "\u00c9taples - Le Touquet", "type": "Gare s\u00e9lectionn\u00e9e", "icone": "Icon2"}, "geometry": {"type": "Point", "coordinates": [1.64231, 50.51686]}}, {"type": "Feature", "properties": {"stop_name": "Calais Ville", "type": "Gare accessible", "icone": "Icon1"}, "geometry": {"type": "Point", "coordinates": [1.850885, 50.953466]}}, {"type": "Feature", "properties": {"stop_name": "Boulogne", "type": "Gare accessible", "icone": "Icon1"}, "geometry": {"type": "Point", "coordinates": [1.60964, 50.7157]}}, {"type": "Feature", "properties": {"stop_name": "Rang-du-Fliers - Verton - Berck", "type": "Gare accessible", "icone": "Icon1"}, "geometry": {"type": "Point", "coordinates": [1.648099, 50.415833]}}, {"type": "Feature", "properties": {"stop_name": "Rue", "type": "Gare accessible", "icone": "Icon1"}, "geometry": {"type": "Point", "coordinates": [1.67578, 50.273175]}}, {"type": "Feature", "properties": {"stop_name": "Noyelles-sur-Mer", "type": "Gare accessible", "icone": "Icon1"}, "geometry": {"type": "Point", "coordinates": [1.704577, 50.187540999999996]}}, {"type": "Feature", "properties": {"stop_name": "Abbeville", "type": "Gare accessible", "icone": "Icon1"}, "geometry": {"type": "Point", "coordinates": [1.824487, 50.102216]}}, {"type": "Feature", "properties": {"stop_name": "Amiens", "type": "Gare accessible", "icone": "Icon1"}, "geometry": {"type": "Point", "coordinates": [2.308277, 49.890584000000004]}}, {"type": "Feature", "properties": {"stop_name": "Longueau", "type": "Gare accessible", "icone": "Icon1"}, "geometry": {"type": "Point", "coordinates": [2.352201, 49.863474]}}, {"type": "Feature", "properties": {"stop_name": "Paris Gare du Nord", "type": "Gare accessible", "icone": "Icon1"}, "geometry": {"type": "Point", "coordinates": [2.354851, 48.880136]}}, {"type": "Feature", "properties": {"stop_name": "Saint-Just-en-Chauss\u00e9e", "type": "Gare accessible", "icone": "Icon1"}, "geometry": {"type": "Point", "coordinates": [2.42949, 49.503640000000004]}}, {"type": "Feature", "properties": {"stop_name": "Clermont de l'Oise", "type": "Gare accessible", "icone": "Icon1"}, "geometry": {"type": "Point", "coordinates": [2.41767, 49.38531]}}, {"type": "Feature", "properties": {"stop_name": "Creil", "type": "Gare accessible", "icone": "Icon1"}, "geometry": {"type": "Point", "coordinates": [2.469199, 49.2638]}}, {"type": "Feature", "properties": {"stop_name": "Marquise - Rinxent", "type": "Gare accessible", "icone": "Icon1"}, "geometry": {"type": "Point", "coordinates": [1.729861, 50.80567]}}, {"type": "Feature", "properties": {"stop_name": "Montreuil sur Mer", "type": "Gare accessible", "icone": "Icon1"}, "geometry": {"type": "Point", "coordinates": [1.768935, 50.466155]}}, {"type": "Feature", "properties": {"stop_name": "Beaurainville", "type": "Gare accessible", "icone": "Icon1"}, "geometry": {"type": "Point", "coordinates": [1.895345, 50.422891]}}, {"type": "Feature", "properties": {"stop_name": "Hesdin", "type": "Gare accessible", "icone": "Icon1"}, "geometry": {"type": "Point", "coordinates": [2.03526, 50.378248]}}, {"type": "Feature", "properties": {"stop_name": "Auchy-l\u00e8s-Hesdin", "type": "Gare accessible", "icone": "Icon1"}, "geometry": {"type": "Point", "coordinates": [2.102356, 50.396347999999996]}}, {"type": "Feature", "properties": {"stop_name": "Anvin", "type": "Gare accessible", "icone": "Icon1"}, "geometry": {"type": "Point", "coordinates": [2.254987, 50.446834]}}, {"type": "Feature", "properties": {"stop_name": "Saint-Pol-sur-Ternoise", "type": "Gare accessible", "icone": "Icon1"}, "geometry": {"type": "Point", "coordinates": [2.33934, 50.379156]}}, {"type": "Feature", "properties": {"stop_name": "Brimeux", "type": "Gare accessible", "icone": "Icon1"}, "geometry": {"type": "Point", "coordinates": [1.833832, 50.446752000000004]}}, {"type": "Feature", "properties": {"stop_name": "Maresquel", "type": "Gare accessible", "icone": "Icon1"}, "geometry": {"type": "Point", "coordinates": [1.930836, 50.408076]}}, {"type": "Feature", "properties": {"stop_name": "Aubin-Saint-Vaast", "type": "Gare accessible", "icone": "Icon1"}, "geometry": {"type": "Point", "coordinates": [1.969989, 50.394778]}}, {"type": "Feature", "properties": {"stop_name": "Blangy-sur-Ternoise", "type": "Gare accessible", "icone": "Icon1"}, "geometry": {"type": "Point", "coordinates": [2.172219, 50.424679]}}, {"type": "Feature", "properties": {"stop_name": "Les Fontinettes", "type": "Gare accessible", "icone": "Icon1"}, "geometry": {"type": "Point", "coordinates": [1.849807, 50.940968]}}, {"type": "Feature", "properties": {"stop_name": "Calais - Fr\u00e9thun", "type": "Gare accessible", "icone": "Icon1"}, "geometry": {"type": "Point", "coordinates": [1.811205, 50.901441]}}, {"type": "Feature", "properties": {"stop_name": "Wimille - Wimereux", "type": "Gare accessible", "icone": "Icon1"}, "geometry": {"type": "Point", "coordinates": [1.613649, 50.763913]}}, {"type": "Feature", "properties": {"stop_name": "Boulogne - Tintelleries", "type": "Gare accessible", "icone": "Icon1"}, "geometry": {"type": "Point", "coordinates": [1.609071, 50.727281]}}, {"type": "Feature", "properties": {"stop_name": "Hesdigneul", "type": "Gare accessible", "icone": "Icon1"}, "geometry": {"type": "Point", "coordinates": [1.666998, 50.661095]}}, {"type": "Feature", "properties": {"stop_name": "Neufch\u00e2tel-Hardelot", "type": "Gare accessible", "icone": "Icon1"}, "geometry": {"type": "Point", "coordinates": [1.643328, 50.623627]}}, {"type": "Feature", "properties": {"stop_name": "Dannes - Camiers", "type": "Gare accessible", "icone": "Icon1"}, "geometry": {"type": "Point", "coordinates": [1.61476, 50.575886]}}, {"type": "Feature", "properties": {"stop_name": "Pihen", "type": "Gare accessible", "icone": "Icon1"}, "geometry": {"type": "Point", "coordinates": [1.784589, 50.872803000000005]}}, {"type": "Feature", "properties": {"stop_name": "Caffiers", "type": "Gare accessible", "icone": "Icon1"}, "geometry": {"type": "Point", "coordinates": [1.812034, 50.850068]}}, {"type": "Feature", "properties": {"stop_name": "Le Haut Banc", "type": "Gare accessible", "icone": "Icon1"}, "geometry": {"type": "Point", "coordinates": [1.772519, 50.816399]}}, {"type": "Feature", "properties": {"stop_name": "Pont de Briques", "type": "Gare accessible", "icone": "Icon1"}, "geometry": {"type": "Point", "coordinates": [1.627151, 50.682469]}}, {"type": "Feature", "properties": {"stop_name": "Pernes - Camblain", "type": "Gare accessible", "icone": "Icon1"}, "geometry": {"type": "Point", "coordinates": [2.431076, 50.480353]}}, {"type": "Feature", "properties": {"stop_name": "Calonne-Ricouart", "type": "Gare accessible", "icone": "Icon1"}, "geometry": {"type": "Point", "coordinates": [2.481062, 50.482799]}}, {"type": "Feature", "properties": {"stop_name": "Vis \u00e0 Marles", "type": "Gare accessible", "icone": "Icon1"}, "geometry": {"type": "Point", "coordinates": [2.517363, 50.50509]}}, {"type": "Feature", "properties": {"stop_name": "B\u00e9thune", "type": "Gare accessible", "icone": "Icon1"}, "geometry": {"type": "Point", "coordinates": [2.640509, 50.521454]}}, {"type": "Feature", "properties": {"stop_name": "Lille Europe", "type": "Gare accessible", "icone": "Icon1"}, "geometry": {"type": "Point", "coordinates": [3.075796, 50.639224]}}, {"type": "Feature", "properties": {"stop_name": "Saint-Roch", "type": "Gare accessible", "icone": "Icon1"}, "geometry": {"type": "Point", "coordinates": [2.283716, 49.89342]}}]}