{"type": "FeatureCollection", "features": [{"type": "Feature", "properties": {"stop_name": "Abbeville", "type": "Gare s\u00e9lectionn\u00e9e", "icone": "Icon2"}, "geometry": {"type": "Point", "coordinates": [1.824487, 50.102216]}}, {"type": "Feature", "properties": {"stop_name": "Calais Ville", "type": "Gare accessible", "icone": "Icon1"}, "geometry": {"type": "Point", "coordinates": [1.850885, 50.953466]}}, {"type": "Feature", "properties": {"stop_name": "Boulogne", "type": "Gare accessible", "icone": "Icon1"}, "geometry": {"type": "Point", "coordinates": [1.60964, 50.7157]}}, {"type": "Feature", "properties": {"stop_name": "\u00c9taples - Le Touquet", "type": "Gare accessible", "icone": "Icon1"}, "geometry": {"type": "Point", "coordinates": [1.64231, 50.51686]}}, {"type": "Feature", "properties": {"stop_name": "Rang-du-Fliers - Verton - Berck", "type": "Gare accessible", "icone": "Icon1"}, "geometry": {"type": "Point", "coordinates": [1.648099, 50.415833]}}, {"type": "Feature", "properties": {"stop_name": "Rue", "type": "Gare accessible", "icone": "Icon1"}, "geometry": {"type": "Point", "coordinates": [1.67578, 50.273175]}}, {"type": "Feature", "properties": {"stop_name": "Noyelles-sur-Mer", "type": "Gare accessible", "icone": "Icon1"}, "geometry": {"type": "Point", "coordinates": [1.704577, 50.187540999999996]}}, {"type": "Feature", "properties": {"stop_name": "Amiens", "type": "Gare accessible", "icone": "Icon1"}, "geometry": {"type": "Point", "coordinates": [2.308277, 49.890584000000004]}}, {"type": "Feature", "properties": {"stop_name": "Longueau", "type": "Gare accessible", "icone": "Icon1"}, "geometry": {"type": "Point", "coordinates": [2.352201, 49.863474]}}, {"type": "Feature", "properties": {"stop_name": "Paris Gare du Nord", "type": "Gare accessible", "icone": "Icon1"}, "geometry": {"type": "Point", "coordinates": [2.354851, 48.880136]}}, {"type": "Feature", "properties": {"stop_name": "Saint-Just-en-Chauss\u00e9e", "type": "Gare accessible", "icone": "Icon1"}, "geometry": {"type": "Point", "coordinates": [2.42949, 49.503640000000004]}}, {"type": "Feature", "properties": {"stop_name": "Clermont de l'Oise", "type": "Gare accessible", "icone": "Icon1"}, "geometry": {"type": "Point", "coordinates": [2.41767, 49.38531]}}, {"type": "Feature", "properties": {"stop_name": "Creil", "type": "Gare accessible", "icone": "Icon1"}, "geometry": {"type": "Point", "coordinates": [2.469199, 49.2638]}}, {"type": "Feature", "properties": {"stop_name": "Marquise - Rinxent", "type": "Gare accessible", "icone": "Icon1"}, "geometry": {"type": "Point", "coordinates": [1.729861, 50.80567]}}, {"type": "Feature", "properties": {"stop_name": "Longpr\u00e9-les-Corps-Saints", "type": "Gare accessible", "icone": "Icon1"}, "geometry": {"type": "Point", "coordinates": [2.002779, 50.011348999999996]}}, {"type": "Feature", "properties": {"stop_name": "Ailly-sur-Somme", "type": "Gare accessible", "icone": "Icon1"}, "geometry": {"type": "Point", "coordinates": [2.20061, 49.928357]}}, {"type": "Feature", "properties": {"stop_name": "Saint-Roch", "type": "Gare accessible", "icone": "Icon1"}, "geometry": {"type": "Point", "coordinates": [2.283716, 49.89342]}}, {"type": "Feature", "properties": {"stop_name": "Dreuil-l\u00e8s-Amiens", "type": "Gare accessible", "icone": "Icon1"}, "geometry": {"type": "Point", "coordinates": [2.230831, 49.914549]}}, {"type": "Feature", "properties": {"stop_name": "Picquigny", "type": "Gare accessible", "icone": "Icon1"}, "geometry": {"type": "Point", "coordinates": [2.143276, 49.946156]}}, {"type": "Feature", "properties": {"stop_name": "Hangest-sur-Somme", "type": "Gare accessible", "icone": "Icon1"}, "geometry": {"type": "Point", "coordinates": [2.065859, 49.982337]}}, {"type": "Feature", "properties": {"stop_name": "Pont-Remy", "type": "Gare accessible", "icone": "Icon1"}, "geometry": {"type": "Point", "coordinates": [1.898701, 50.047243]}}, {"type": "Feature", "properties": {"stop_name": "Albert", "type": "Gare accessible", "icone": "Icon1"}, "geometry": {"type": "Point", "coordinates": [2.644527, 50.005434]}}, {"type": "Feature", "properties": {"stop_name": "Buire-sur-l'Ancre", "type": "Gare accessible", "icone": "Icon1"}, "geometry": {"type": "Point", "coordinates": [2.598202, 49.964797]}}, {"type": "Feature", "properties": {"stop_name": "M\u00e9ricourt - Ribemont", "type": "Gare accessible", "icone": "Icon1"}, "geometry": {"type": "Point", "coordinates": [2.572625, 49.955638]}}, {"type": "Feature", "properties": {"stop_name": "Heilly", "type": "Gare accessible", "icone": "Icon1"}, "geometry": {"type": "Point", "coordinates": [2.539659, 49.943519]}}, {"type": "Feature", "properties": {"stop_name": "Corbie", "type": "Gare accessible", "icone": "Icon1"}, "geometry": {"type": "Point", "coordinates": [2.499666, 49.911615999999995]}}, {"type": "Feature", "properties": {"stop_name": "Daours", "type": "Gare accessible", "icone": "Icon1"}, "geometry": {"type": "Point", "coordinates": [2.458792, 49.899115]}}, {"type": "Feature", "properties": {"stop_name": "Neufch\u00e2tel-Hardelot", "type": "Gare accessible", "icone": "Icon1"}, "geometry": {"type": "Point", "coordinates": [1.643328, 50.623627]}}, {"type": "Feature", "properties": {"stop_name": "Hesdigneul", "type": "Gare accessible", "icone": "Icon1"}, "geometry": {"type": "Point", "coordinates": [1.666998, 50.661095]}}, {"type": "Feature", "properties": {"stop_name": "Boulogne - Tintelleries", "type": "Gare accessible", "icone": "Icon1"}, "geometry": {"type": "Point", "coordinates": [1.609071, 50.727281]}}, {"type": "Feature", "properties": {"stop_name": "Wimille - Wimereux", "type": "Gare accessible", "icone": "Icon1"}, "geometry": {"type": "Point", "coordinates": [1.613649, 50.763913]}}, {"type": "Feature", "properties": {"stop_name": "Calais - Fr\u00e9thun", "type": "Gare accessible", "icone": "Icon1"}, "geometry": {"type": "Point", "coordinates": [1.811205, 50.901441]}}, {"type": "Feature", "properties": {"stop_name": "Les Fontinettes", "type": "Gare accessible", "icone": "Icon1"}, "geometry": {"type": "Point", "coordinates": [1.849807, 50.940968]}}, {"type": "Feature", "properties": {"stop_name": "Dannes - Camiers", "type": "Gare accessible", "icone": "Icon1"}, "geometry": {"type": "Point", "coordinates": [1.61476, 50.575886]}}]}