{"type": "FeatureCollection", "features": [{"type": "Feature", "properties": {"stop_name": "Amiens", "type": "Gare s\u00e9lectionn\u00e9e", "icone": "Icon2"}, "geometry": {"type": "Point", "coordinates": [2.308277, 49.890584000000004]}}, {"type": "Feature", "properties": {"stop_name": "Calais Ville", "type": "Gare accessible", "icone": "Icon1"}, "geometry": {"type": "Point", "coordinates": [1.850885, 50.953466]}}, {"type": "Feature", "properties": {"stop_name": "Boulogne", "type": "Gare accessible", "icone": "Icon1"}, "geometry": {"type": "Point", "coordinates": [1.60964, 50.7157]}}, {"type": "Feature", "properties": {"stop_name": "\u00c9taples - Le Touquet", "type": "Gare accessible", "icone": "Icon1"}, "geometry": {"type": "Point", "coordinates": [1.64231, 50.51686]}}, {"type": "Feature", "properties": {"stop_name": "Rang-du-Fliers - Verton - Berck", "type": "Gare accessible", "icone": "Icon1"}, "geometry": {"type": "Point", "coordinates": [1.648099, 50.415833]}}, {"type": "Feature", "properties": {"stop_name": "Rue", "type": "Gare accessible", "icone": "Icon1"}, "geometry": {"type": "Point", "coordinates": [1.67578, 50.273175]}}, {"type": "Feature", "properties": {"stop_name": "Noyelles-sur-Mer", "type": "Gare accessible", "icone": "Icon1"}, "geometry": {"type": "Point", "coordinates": [1.704577, 50.187540999999996]}}, {"type": "Feature", "properties": {"stop_name": "Abbeville", "type": "Gare accessible", "icone": "Icon1"}, "geometry": {"type": "Point", "coordinates": [1.824487, 50.102216]}}, {"type": "Feature", "properties": {"stop_name": "Longueau", "type": "Gare accessible", "icone": "Icon1"}, "geometry": {"type": "Point", "coordinates": [2.352201, 49.863474]}}, {"type": "Feature", "properties": {"stop_name": "Paris Gare du Nord", "type": "Gare accessible", "icone": "Icon1"}, "geometry": {"type": "Point", "coordinates": [2.354851, 48.880136]}}, {"type": "Feature", "properties": {"stop_name": "Saint-Just-en-Chauss\u00e9e", "type": "Gare accessible", "icone": "Icon1"}, "geometry": {"type": "Point", "coordinates": [2.42949, 49.503640000000004]}}, {"type": "Feature", "properties": {"stop_name": "Clermont de l'Oise", "type": "Gare accessible", "icone": "Icon1"}, "geometry": {"type": "Point", "coordinates": [2.41767, 49.38531]}}, {"type": "Feature", "properties": {"stop_name": "Creil", "type": "Gare accessible", "icone": "Icon1"}, "geometry": {"type": "Point", "coordinates": [2.469199, 49.2638]}}, {"type": "Feature", "properties": {"stop_name": "Marquise - Rinxent", "type": "Gare accessible", "icone": "Icon1"}, "geometry": {"type": "Point", "coordinates": [1.729861, 50.80567]}}, {"type": "Feature", "properties": {"stop_name": "Rouen Rive Droite", "type": "Gare accessible", "icone": "Icon1"}, "geometry": {"type": "Point", "coordinates": [1.094103, 49.448663]}}, {"type": "Feature", "properties": {"stop_name": "Morgny", "type": "Gare accessible", "icone": "Icon1"}, "geometry": {"type": "Point", "coordinates": [1.247359, 49.522874]}}, {"type": "Feature", "properties": {"stop_name": "Mont\u00e9rolier - Buchy", "type": "Gare accessible", "icone": "Icon1"}, "geometry": {"type": "Point", "coordinates": [1.334721, 49.603165999999995]}}, {"type": "Feature", "properties": {"stop_name": "Serqueux", "type": "Gare accessible", "icone": "Icon1"}, "geometry": {"type": "Point", "coordinates": [1.539403, 49.631551]}}, {"type": "Feature", "properties": {"stop_name": "Formerie", "type": "Gare accessible", "icone": "Icon1"}, "geometry": {"type": "Point", "coordinates": [1.72285, 49.654191]}}, {"type": "Feature", "properties": {"stop_name": "Abancourt", "type": "Gare accessible", "icone": "Icon1"}, "geometry": {"type": "Point", "coordinates": [1.774351, 49.685602]}}, {"type": "Feature", "properties": {"stop_name": "Poix-de-Picardie", "type": "Gare accessible", "icone": "Icon1"}, "geometry": {"type": "Point", "coordinates": [1.989813, 49.777856]}}, {"type": "Feature", "properties": {"stop_name": "Saint-Roch", "type": "Gare accessible", "icone": "Icon1"}, "geometry": {"type": "Point", "coordinates": [2.283716, 49.89342]}}, {"type": "Feature", "properties": {"stop_name": "Lille Flandres", "type": "Gare accessible", "icone": "Icon1"}, "geometry": {"type": "Point", "coordinates": [3.06987, 50.636577]}}, {"type": "Feature", "properties": {"stop_name": "Arras", "type": "Gare accessible", "icone": "Icon1"}, "geometry": {"type": "Point", "coordinates": [2.781314, 50.286971]}}, {"type": "Feature", "properties": {"stop_name": "Achiet", "type": "Gare accessible", "icone": "Icon1"}, "geometry": {"type": "Point", "coordinates": [2.780147, 50.131741]}}, {"type": "Feature", "properties": {"stop_name": "Albert", "type": "Gare accessible", "icone": "Icon1"}, "geometry": {"type": "Point", "coordinates": [2.644527, 50.005434]}}, {"type": "Feature", "properties": {"stop_name": "Douai", "type": "Gare accessible", "icone": "Icon1"}, "geometry": {"type": "Point", "coordinates": [3.089958, 50.371673]}}, {"type": "Feature", "properties": {"stop_name": "Corbie", "type": "Gare accessible", "icone": "Icon1"}, "geometry": {"type": "Point", "coordinates": [2.499666, 49.911615999999995]}}, {"type": "Feature", "properties": {"stop_name": "Dunkerque", "type": "Gare accessible", "icone": "Icon1"}, "geometry": {"type": "Point", "coordinates": [2.368991, 51.030409999999996]}}, {"type": "Feature", "properties": {"stop_name": "Lille Europe", "type": "Gare accessible", "icone": "Icon1"}, "geometry": {"type": "Point", "coordinates": [3.075796, 50.639224]}}, {"type": "Feature", "properties": {"stop_name": "Longpr\u00e9-les-Corps-Saints", "type": "Gare accessible", "icone": "Icon1"}, "geometry": {"type": "Point", "coordinates": [2.002779, 50.011348999999996]}}, {"type": "Feature", "properties": {"stop_name": "Ailly-sur-Somme", "type": "Gare accessible", "icone": "Icon1"}, "geometry": {"type": "Point", "coordinates": [2.20061, 49.928357]}}, {"type": "Feature", "properties": {"stop_name": "Dreuil-l\u00e8s-Amiens", "type": "Gare accessible", "icone": "Icon1"}, "geometry": {"type": "Point", "coordinates": [2.230831, 49.914549]}}, {"type": "Feature", "properties": {"stop_name": "Picquigny", "type": "Gare accessible", "icone": "Icon1"}, "geometry": {"type": "Point", "coordinates": [2.143276, 49.946156]}}, {"type": "Feature", "properties": {"stop_name": "Hangest-sur-Somme", "type": "Gare accessible", "icone": "Icon1"}, "geometry": {"type": "Point", "coordinates": [2.065859, 49.982337]}}, {"type": "Feature", "properties": {"stop_name": "Pont-Remy", "type": "Gare accessible", "icone": "Icon1"}, "geometry": {"type": "Point", "coordinates": [1.898701, 50.047243]}}, {"type": "Feature", "properties": {"stop_name": "Buire-sur-l'Ancre", "type": "Gare accessible", "icone": "Icon1"}, "geometry": {"type": "Point", "coordinates": [2.598202, 49.964797]}}, {"type": "Feature", "properties": {"stop_name": "M\u00e9ricourt - Ribemont", "type": "Gare accessible", "icone": "Icon1"}, "geometry": {"type": "Point", "coordinates": [2.572625, 49.955638]}}, {"type": "Feature", "properties": {"stop_name": "Heilly", "type": "Gare accessible", "icone": "Icon1"}, "geometry": {"type": "Point", "coordinates": [2.539659, 49.943519]}}, {"type": "Feature", "properties": {"stop_name": "Daours", "type": "Gare accessible", "icone": "Icon1"}, "geometry": {"type": "Point", "coordinates": [2.458792, 49.899115]}}, {"type": "Feature", "properties": {"stop_name": "Neufch\u00e2tel-Hardelot", "type": "Gare accessible", "icone": "Icon1"}, "geometry": {"type": "Point", "coordinates": [1.643328, 50.623627]}}, {"type": "Feature", "properties": {"stop_name": "Hesdigneul", "type": "Gare accessible", "icone": "Icon1"}, "geometry": {"type": "Point", "coordinates": [1.666998, 50.661095]}}, {"type": "Feature", "properties": {"stop_name": "Boulogne - Tintelleries", "type": "Gare accessible", "icone": "Icon1"}, "geometry": {"type": "Point", "coordinates": [1.609071, 50.727281]}}, {"type": "Feature", "properties": {"stop_name": "Wimille - Wimereux", "type": "Gare accessible", "icone": "Icon1"}, "geometry": {"type": "Point", "coordinates": [1.613649, 50.763913]}}, {"type": "Feature", "properties": {"stop_name": "Calais - Fr\u00e9thun", "type": "Gare accessible", "icone": "Icon1"}, "geometry": {"type": "Point", "coordinates": [1.811205, 50.901441]}}, {"type": "Feature", "properties": {"stop_name": "Les Fontinettes", "type": "Gare accessible", "icone": "Icon1"}, "geometry": {"type": "Point", "coordinates": [1.849807, 50.940968]}}, {"type": "Feature", "properties": {"stop_name": "Dannes - Camiers", "type": "Gare accessible", "icone": "Icon1"}, "geometry": {"type": "Point", "coordinates": [1.61476, 50.575886]}}, {"type": "Feature", "properties": {"stop_name": "Moreuil", "type": "Gare accessible", "icone": "Icon1"}, "geometry": {"type": "Point", "coordinates": [2.47581, 49.777002]}}, {"type": "Feature", "properties": {"stop_name": "Montdidier", "type": "Gare accessible", "icone": "Icon1"}, "geometry": {"type": "Point", "coordinates": [2.562988, 49.641501]}}, {"type": "Feature", "properties": {"stop_name": "Estr\u00e9es-Saint-Denis", "type": "Gare accessible", "icone": "Icon1"}, "geometry": {"type": "Point", "coordinates": [2.64219, 49.438190999999996]}}, {"type": "Feature", "properties": {"stop_name": "Compi\u00e8gne", "type": "Gare accessible", "icone": "Icon1"}, "geometry": {"type": "Point", "coordinates": [2.823693, 49.421977000000005]}}, {"type": "Feature", "properties": {"stop_name": "R\u00e9my", "type": "Gare accessible", "icone": "Icon1"}, "geometry": {"type": "Point", "coordinates": [2.705668, 49.433314]}}, {"type": "Feature", "properties": {"stop_name": "Wacquemoulin", "type": "Gare accessible", "icone": "Icon1"}, "geometry": {"type": "Point", "coordinates": [2.611683, 49.502942]}}, {"type": "Feature", "properties": {"stop_name": "Tricot", "type": "Gare accessible", "icone": "Icon1"}, "geometry": {"type": "Point", "coordinates": [2.581758, 49.561993]}}, {"type": "Feature", "properties": {"stop_name": "Hargicourt - Pierrepont", "type": "Gare accessible", "icone": "Icon1"}, "geometry": {"type": "Point", "coordinates": [2.531061, 49.714276]}}, {"type": "Feature", "properties": {"stop_name": "Th\u00e9zy-Glimont", "type": "Gare accessible", "icone": "Icon1"}, "geometry": {"type": "Point", "coordinates": [2.43599, 49.811896999999995]}}, {"type": "Feature", "properties": {"stop_name": "Boves", "type": "Gare accessible", "icone": "Icon1"}, "geometry": {"type": "Point", "coordinates": [2.398116, 49.846235]}}, {"type": "Feature", "properties": {"stop_name": "Ailly-sur-Noye", "type": "Gare accessible", "icone": "Icon1"}, "geometry": {"type": "Point", "coordinates": [2.364177, 49.754445000000004]}}, {"type": "Feature", "properties": {"stop_name": "Breteuil-Embranchement", "type": "Gare accessible", "icone": "Icon1"}, "geometry": {"type": "Point", "coordinates": [2.38465, 49.626419]}}, {"type": "Feature", "properties": {"stop_name": "Avrechy", "type": "Gare accessible", "icone": "Icon1"}, "geometry": {"type": "Point", "coordinates": [2.41792, 49.444583]}}, {"type": "Feature", "properties": {"stop_name": "Liancourt - Rantigny", "type": "Gare accessible", "icone": "Icon1"}, "geometry": {"type": "Point", "coordinates": [2.445306, 49.32476]}}, {"type": "Feature", "properties": {"stop_name": "Laigneville", "type": "Gare accessible", "icone": "Icon1"}, "geometry": {"type": "Point", "coordinates": [2.449396, 49.29266]}}, {"type": "Feature", "properties": {"stop_name": "Chantilly - Gouvieux", "type": "Gare accessible", "icone": "Icon1"}, "geometry": {"type": "Point", "coordinates": [2.45979, 49.18724]}}, {"type": "Feature", "properties": {"stop_name": "Orry-la-Ville - Coye", "type": "Gare accessible", "icone": "Icon1"}, "geometry": {"type": "Point", "coordinates": [2.49, 49.13895]}}, {"type": "Feature", "properties": {"stop_name": "Villers-Bretonneux", "type": "Gare accessible", "icone": "Icon1"}, "geometry": {"type": "Point", "coordinates": [2.521424, 49.862968]}}, {"type": "Feature", "properties": {"stop_name": "Rosi\u00e8res", "type": "Gare accessible", "icone": "Icon1"}, "geometry": {"type": "Point", "coordinates": [2.711198, 49.822584]}}, {"type": "Feature", "properties": {"stop_name": "Chaulnes", "type": "Gare accessible", "icone": "Icon1"}, "geometry": {"type": "Point", "coordinates": [2.801103, 49.807679]}}, {"type": "Feature", "properties": {"stop_name": "Nesle", "type": "Gare accessible", "icone": "Icon1"}, "geometry": {"type": "Point", "coordinates": [2.909084, 49.763782]}}, {"type": "Feature", "properties": {"stop_name": "Ham", "type": "Gare accessible", "icone": "Icon1"}, "geometry": {"type": "Point", "coordinates": [3.070427, 49.739855]}}, {"type": "Feature", "properties": {"stop_name": "Tergnier", "type": "Gare accessible", "icone": "Icon1"}, "geometry": {"type": "Point", "coordinates": [3.297253, 49.659129]}}, {"type": "Feature", "properties": {"stop_name": "La F\u00e8re", "type": "Gare accessible", "icone": "Icon1"}, "geometry": {"type": "Point", "coordinates": [3.369817, 49.658015]}}, {"type": "Feature", "properties": {"stop_name": "Versigny", "type": "Gare accessible", "icone": "Icon1"}, "geometry": {"type": "Point", "coordinates": [3.433654, 49.657428]}}, {"type": "Feature", "properties": {"stop_name": "Cr\u00e9py - Couvron", "type": "Gare accessible", "icone": "Icon1"}, "geometry": {"type": "Point", "coordinates": [3.516475, 49.62325]}}, {"type": "Feature", "properties": {"stop_name": "Laon", "type": "Gare accessible", "icone": "Icon1"}, "geometry": {"type": "Point", "coordinates": [3.62434, 49.570578000000005]}}, {"type": "Feature", "properties": {"stop_name": "Mennessis", "type": "Gare accessible", "icone": "Icon1"}, "geometry": {"type": "Point", "coordinates": [3.270635, 49.692168]}}, {"type": "Feature", "properties": {"stop_name": "Flavy-le-Martel", "type": "Gare accessible", "icone": "Icon1"}, "geometry": {"type": "Point", "coordinates": [3.190179, 49.718446]}}, {"type": "Feature", "properties": {"stop_name": "Marcelcave", "type": "Gare accessible", "icone": "Icon1"}, "geometry": {"type": "Point", "coordinates": [2.581744, 49.853115]}}, {"type": "Feature", "properties": {"stop_name": "La Faloise", "type": "Gare accessible", "icone": "Icon1"}, "geometry": {"type": "Point", "coordinates": [2.348663, 49.696532]}}, {"type": "Feature", "properties": {"stop_name": "Dommartin - Remiencourt", "type": "Gare accessible", "icone": "Icon1"}, "geometry": {"type": "Point", "coordinates": [2.392512, 49.799287]}}, {"type": "Feature", "properties": {"stop_name": "Gannes", "type": "Gare accessible", "icone": "Icon1"}, "geometry": {"type": "Point", "coordinates": [2.43706, 49.572125]}}, {"type": "Feature", "properties": {"stop_name": "Saint-Remy-en-l'Eau", "type": "Gare accessible", "icone": "Icon1"}, "geometry": {"type": "Point", "coordinates": [2.425933, 49.468425]}}, {"type": "Feature", "properties": {"stop_name": "Miraumont", "type": "Gare accessible", "icone": "Icon1"}, "geometry": {"type": "Point", "coordinates": [2.734677, 50.0961]}}, {"type": "Feature", "properties": {"stop_name": "Boisleux", "type": "Gare accessible", "icone": "Icon1"}, "geometry": {"type": "Point", "coordinates": [2.771843, 50.210440999999996]}}, {"type": "Feature", "properties": {"stop_name": "Courcelles-le-Comte", "type": "Gare accessible", "icone": "Icon1"}, "geometry": {"type": "Point", "coordinates": [2.787856, 50.169548999999996]}}, {"type": "Feature", "properties": {"stop_name": "Longuerue - Vieux-Manoir", "type": "Gare accessible", "icone": "Icon1"}, "geometry": {"type": "Point", "coordinates": [1.276228, 49.556678000000005]}}, {"type": "Feature", "properties": {"stop_name": "Sommery", "type": "Gare accessible", "icone": "Icon1"}, "geometry": {"type": "Point", "coordinates": [1.435304, 49.629664]}}, {"type": "Feature", "properties": {"stop_name": "Namps - Quevauvillers", "type": "Gare accessible", "icone": "Icon1"}, "geometry": {"type": "Point", "coordinates": [2.105376, 49.8083]}}, {"type": "Feature", "properties": {"stop_name": "Fouilloy", "type": "Gare accessible", "icone": "Icon1"}, "geometry": {"type": "Point", "coordinates": [1.825501, 49.736232]}}, {"type": "Feature", "properties": {"stop_name": "Saint-Quentin", "type": "Gare accessible", "icone": "Icon1"}, "geometry": {"type": "Point", "coordinates": [3.296958, 49.840025]}}]}