{"type": "FeatureCollection", "features": [{"type": "Feature", "properties": {"start": "Angoul\u00eame", "stop_name": "Angoul\u00eame", "type": "Gare s\u00e9lectionn\u00e9e", "iconstarte": "Icon2"}, "geometry": {"type": "Point", "coordinates": [0.164608, 45.653572]}}, {"type": "Feature", "properties": {"start": "Angoul\u00eame", "stop_name": "Libourne", "type": "Gare accessible", "icone": "TER"}, "geometry": {"type": "Point", "coordinates": [-0.236359, 44.915904]}}, {"type": "Feature", "properties": {"start": "Angoul\u00eame", "stop_name": "Saint-Denis-de-Pile", "type": "Gare accessible", "icone": "TER"}, "geometry": {"type": "Point", "coordinates": [-0.197877, 44.978485]}}, {"type": "Feature", "properties": {"start": "Angoul\u00eame", "stop_name": "Coutras", "type": "Gare accessible", "icone": "TER"}, "geometry": {"type": "Point", "coordinates": [-0.131361, 45.036709]}}, {"type": "Feature", "properties": {"start": "Angoul\u00eame", "stop_name": "Les \u00c9glisottes", "type": "Gare accessible", "icone": "TER"}, "geometry": {"type": "Point", "coordinates": [-0.043522, 45.094305]}}, {"type": "Feature", "properties": {"start": "Angoul\u00eame", "stop_name": "Saint-Aigulin - La Roche-Chalais", "type": "Gare accessible", "icone": "TER"}, "geometry": {"type": "Point", "coordinates": [-0.018977, 45.157316]}}, {"type": "Feature", "properties": {"start": "Angoul\u00eame", "stop_name": "Chalais", "type": "Gare accessible", "icone": "TER"}, "geometry": {"type": "Point", "coordinates": [0.043448, 45.270875]}}, {"type": "Feature", "properties": {"start": "Angoul\u00eame", "stop_name": "Montmoreau", "type": "Gare accessible", "icone": "TER"}, "geometry": {"type": "Point", "coordinates": [0.13823, 45.398367]}}, {"type": "Feature", "properties": {"start": "Angoul\u00eame", "stop_name": "Lux\u00e9", "type": "Gare accessible", "icone": "TER"}, "geometry": {"type": "Point", "coordinates": [0.109556, 45.887493]}}, {"type": "Feature", "properties": {"start": "Angoul\u00eame", "stop_name": "Ruffec", "type": "Gare accessible", "icone": "TER"}, "geometry": {"type": "Point", "coordinates": [0.190153, 46.030542]}}, {"type": "Feature", "properties": {"start": "Angoul\u00eame", "stop_name": "Saint-Saviol", "type": "Gare accessible", "icone": "TER"}, "geometry": {"type": "Point", "coordinates": [0.218172, 46.146854]}}, {"type": "Feature", "properties": {"start": "Angoul\u00eame", "stop_name": "\u00c9panvilliers", "type": "Gare accessible", "icone": "TER"}, "geometry": {"type": "Point", "coordinates": [0.235758, 46.225495]}}, {"type": "Feature", "properties": {"start": "Angoul\u00eame", "stop_name": "Anch\u00e9 - Voulon", "type": "Gare accessible", "icone": "TER"}, "geometry": {"type": "Point", "coordinates": [0.250357, 46.349675]}}, {"type": "Feature", "properties": {"start": "Angoul\u00eame", "stop_name": "Vivonne", "type": "Gare accessible", "icone": "TER"}, "geometry": {"type": "Point", "coordinates": [0.265237, 46.426818]}}, {"type": "Feature", "properties": {"start": "Angoul\u00eame", "stop_name": "Iteuil", "type": "Gare accessible", "icone": "TER"}, "geometry": {"type": "Point", "coordinates": [0.31683, 46.484122]}}, {"type": "Feature", "properties": {"start": "Angoul\u00eame", "stop_name": "Ligug\u00e9", "type": "Gare accessible", "icone": "TER"}, "geometry": {"type": "Point", "coordinates": [0.3332, 46.520334]}}, {"type": "Feature", "properties": {"start": "Angoul\u00eame", "stop_name": "Poitiers", "type": "Gare accessible", "icone": "TER"}, "geometry": {"type": "Point", "coordinates": [0.333136, 46.582232]}}, {"type": "Feature", "properties": {"start": "Angoul\u00eame", "stop_name": "Royan", "type": "Gare accessible", "icone": "TER"}, "geometry": {"type": "Point", "coordinates": [-1.016703, 45.625886]}}, {"type": "Feature", "properties": {"start": "Angoul\u00eame", "stop_name": "Saujon", "type": "Gare accessible", "icone": "TER"}, "geometry": {"type": "Point", "coordinates": [-0.930019, 45.666502]}}, {"type": "Feature", "properties": {"start": "Angoul\u00eame", "stop_name": "Saintes", "type": "Gare accessible", "icone": "TER"}, "geometry": {"type": "Point", "coordinates": [-0.6179, 45.74874]}}, {"type": "Feature", "properties": {"start": "Angoul\u00eame", "stop_name": "Cognac", "type": "Gare accessible", "icone": "TER"}, "geometry": {"type": "Point", "coordinates": [-0.326037, 45.684587]}}, {"type": "Feature", "properties": {"start": "Angoul\u00eame", "stop_name": "Jarnac", "type": "Gare accessible", "icone": "TER"}, "geometry": {"type": "Point", "coordinates": [-0.17736, 45.671147]}}, {"type": "Feature", "properties": {"start": "Angoul\u00eame", "stop_name": "Ch\u00e2teauneuf-sur-Charente", "type": "Gare accessible", "icone": "TER"}, "geometry": {"type": "Point", "coordinates": [-0.050217, 45.59978]}}, {"type": "Feature", "properties": {"start": "Angoul\u00eame", "stop_name": "Ch\u00e2tellerault", "type": "Gare accessible", "icone": "TER"}, "geometry": {"type": "Point", "coordinates": [0.549279, 46.818594]}}, {"type": "Feature", "properties": {"start": "Angoul\u00eame", "stop_name": "Nerpuy", "type": "Gare accessible", "icone": "TER"}, "geometry": {"type": "Point", "coordinates": [0.525987, 46.78381]}}, {"type": "Feature", "properties": {"start": "Angoul\u00eame", "stop_name": "Naintr\u00e9 les Barres", "type": "Gare accessible", "icone": "TER"}, "geometry": {"type": "Point", "coordinates": [0.496307, 46.759721]}}, {"type": "Feature", "properties": {"start": "Angoul\u00eame", "stop_name": "La Tricherie", "type": "Gare accessible", "icone": "TER"}, "geometry": {"type": "Point", "coordinates": [0.441469, 46.728953]}}, {"type": "Feature", "properties": {"start": "Angoul\u00eame", "stop_name": "Dissay", "type": "Gare accessible", "icone": "TER"}, "geometry": {"type": "Point", "coordinates": [0.421127, 46.703359]}}, {"type": "Feature", "properties": {"start": "Angoul\u00eame", "stop_name": "Jaunay-Clan", "type": "Gare accessible", "icone": "TER"}, "geometry": {"type": "Point", "coordinates": [0.381684, 46.682057]}}, {"type": "Feature", "properties": {"start": "Angoul\u00eame", "stop_name": "Futuroscope", "type": "Gare accessible", "icone": "TER"}, "geometry": {"type": "Point", "coordinates": [0.377209, 46.669918]}}, {"type": "Feature", "properties": {"start": "Angoul\u00eame", "stop_name": "Chasseneuil-du-Poitou", "type": "Gare accessible", "icone": "TER"}, "geometry": {"type": "Point", "coordinates": [0.373028, 46.65177]}}, {"type": "Feature", "properties": {"start": "Angoul\u00eame", "stop_name": "Beillant", "type": "Gare accessible", "icone": "TER"}, "geometry": {"type": "Point", "coordinates": [-0.526508, 45.7008]}}, {"type": "Feature", "properties": {"start": "Angoul\u00eame", "stop_name": "Saint-Savinien", "type": "Gare accessible", "icone": "TER"}, "geometry": {"type": "Point", "coordinates": [-0.677878, 45.876038]}}, {"type": "Feature", "properties": {"start": "Angoul\u00eame", "stop_name": "Bords", "type": "Gare accessible", "icone": "TER"}, "geometry": {"type": "Point", "coordinates": [-0.798115, 45.894237]}}, {"type": "Feature", "properties": {"start": "Angoul\u00eame", "stop_name": "Tonnay-Charente", "type": "Gare accessible", "icone": "TER"}, "geometry": {"type": "Point", "coordinates": [-0.897789, 45.943401]}}, {"type": "Feature", "properties": {"start": "Angoul\u00eame", "stop_name": "Rochefort", "type": "Gare accessible", "icone": "TER"}, "geometry": {"type": "Point", "coordinates": [-0.963556, 45.947189]}}, {"type": "Feature", "properties": {"start": "Angoul\u00eame", "stop_name": "Saint-Laurent-de-la-Pr\u00e9e - Fouras", "type": "Gare accessible", "icone": "TER"}, "geometry": {"type": "Point", "coordinates": [-1.026912, 45.992563]}}, {"type": "Feature", "properties": {"start": "Angoul\u00eame", "stop_name": "Ch\u00e2telaillon", "type": "Gare accessible", "icone": "TER"}, "geometry": {"type": "Point", "coordinates": [-1.091118, 46.078282]}}, {"type": "Feature", "properties": {"start": "Angoul\u00eame", "stop_name": "Angoulins sur Mer", "type": "Gare accessible", "icone": "TER"}, "geometry": {"type": "Point", "coordinates": [-1.115622, 46.107785]}}, {"type": "Feature", "properties": {"start": "Angoul\u00eame", "stop_name": "Aytr\u00e9 Plage", "type": "Gare accessible", "icone": "TER"}, "geometry": {"type": "Point", "coordinates": [-1.128293, 46.12761]}}, {"type": "Feature", "properties": {"start": "Angoul\u00eame", "stop_name": "La Rochelle", "type": "Gare accessible", "icone": "TER"}, "geometry": {"type": "Point", "coordinates": [-1.145853, 46.152705]}}, {"type": "Feature", "properties": {"start": "Angoul\u00eame", "stop_name": "La Rochelle Porte Dauphine", "type": "Gare accessible", "icone": "TER"}, "geometry": {"type": "Point", "coordinates": [-1.151875, 46.167616]}}, {"type": "Feature", "properties": {"start": "Angoul\u00eame", "stop_name": "Bordeaux Saint-Jean", "type": "Gare accessible", "icone": "TER"}, "geometry": {"type": "Point", "coordinates": [-0.556697, 44.825873]}}, {"type": "Feature", "properties": {"start": "Angoul\u00eame", "stop_name": "Cenon", "type": "Gare accessible", "icone": "TER"}, "geometry": {"type": "Point", "coordinates": [-0.533649, 44.856347]}}]}