{"type": "FeatureCollection", "features": [{"type": "Feature", "properties": {"start": "Argentan", "stop_name": "Argentan", "type": "Gare s\u00e9lectionn\u00e9e", "iconstarte": "Icon2"}, "geometry": {"type": "Point", "coordinates": [-0.025291, 48.738545]}}, {"type": "Feature", "properties": {"start": "Argentan", "stop_name": "Dreux", "type": "Gare accessible", "icone": "TER"}, "geometry": {"type": "Point", "coordinates": [1.370164, 48.731492]}}, {"type": "Feature", "properties": {"start": "Argentan", "stop_name": "Nonancourt", "type": "Gare accessible", "icone": "TER"}, "geometry": {"type": "Point", "coordinates": [1.192837, 48.77576]}}, {"type": "Feature", "properties": {"start": "Argentan", "stop_name": "Verneuil-sur-Avre", "type": "Gare accessible", "icone": "TER"}, "geometry": {"type": "Point", "coordinates": [0.929192, 48.742486]}}, {"type": "Feature", "properties": {"start": "Argentan", "stop_name": "L'Aigle", "type": "Gare accessible", "icone": "TER"}, "geometry": {"type": "Point", "coordinates": [0.620014, 48.766229]}}, {"type": "Feature", "properties": {"start": "Argentan", "stop_name": "Surdon", "type": "Gare accessible", "icone": "TER"}, "geometry": {"type": "Point", "coordinates": [0.13441, 48.664769]}}, {"type": "Feature", "properties": {"start": "Argentan", "stop_name": "Briouze", "type": "Gare accessible", "icone": "TER"}, "geometry": {"type": "Point", "coordinates": [-0.368204, 48.701862]}}, {"type": "Feature", "properties": {"start": "Argentan", "stop_name": "Flers", "type": "Gare accessible", "icone": "TER"}, "geometry": {"type": "Point", "coordinates": [-0.573216, 48.744785]}}, {"type": "Feature", "properties": {"start": "Argentan", "stop_name": "Vire", "type": "Gare accessible", "icone": "TER"}, "geometry": {"type": "Point", "coordinates": [-0.882884, 48.846329]}}, {"type": "Feature", "properties": {"start": "Argentan", "stop_name": "Villedieu-les-Po\u00eales", "type": "Gare accessible", "icone": "TER"}, "geometry": {"type": "Point", "coordinates": [-1.225418, 48.83415]}}, {"type": "Feature", "properties": {"start": "Argentan", "stop_name": "Folligny", "type": "Gare accessible", "icone": "TER"}, "geometry": {"type": "Point", "coordinates": [-1.407223, 48.829946]}}, {"type": "Feature", "properties": {"start": "Argentan", "stop_name": "Granville", "type": "Gare accessible", "icone": "TER"}, "geometry": {"type": "Point", "coordinates": [-1.587547, 48.838322]}}, {"type": "Feature", "properties": {"start": "Argentan", "stop_name": "Paris Montparnasse Vaugirard", "type": "Gare accessible", "icone": "TER"}, "geometry": {"type": "Point", "coordinates": [2.320514, 48.841172]}}, {"type": "Feature", "properties": {"start": "Argentan", "stop_name": "Sainte-Gauburge", "type": "Gare accessible", "icone": "TER"}, "geometry": {"type": "Point", "coordinates": [0.428164, 48.717282]}}, {"type": "Feature", "properties": {"start": "Argentan", "stop_name": "Paris Montparnasse Hall 1 - 2", "type": "Gare accessible", "icone": "TER"}, "geometry": {"type": "Point", "coordinates": [2.320514, 48.841172]}}, {"type": "Feature", "properties": {"start": "Argentan", "stop_name": "Caen", "type": "Gare accessible", "icone": "TER"}, "geometry": {"type": "Point", "coordinates": [-0.347613, 49.176354]}}, {"type": "Feature", "properties": {"start": "Argentan", "stop_name": "M\u00e9zidon - Canon", "type": "Gare accessible", "icone": "TER"}, "geometry": {"type": "Point", "coordinates": [-0.074914, 49.070914]}}, {"type": "Feature", "properties": {"start": "Argentan", "stop_name": "Saint-Pierre-sur-Dives", "type": "Gare accessible", "icone": "TER"}, "geometry": {"type": "Point", "coordinates": [-0.040585, 49.023106]}}, {"type": "Feature", "properties": {"start": "Argentan", "stop_name": "S\u00e9es", "type": "Gare accessible", "icone": "TER"}, "geometry": {"type": "Point", "coordinates": [0.166408, 48.599966]}}, {"type": "Feature", "properties": {"start": "Argentan", "stop_name": "Alen\u00e7on", "type": "Gare accessible", "icone": "TER"}, "geometry": {"type": "Point", "coordinates": [0.098531, 48.433884]}}, {"type": "Feature", "properties": {"start": "Argentan", "stop_name": "Vivoin - Beaumont", "type": "Gare accessible", "icone": "TER"}, "geometry": {"type": "Point", "coordinates": [0.144845, 48.230194]}}, {"type": "Feature", "properties": {"start": "Argentan", "stop_name": "Montbizot", "type": "Gare accessible", "icone": "TER"}, "geometry": {"type": "Point", "coordinates": [0.190823, 48.151323]}}, {"type": "Feature", "properties": {"start": "Argentan", "stop_name": "Le Mans", "type": "Gare accessible", "icone": "TER"}, "geometry": {"type": "Point", "coordinates": [0.192614, 47.995615]}}, {"type": "Feature", "properties": {"start": "Argentan", "stop_name": "\u00c9commoy", "type": "Gare accessible", "icone": "TER"}, "geometry": {"type": "Point", "coordinates": [0.26907, 47.824548]}}, {"type": "Feature", "properties": {"start": "Argentan", "stop_name": "Ch\u00e2teau-du-Loir", "type": "Gare accessible", "icone": "TER"}, "geometry": {"type": "Point", "coordinates": [0.414959, 47.683334]}}, {"type": "Feature", "properties": {"start": "Argentan", "stop_name": "Tours", "type": "Gare accessible", "icone": "TER"}, "geometry": {"type": "Point", "coordinates": [0.692831, 47.389866]}}, {"type": "Feature", "properties": {"start": "Argentan", "stop_name": "Saint-Pierre-des-Corps", "type": "Gare accessible", "icone": "TER"}, "geometry": {"type": "Point", "coordinates": [0.723539, 47.38614]}}, {"type": "Feature", "properties": {"start": "Argentan", "stop_name": "La Hutte Coulombiers", "type": "Gare accessible", "icone": "TER"}, "geometry": {"type": "Point", "coordinates": [0.105451, 48.303256]}}, {"type": "Feature", "properties": {"start": "Argentan", "stop_name": "Versailles Chantiers", "type": "Gare accessible", "icone": "TER"}, "geometry": {"type": "Point", "coordinates": [2.135883, 48.795826]}}, {"type": "Feature", "properties": {"start": "Argentan", "stop_name": "Avranches", "type": "Gare accessible", "icone": "TER"}, "geometry": {"type": "Point", "coordinates": [-1.369612, 48.690041]}}, {"type": "Feature", "properties": {"start": "Argentan", "stop_name": "Pontorson - Mont-Saint-Michel", "type": "Gare accessible", "icone": "TER"}, "geometry": {"type": "Point", "coordinates": [-1.504931, 48.552729]}}, {"type": "Feature", "properties": {"start": "Argentan", "stop_name": "Teill\u00e9", "type": "Gare accessible", "icone": "TER"}, "geometry": {"type": "Point", "coordinates": [0.191443, 48.181339]}}, {"type": "Feature", "properties": {"start": "Argentan", "stop_name": "La Guierche", "type": "Gare accessible", "icone": "TER"}, "geometry": {"type": "Point", "coordinates": [0.193108, 48.113941]}}, {"type": "Feature", "properties": {"start": "Argentan", "stop_name": "Neuville", "type": "Gare accessible", "icone": "TER"}, "geometry": {"type": "Point", "coordinates": [0.199597, 48.07048]}}]}