{"type": "FeatureCollection", "features": [{"type": "Feature", "properties": {"stop_name": "Ars-sur-Moselle TIM R\u00e9publique", "type": "Gare s\u00e9lectionn\u00e9e"}, "geometry": {"type": "Point", "coordinates": [6.076677, 49.075907]}}, {"type": "Feature", "properties": {"stop_name": "Metz", "type": "Gare accessible"}, "geometry": {"type": "Point", "coordinates": [6.177052, 49.109466]}}, {"type": "Feature", "properties": {"stop_name": "Ancy-sur-Moselle", "type": "Gare accessible"}, "geometry": {"type": "Point", "coordinates": [6.062342, 49.057714000000004]}}, {"type": "Feature", "properties": {"stop_name": "Nov\u00e9ant-sur-Moselle", "type": "Gare accessible"}, "geometry": {"type": "Point", "coordinates": [6.052051, 49.028717]}}, {"type": "Feature", "properties": {"stop_name": "Pagny-sur-Moselle", "type": "Gare accessible"}, "geometry": {"type": "Point", "coordinates": [6.025035, 48.9852]}}, {"type": "Feature", "properties": {"stop_name": "Vandi\u00e8res", "type": "Gare accessible"}, "geometry": {"type": "Point", "coordinates": [6.037921, 48.951493]}}, {"type": "Feature", "properties": {"stop_name": "Pont-\u00e0-Mousson", "type": "Gare accessible"}, "geometry": {"type": "Point", "coordinates": [6.051021, 48.900348]}}, {"type": "Feature", "properties": {"stop_name": "Nancy", "type": "Gare accessible"}, "geometry": {"type": "Point", "coordinates": [6.174579, 48.689857]}}]}