{"type": "FeatureCollection", "features": [{"type": "Feature", "properties": {"stop_name": "Aube Centre RN26", "type": "Gare s\u00e9lectionn\u00e9e"}, "geometry": {"type": "Point", "coordinates": [0.545588, 48.739461999999996]}}, {"type": "Feature", "properties": {"stop_name": "L'Aigle", "type": "Gare accessible"}, "geometry": {"type": "Point", "coordinates": [0.620014, 48.766228999999996]}}, {"type": "Feature", "properties": {"stop_name": "Sainte-Gauburge", "type": "Gare accessible"}, "geometry": {"type": "Point", "coordinates": [0.428164, 48.717282]}}, {"type": "Feature", "properties": {"stop_name": "Le Merlerault", "type": "Gare accessible"}, "geometry": {"type": "Point", "coordinates": [0.283915, 48.700294]}}, {"type": "Feature", "properties": {"stop_name": "Nonant-le-Pin", "type": "Gare accessible"}, "geometry": {"type": "Point", "coordinates": [0.22364, 48.705017]}}, {"type": "Feature", "properties": {"stop_name": "Surdon", "type": "Gare accessible"}, "geometry": {"type": "Point", "coordinates": [0.13441, 48.664769]}}]}