{"type": "FeatureCollection", "features": [{"type": "Feature", "properties": {"stop_name": "Audrieu", "type": "Gare s\u00e9lectionn\u00e9e", "icone": "Icon2"}, "geometry": {"type": "Point", "coordinates": [-0.596014, 49.216132]}}, {"type": "Feature", "properties": {"stop_name": "Coutances", "type": "Gare accessible", "icone": "Icon1"}, "geometry": {"type": "Point", "coordinates": [-1.441726, 49.042928]}}, {"type": "Feature", "properties": {"stop_name": "Saint-L\u00f4", "type": "Gare accessible", "icone": "Icon1"}, "geometry": {"type": "Point", "coordinates": [-1.099525, 49.116975]}}, {"type": "Feature", "properties": {"stop_name": "Lison", "type": "Gare accessible", "icone": "Icon1"}, "geometry": {"type": "Point", "coordinates": [-1.050339, 49.226834000000004]}}, {"type": "Feature", "properties": {"stop_name": "Le Molay-Littry", "type": "Gare accessible", "icone": "Icon1"}, "geometry": {"type": "Point", "coordinates": [-0.8809739999999999, 49.249326]}}, {"type": "Feature", "properties": {"stop_name": "Bayeux", "type": "Gare accessible", "icone": "Icon1"}, "geometry": {"type": "Point", "coordinates": [-0.6981, 49.269729]}}, {"type": "Feature", "properties": {"stop_name": "Bretteville - Norrey", "type": "Gare accessible", "icone": "Icon1"}, "geometry": {"type": "Point", "coordinates": [-0.51274, 49.203410999999996]}}, {"type": "Feature", "properties": {"stop_name": "Caen", "type": "Gare accessible", "icone": "Icon1"}, "geometry": {"type": "Point", "coordinates": [-0.347613, 49.176353999999996]}}, {"type": "Feature", "properties": {"stop_name": "Granville", "type": "Gare accessible", "icone": "Icon1"}, "geometry": {"type": "Point", "coordinates": [-1.587547, 48.838322]}}, {"type": "Feature", "properties": {"stop_name": "Folligny", "type": "Gare accessible", "icone": "Icon1"}, "geometry": {"type": "Point", "coordinates": [-1.407223, 48.829946]}}, {"type": "Feature", "properties": {"stop_name": "Avranches", "type": "Gare accessible", "icone": "Icon1"}, "geometry": {"type": "Point", "coordinates": [-1.369612, 48.690041]}}, {"type": "Feature", "properties": {"stop_name": "Pontorson - Mont-Saint-Michel", "type": "Gare accessible", "icone": "Icon1"}, "geometry": {"type": "Point", "coordinates": [-1.504931, 48.552729]}}, {"type": "Feature", "properties": {"stop_name": "Dol-de-Bretagne", "type": "Gare accessible", "icone": "Icon1"}, "geometry": {"type": "Point", "coordinates": [-1.750536, 48.54425]}}, {"type": "Feature", "properties": {"stop_name": "Pontchaillou", "type": "Gare accessible", "icone": "Icon1"}, "geometry": {"type": "Point", "coordinates": [-1.6911180000000001, 48.118641]}}, {"type": "Feature", "properties": {"stop_name": "Rennes", "type": "Gare accessible", "icone": "Icon1"}, "geometry": {"type": "Point", "coordinates": [-1.6727439999999998, 48.103517]}}]}