{"type": "FeatureCollection", "features": [{"type": "Feature", "properties": {"stop_name": "Avricourt Rue de Lorraine", "type": "Gare s\u00e9lectionn\u00e9e"}, "geometry": {"type": "Point", "coordinates": [6.812851, 48.650089]}}, {"type": "Feature", "properties": {"stop_name": "Igney Centre", "type": "Gare accessible"}, "geometry": {"type": "Point", "coordinates": [6.813052, 48.633706]}}, {"type": "Feature", "properties": {"stop_name": "Igney - Avricourt", "type": "Gare accessible"}, "geometry": {"type": "Point", "coordinates": [6.805306, 48.646701]}}, {"type": "Feature", "properties": {"stop_name": "Avricourt Rue Des Halles", "type": "Gare accessible"}, "geometry": {"type": "Point", "coordinates": [6.806194, 48.650559]}}, {"type": "Feature", "properties": {"stop_name": "Avricourt Nouvel Avricourt", "type": "Gare accessible"}, "geometry": {"type": "Point", "coordinates": [6.821681, 48.651707]}}, {"type": "Feature", "properties": {"stop_name": "R\u00e9chicourt-le-Ch\u00e2teau", "type": "Gare accessible"}, "geometry": {"type": "Point", "coordinates": [6.83458, 48.663077]}}, {"type": "Feature", "properties": {"stop_name": "R\u00e9chicourt-le-Ch\u00e2teau Centre", "type": "Gare accessible"}, "geometry": {"type": "Point", "coordinates": [6.840833, 48.665]}}, {"type": "Feature", "properties": {"stop_name": "Gondrexange Domaine Ketzing", "type": "Gare accessible"}, "geometry": {"type": "Point", "coordinates": [6.898942, 48.68329]}}, {"type": "Feature", "properties": {"stop_name": "Gondrexange Centre", "type": "Gare accessible"}, "geometry": {"type": "Point", "coordinates": [6.926093, 48.685131]}}, {"type": "Feature", "properties": {"stop_name": "Hertzing Centre", "type": "Gare accessible"}, "geometry": {"type": "Point", "coordinates": [6.950784, 48.686448999999996]}}, {"type": "Feature", "properties": {"stop_name": "Heming Mairie", "type": "Gare accessible"}, "geometry": {"type": "Point", "coordinates": [6.963884, 48.693531]}}, {"type": "Feature", "properties": {"stop_name": "B\u00e9bing Route Nationale", "type": "Gare accessible"}, "geometry": {"type": "Point", "coordinates": [6.998459, 48.711667999999996]}}, {"type": "Feature", "properties": {"stop_name": "Sarrebourg Verreries", "type": "Gare accessible"}, "geometry": {"type": "Point", "coordinates": [7.042797, 48.733037]}}, {"type": "Feature", "properties": {"stop_name": "Sarrebourg", "type": "Gare accessible"}, "geometry": {"type": "Point", "coordinates": [7.05285, 48.73808]}}, {"type": "Feature", "properties": {"stop_name": "Sarrebourg LP Messmer", "type": "Gare accessible"}, "geometry": {"type": "Point", "coordinates": [7.072717, 48.737334999999995]}}]}