{"type": "FeatureCollection", "features": [{"type": "Feature", "properties": {"start": "Ay-Champagne", "stop_name": "Ay-Champagne", "type": "Gare s\u00e9lectionn\u00e9e", "iconstarte": "Icon2"}, "geometry": {"type": "Point", "coordinates": [4.00169, 49.048797]}}, {"type": "Feature", "properties": {"start": "Ay-Champagne", "stop_name": "Ch\u00e2teau-Thierry", "type": "Gare accessible", "icone": "TER"}, "geometry": {"type": "Point", "coordinates": [3.409302, 49.03814]}}, {"type": "Feature", "properties": {"start": "Ay-Champagne", "stop_name": "Dormans", "type": "Gare accessible", "icone": "TER"}, "geometry": {"type": "Point", "coordinates": [3.641835, 49.07908]}}, {"type": "Feature", "properties": {"start": "Ay-Champagne", "stop_name": "\u00c9pernay", "type": "Gare accessible", "icone": "TER"}, "geometry": {"type": "Point", "coordinates": [3.959798, 49.046289]}}, {"type": "Feature", "properties": {"start": "Ay-Champagne", "stop_name": "Avenay", "type": "Gare accessible", "icone": "TER"}, "geometry": {"type": "Point", "coordinates": [4.043689, 49.064783]}}, {"type": "Feature", "properties": {"start": "Ay-Champagne", "stop_name": "Rilly-la-Montagne", "type": "Gare accessible", "icone": "TER"}, "geometry": {"type": "Point", "coordinates": [4.040812, 49.166504]}}, {"type": "Feature", "properties": {"start": "Ay-Champagne", "stop_name": "Reims Maison Blanche", "type": "Gare accessible", "icone": "TER"}, "geometry": {"type": "Point", "coordinates": [4.022648, 49.233406]}}, {"type": "Feature", "properties": {"start": "Ay-Champagne", "stop_name": "Franchet d'Esperey", "type": "Gare accessible", "icone": "TER"}, "geometry": {"type": "Point", "coordinates": [4.013869, 49.242536]}}, {"type": "Feature", "properties": {"start": "Ay-Champagne", "stop_name": "Reims", "type": "Gare accessible", "icone": "TER"}, "geometry": {"type": "Point", "coordinates": [4.021994, 49.258934]}}, {"type": "Feature", "properties": {"start": "Ay-Champagne", "stop_name": "Germaine", "type": "Gare accessible", "icone": "TER"}, "geometry": {"type": "Point", "coordinates": [4.022898, 49.127763]}}]}