{"type": "FeatureCollection", "features": [{"type": "Feature", "properties": {"stop_name": "Barentin Rue Locke", "type": "Gare s\u00e9lectionn\u00e9e"}, "geometry": {"type": "Point", "coordinates": [0.957979, 49.547076000000004]}}, {"type": "Feature", "properties": {"stop_name": "Motteville", "type": "Gare accessible"}, "geometry": {"type": "Point", "coordinates": [0.849631, 49.636846000000006]}}, {"type": "Feature", "properties": {"stop_name": "Pavilly Mairie", "type": "Gare accessible"}, "geometry": {"type": "Point", "coordinates": [0.954478, 49.566311]}}, {"type": "Feature", "properties": {"stop_name": "Barentin H\u00f4pital", "type": "Gare accessible"}, "geometry": {"type": "Point", "coordinates": [0.954512, 49.54213]}}, {"type": "Feature", "properties": {"stop_name": "Rouen Rive Droite", "type": "Gare accessible"}, "geometry": {"type": "Point", "coordinates": [1.094103, 49.448663]}}]}