{"type": "FeatureCollection", "features": [{"type": "Feature", "properties": {"stop_name": "Barjac", "type": "Gare s\u00e9lectionn\u00e9e", "icone": "Icon2"}, "geometry": {"type": "Point", "coordinates": [3.410979, 44.499264000000004]}}, {"type": "Feature", "properties": {"stop_name": "Marvejols", "type": "Gare accessible", "icone": "Icon1"}, "geometry": {"type": "Point", "coordinates": [3.281119, 44.544675]}}, {"type": "Feature", "properties": {"stop_name": "Chirac", "type": "Gare accessible", "icone": "Icon1"}, "geometry": {"type": "Point", "coordinates": [3.263818, 44.524661]}}, {"type": "Feature", "properties": {"stop_name": "Le Monastier", "type": "Gare accessible", "icone": "Icon1"}, "geometry": {"type": "Point", "coordinates": [3.25213, 44.508936]}}, {"type": "Feature", "properties": {"stop_name": "Les Salelles", "type": "Gare accessible", "icone": "Icon1"}, "geometry": {"type": "Point", "coordinates": [3.280401, 44.483269]}}, {"type": "Feature", "properties": {"stop_name": "Chanac", "type": "Gare accessible", "icone": "Icon1"}, "geometry": {"type": "Point", "coordinates": [3.345412, 44.473979]}}, {"type": "Feature", "properties": {"stop_name": "Le Bruel", "type": "Gare accessible", "icone": "Icon1"}, "geometry": {"type": "Point", "coordinates": [3.358325, 44.481328999999995]}}, {"type": "Feature", "properties": {"stop_name": "Balsi\u00e8ges Bourg", "type": "Gare accessible", "icone": "Icon1"}, "geometry": {"type": "Point", "coordinates": [3.456598, 44.482212]}}, {"type": "Feature", "properties": {"stop_name": "Mende", "type": "Gare accessible", "icone": "Icon1"}, "geometry": {"type": "Point", "coordinates": [3.501981, 44.522346999999996]}}, {"type": "Feature", "properties": {"stop_name": "Bagnols - Chadenet", "type": "Gare accessible", "icone": "Icon1"}, "geometry": {"type": "Point", "coordinates": [3.628178, 44.528613]}}, {"type": "Feature", "properties": {"stop_name": "Allenc", "type": "Gare accessible", "icone": "Icon1"}, "geometry": {"type": "Point", "coordinates": [3.663893, 44.541296]}}, {"type": "Feature", "properties": {"stop_name": "Belvezet", "type": "Gare accessible", "icone": "Icon1"}, "geometry": {"type": "Point", "coordinates": [3.751869, 44.561778000000004]}}, {"type": "Feature", "properties": {"stop_name": "Chasserad\u00e8s", "type": "Gare accessible", "icone": "Icon1"}, "geometry": {"type": "Point", "coordinates": [3.839932, 44.553985]}}, {"type": "Feature", "properties": {"stop_name": "La Bastide-St-Laurent-les-B.", "type": "Gare accessible", "icone": "Icon1"}, "geometry": {"type": "Point", "coordinates": [3.904285, 44.593483]}}]}