{"type": "FeatureCollection", "features": [{"type": "Feature", "properties": {"start": "Bascharage secteur Sanem", "stop_name": "Bascharage secteur Sanem", "type": "Gare s\u00e9lectionn\u00e9e", "iconstarte": "Icon2"}, "geometry": {"type": "Point", "coordinates": [5.9249, 49.5585]}}, {"type": "Feature", "properties": {"start": "Bascharage secteur Sanem", "stop_name": "Longwy", "type": "Gare accessible", "icone": "TER"}, "geometry": {"type": "Point", "coordinates": [5.76956, 49.513004]}}, {"type": "Feature", "properties": {"start": "Bascharage secteur Sanem", "stop_name": "Rodange", "type": "Gare accessible", "icone": "TER"}, "geometry": {"type": "Point", "coordinates": [5.843642, 49.550911]}}, {"type": "Feature", "properties": {"start": "Bascharage secteur Sanem", "stop_name": "Petange", "type": "Gare accessible", "icone": "TER"}, "geometry": {"type": "Point", "coordinates": [5.8786, 49.55419]}}, {"type": "Feature", "properties": {"start": "Bascharage secteur Sanem", "stop_name": "Dippach secteur Reckange", "type": "Gare accessible", "icone": "TER"}, "geometry": {"type": "Point", "coordinates": [5.99512, 49.57252]}}, {"type": "Feature", "properties": {"start": "Bascharage secteur Sanem", "stop_name": "Luxembourg secteur Hollerich", "type": "Gare accessible", "icone": "TER"}, "geometry": {"type": "Point", "coordinates": [6.11878, 49.59586]}}, {"type": "Feature", "properties": {"start": "Bascharage secteur Sanem", "stop_name": "Luxembourg", "type": "Gare accessible", "icone": "TER"}, "geometry": {"type": "Point", "coordinates": [6.134722, 49.599722]}}]}