{"type": "FeatureCollection", "features": [{"type": "Feature", "properties": {"stop_name": "Bl\u00e9nod-l\u00e8s-Toul Les Naux", "type": "Gare s\u00e9lectionn\u00e9e"}, "geometry": {"type": "Point", "coordinates": [5.843568, 48.59948]}}, {"type": "Feature", "properties": {"stop_name": "Allamps E.S.A.T", "type": "Gare accessible"}, "geometry": {"type": "Point", "coordinates": [5.796812, 48.542768]}}, {"type": "Feature", "properties": {"stop_name": "Barisey-la-C\u00f4te Gare", "type": "Gare accessible"}, "geometry": {"type": "Point", "coordinates": [5.83992, 48.535008000000005]}}, {"type": "Feature", "properties": {"stop_name": "Barisey-la-C\u00f4te Mairie", "type": "Gare accessible"}, "geometry": {"type": "Point", "coordinates": [5.842809, 48.544182]}}, {"type": "Feature", "properties": {"stop_name": "Bulligny Centre", "type": "Gare accessible"}, "geometry": {"type": "Point", "coordinates": [5.85136, 48.576446000000004]}}, {"type": "Feature", "properties": {"stop_name": "Toul Gare Routi\u00e8re", "type": "Gare accessible"}, "geometry": {"type": "Point", "coordinates": [5.88621, 48.673790000000004]}}, {"type": "Feature", "properties": {"stop_name": "Toul", "type": "Gare accessible"}, "geometry": {"type": "Point", "coordinates": [5.880499, 48.679010999999996]}}]}