{"type": "FeatureCollection", "features": [{"type": "Feature", "properties": {"stop_name": "Bois d'Oingt", "type": "Gare s\u00e9lectionn\u00e9e"}, "geometry": {"type": "Point", "coordinates": [4.585309, 45.921683]}}, {"type": "Feature", "properties": {"stop_name": "Lamure-sur-Azergues", "type": "Gare accessible"}, "geometry": {"type": "Point", "coordinates": [4.492121, 46.06111]}}, {"type": "Feature", "properties": {"stop_name": "Lamure-sur-Azergues Coll\u00e8ge", "type": "Gare accessible"}, "geometry": {"type": "Point", "coordinates": [4.492917, 46.0521]}}, {"type": "Feature", "properties": {"stop_name": "Grandris La Folleti\u00e8re", "type": "Gare accessible"}, "geometry": {"type": "Point", "coordinates": [4.493623, 46.03569]}}, {"type": "Feature", "properties": {"stop_name": "Chambost-Alli\u00e8res", "type": "Gare accessible"}, "geometry": {"type": "Point", "coordinates": [4.499074, 46.018640999999995]}}, {"type": "Feature", "properties": {"stop_name": "Chamelet", "type": "Gare accessible"}, "geometry": {"type": "Point", "coordinates": [4.507125, 45.981667]}}, {"type": "Feature", "properties": {"stop_name": "L\u00e9tra Gabodi\u00e8re", "type": "Gare accessible"}, "geometry": {"type": "Point", "coordinates": [4.516467, 45.961432]}}, {"type": "Feature", "properties": {"stop_name": "Ternand", "type": "Gare accessible"}, "geometry": {"type": "Point", "coordinates": [4.536302, 45.946121999999995]}}, {"type": "Feature", "properties": {"stop_name": "Legny-Ponts-Tarrets", "type": "Gare accessible"}, "geometry": {"type": "Point", "coordinates": [4.576109, 45.906675]}}, {"type": "Feature", "properties": {"stop_name": "Le Breuil (Rh\u00f4ne)", "type": "Gare accessible"}, "geometry": {"type": "Point", "coordinates": [4.591384, 45.896591]}}, {"type": "Feature", "properties": {"stop_name": "Chessy", "type": "Gare accessible"}, "geometry": {"type": "Point", "coordinates": [4.622304, 45.885524]}}, {"type": "Feature", "properties": {"stop_name": "Ch\u00e2tillon d'Azergues", "type": "Gare accessible"}, "geometry": {"type": "Point", "coordinates": [4.64517, 45.875248]}}, {"type": "Feature", "properties": {"stop_name": "Lozanne", "type": "Gare accessible"}, "geometry": {"type": "Point", "coordinates": [4.681474, 45.854174]}}, {"type": "Feature", "properties": {"stop_name": "Saint-Nizier-d'Azergues", "type": "Gare accessible"}, "geometry": {"type": "Point", "coordinates": [4.480391, 46.087028000000004]}}, {"type": "Feature", "properties": {"stop_name": "Poule-les-\u00c9charmeaux Mairie", "type": "Gare accessible"}, "geometry": {"type": "Point", "coordinates": [4.45663, 46.148161]}}]}