{"type": "FeatureCollection", "features": [{"type": "Feature", "properties": {"stop_name": "Bonni\u00e8res", "type": "Gare s\u00e9lectionn\u00e9e", "icone": "Icon2"}, "geometry": {"type": "Point", "coordinates": [1.58163, 49.038654]}}, {"type": "Feature", "properties": {"stop_name": "Rouen Rive Droite", "type": "Gare accessible", "icone": "Icon1"}, "geometry": {"type": "Point", "coordinates": [1.094103, 49.448663]}}, {"type": "Feature", "properties": {"stop_name": "Oissel", "type": "Gare accessible", "icone": "Icon1"}, "geometry": {"type": "Point", "coordinates": [1.101937, 49.343084999999995]}}, {"type": "Feature", "properties": {"stop_name": "Val-de-Reuil", "type": "Gare accessible", "icone": "Icon1"}, "geometry": {"type": "Point", "coordinates": [1.224147, 49.275437]}}, {"type": "Feature", "properties": {"stop_name": "Gaillon - Aubevoye", "type": "Gare accessible", "icone": "Icon1"}, "geometry": {"type": "Point", "coordinates": [1.352609, 49.174664]}}, {"type": "Feature", "properties": {"stop_name": "Vernon - Giverny", "type": "Gare accessible", "icone": "Icon1"}, "geometry": {"type": "Point", "coordinates": [1.478297, 49.091573]}}, {"type": "Feature", "properties": {"stop_name": "Rosny-sur-Seine", "type": "Gare accessible", "icone": "Icon1"}, "geometry": {"type": "Point", "coordinates": [1.630121, 48.997310999999996]}}, {"type": "Feature", "properties": {"stop_name": "Mantes-la-Jolie", "type": "Gare accessible", "icone": "Icon1"}, "geometry": {"type": "Point", "coordinates": [1.70337, 48.98984]}}, {"type": "Feature", "properties": {"stop_name": "Paris Saint-Lazare", "type": "Gare accessible", "icone": "Icon1"}, "geometry": {"type": "Point", "coordinates": [2.325331, 48.876242]}}, {"type": "Feature", "properties": {"stop_name": "Pont-de-l'Arche", "type": "Gare accessible", "icone": "Icon1"}, "geometry": {"type": "Point", "coordinates": [1.159669, 49.317143]}}]}