{"type": "FeatureCollection", "features": [{"type": "Feature", "properties": {"stop_name": "Bort-les-Orgues", "type": "Gare s\u00e9lectionn\u00e9e"}, "geometry": {"type": "Point", "coordinates": [2.502565, 45.406434999999995]}}, {"type": "Feature", "properties": {"stop_name": "Clermont-Ferrand", "type": "Gare accessible"}, "geometry": {"type": "Point", "coordinates": [3.100543, 45.778945]}}, {"type": "Feature", "properties": {"stop_name": "Rochefort-Montagne", "type": "Gare accessible"}, "geometry": {"type": "Point", "coordinates": [2.805494, 45.687132]}}, {"type": "Feature", "properties": {"stop_name": "Laqueuille", "type": "Gare accessible"}, "geometry": {"type": "Point", "coordinates": [2.704976, 45.646916999999995]}}, {"type": "Feature", "properties": {"stop_name": "Tauves", "type": "Gare accessible"}, "geometry": {"type": "Point", "coordinates": [2.622136, 45.560333]}}, {"type": "Feature", "properties": {"stop_name": "Bagnols-Stade", "type": "Gare accessible"}, "geometry": {"type": "Point", "coordinates": [2.597057, 45.513707000000004]}}, {"type": "Feature", "properties": {"stop_name": "Lanobre", "type": "Gare accessible"}, "geometry": {"type": "Point", "coordinates": [2.53395, 45.437003000000004]}}, {"type": "Feature", "properties": {"stop_name": "Bort-les-Orgues Ville", "type": "Gare accessible"}, "geometry": {"type": "Point", "coordinates": [2.499293, 45.399341]}}, {"type": "Feature", "properties": {"stop_name": "Les Quatre Routes de Saignes", "type": "Gare accessible"}, "geometry": {"type": "Point", "coordinates": [2.463695, 45.354]}}, {"type": "Feature", "properties": {"stop_name": "Ydes", "type": "Gare accessible"}, "geometry": {"type": "Point", "coordinates": [2.436326, 45.344155]}}, {"type": "Feature", "properties": {"stop_name": "Vendes", "type": "Gare accessible"}, "geometry": {"type": "Point", "coordinates": [2.388322, 45.296296999999996]}}, {"type": "Feature", "properties": {"stop_name": "Mauriac", "type": "Gare accessible"}, "geometry": {"type": "Point", "coordinates": [2.34469, 45.221666]}}, {"type": "Feature", "properties": {"stop_name": "Mauriac Lyc\u00e9e Cortat", "type": "Gare accessible"}, "geometry": {"type": "Point", "coordinates": [2.341249, 45.213395]}}, {"type": "Feature", "properties": {"stop_name": "Ussel Place Henri Queuille", "type": "Gare accessible"}, "geometry": {"type": "Point", "coordinates": [2.307346, 45.549738]}}, {"type": "Feature", "properties": {"stop_name": "Ussel", "type": "Gare accessible"}, "geometry": {"type": "Point", "coordinates": [2.314403, 45.557382000000004]}}]}