{"type": "FeatureCollection", "features": [{"type": "Feature", "properties": {"stop_name": "Boucau", "type": "Gare s\u00e9lectionn\u00e9e", "icone": "Icon2"}, "geometry": {"type": "Point", "coordinates": [-1.4904870000000001, 43.523447]}}, {"type": "Feature", "properties": {"stop_name": "Bordeaux Saint-Jean", "type": "Gare accessible", "icone": "Icon1"}, "geometry": {"type": "Point", "coordinates": [-0.556697, 44.825873]}}, {"type": "Feature", "properties": {"stop_name": "Pessac", "type": "Gare accessible", "icone": "Icon1"}, "geometry": {"type": "Point", "coordinates": [-0.631784, 44.804621000000004]}}, {"type": "Feature", "properties": {"stop_name": "Biganos Facture", "type": "Gare accessible", "icone": "Icon1"}, "geometry": {"type": "Point", "coordinates": [-0.96621, 44.637384000000004]}}, {"type": "Feature", "properties": {"stop_name": "Ychoux", "type": "Gare accessible", "icone": "Icon1"}, "geometry": {"type": "Point", "coordinates": [-0.946335, 44.32927]}}, {"type": "Feature", "properties": {"stop_name": "Labouheyre", "type": "Gare accessible", "icone": "Icon1"}, "geometry": {"type": "Point", "coordinates": [-0.920974, 44.210613]}}, {"type": "Feature", "properties": {"stop_name": "Morcenx", "type": "Gare accessible", "icone": "Icon1"}, "geometry": {"type": "Point", "coordinates": [-0.90864, 44.033565]}}, {"type": "Feature", "properties": {"stop_name": "Dax", "type": "Gare accessible", "icone": "Icon1"}, "geometry": {"type": "Point", "coordinates": [-1.050301, 43.720471999999994]}}, {"type": "Feature", "properties": {"stop_name": "Saubusse", "type": "Gare accessible", "icone": "Icon1"}, "geometry": {"type": "Point", "coordinates": [-1.190222, 43.660269]}}, {"type": "Feature", "properties": {"stop_name": "Saint-Geours", "type": "Gare accessible", "icone": "Icon1"}, "geometry": {"type": "Point", "coordinates": [-1.241391, 43.671226000000004]}}, {"type": "Feature", "properties": {"stop_name": "Saint-Vincent-de-Tyrosse", "type": "Gare accessible", "icone": "Icon1"}, "geometry": {"type": "Point", "coordinates": [-1.3064209999999998, 43.657803]}}, {"type": "Feature", "properties": {"stop_name": "B\u00e9nesse-Maremne", "type": "Gare accessible", "icone": "Icon1"}, "geometry": {"type": "Point", "coordinates": [-1.369893, 43.6277]}}, {"type": "Feature", "properties": {"stop_name": "Labenne", "type": "Gare accessible", "icone": "Icon1"}, "geometry": {"type": "Point", "coordinates": [-1.4289530000000001, 43.587212]}}, {"type": "Feature", "properties": {"stop_name": "Ondres", "type": "Gare accessible", "icone": "Icon1"}, "geometry": {"type": "Point", "coordinates": [-1.457179, 43.568581]}}, {"type": "Feature", "properties": {"stop_name": "Bayonne", "type": "Gare accessible", "icone": "Icon1"}, "geometry": {"type": "Point", "coordinates": [-1.4703680000000001, 43.496793]}}, {"type": "Feature", "properties": {"stop_name": "Biarritz", "type": "Gare accessible", "icone": "Icon1"}, "geometry": {"type": "Point", "coordinates": [-1.5459370000000001, 43.459387]}}, {"type": "Feature", "properties": {"stop_name": "Gu\u00e9thary", "type": "Gare accessible", "icone": "Icon1"}, "geometry": {"type": "Point", "coordinates": [-1.609972, 43.425238]}}, {"type": "Feature", "properties": {"stop_name": "Saint-Jean-de-Luz - Ciboure", "type": "Gare accessible", "icone": "Icon1"}, "geometry": {"type": "Point", "coordinates": [-1.6611810000000002, 43.385862]}}, {"type": "Feature", "properties": {"stop_name": "Les Deux Jumeaux", "type": "Gare accessible", "icone": "Icon1"}, "geometry": {"type": "Point", "coordinates": [-1.764527, 43.370065999999994]}}, {"type": "Feature", "properties": {"stop_name": "Hendaye", "type": "Gare accessible", "icone": "Icon1"}, "geometry": {"type": "Point", "coordinates": [-1.781724, 43.353132]}}]}