{"type": "FeatureCollection", "features": [{"type": "Feature", "properties": {"stop_name": "Bourg-Lastic Place la Poste", "type": "Gare s\u00e9lectionn\u00e9e"}, "geometry": {"type": "Point", "coordinates": [2.561542, 45.648387]}}, {"type": "Feature", "properties": {"stop_name": "Laqueuille", "type": "Gare accessible"}, "geometry": {"type": "Point", "coordinates": [2.704976, 45.646916999999995]}}, {"type": "Feature", "properties": {"stop_name": "Eygurande - Merlines", "type": "Gare accessible"}, "geometry": {"type": "Point", "coordinates": [2.460986, 45.645342]}}, {"type": "Feature", "properties": {"stop_name": "Ussel", "type": "Gare accessible"}, "geometry": {"type": "Point", "coordinates": [2.314403, 45.557382000000004]}}, {"type": "Feature", "properties": {"stop_name": "Clermont-Ferrand", "type": "Gare accessible"}, "geometry": {"type": "Point", "coordinates": [3.100543, 45.778945]}}]}