{"type": "FeatureCollection", "features": [{"type": "Feature", "properties": {"stop_name": "Bourg-Achard Champ de Foire", "type": "Gare s\u00e9lectionn\u00e9e"}, "geometry": {"type": "Point", "coordinates": [0.81201, 49.354075]}}, {"type": "Feature", "properties": {"stop_name": "Pont-Audemer Gare SNCF", "type": "Gare accessible"}, "geometry": {"type": "Point", "coordinates": [0.514146, 49.351824]}}, {"type": "Feature", "properties": {"stop_name": "Routot Place de la Mairie", "type": "Gare accessible"}, "geometry": {"type": "Point", "coordinates": [0.733531, 49.378489]}}, {"type": "Feature", "properties": {"stop_name": "Rouen", "type": "Gare accessible"}, "geometry": {"type": "Point", "coordinates": [1.087824, 49.439895]}}, {"type": "Feature", "properties": {"stop_name": "Rouen Saint-Sever", "type": "Gare accessible"}, "geometry": {"type": "Point", "coordinates": [1.086097, 49.4305]}}, {"type": "Feature", "properties": {"stop_name": "Stade Diochon", "type": "Gare accessible"}, "geometry": {"type": "Point", "coordinates": [1.07106, 49.409808]}}, {"type": "Feature", "properties": {"stop_name": "Z\u00e9nith Parc des Expositions", "type": "Gare accessible"}, "geometry": {"type": "Point", "coordinates": [1.058218, 49.392176]}}, {"type": "Feature", "properties": {"stop_name": "La-Maison-Brul\u00e9e D675", "type": "Gare accessible"}, "geometry": {"type": "Point", "coordinates": [0.931937, 49.345166]}}, {"type": "Feature", "properties": {"stop_name": "St-Ouen-de-Thouberv la Chouque", "type": "Gare accessible"}, "geometry": {"type": "Point", "coordinates": [0.909789, 49.353681]}}, {"type": "Feature", "properties": {"stop_name": "St-Ouen-de-Thouberville D675", "type": "Gare accessible"}, "geometry": {"type": "Point", "coordinates": [0.888928, 49.356511]}}, {"type": "Feature", "properties": {"stop_name": "Trinit\u00e9-de-Thouberville D675", "type": "Gare accessible"}, "geometry": {"type": "Point", "coordinates": [0.877258, 49.358483]}}, {"type": "Feature", "properties": {"stop_name": "Bosgouet D\u00e9partementale 675", "type": "Gare accessible"}, "geometry": {"type": "Point", "coordinates": [0.849187, 49.359784999999995]}}, {"type": "Feature", "properties": {"stop_name": "Bouquetot Village", "type": "Gare accessible"}, "geometry": {"type": "Point", "coordinates": [0.781749, 49.360812]}}, {"type": "Feature", "properties": {"stop_name": "Rougemontiers RD144", "type": "Gare accessible"}, "geometry": {"type": "Point", "coordinates": [0.710441, 49.364477]}}, {"type": "Feature", "properties": {"stop_name": "La Chapelle Brestot D675", "type": "Gare accessible"}, "geometry": {"type": "Point", "coordinates": [0.685448, 49.358465]}}, {"type": "Feature", "properties": {"stop_name": "Cauverville-en-Roumois D675", "type": "Gare accessible"}, "geometry": {"type": "Point", "coordinates": [0.648078, 49.355866999999996]}}, {"type": "Feature", "properties": {"stop_name": "Corneville-sur-Risle D675", "type": "Gare accessible"}, "geometry": {"type": "Point", "coordinates": [0.587033, 49.343006]}}, {"type": "Feature", "properties": {"stop_name": "Pont-Audemer les Baquets", "type": "Gare accessible"}, "geometry": {"type": "Point", "coordinates": [0.544214, 49.353009]}}, {"type": "Feature", "properties": {"stop_name": "Lyc\u00e9e Fernand L\u00e9ger", "type": "Gare accessible"}, "geometry": {"type": "Point", "coordinates": [1.013807, 49.365163]}}]}