{"type": "FeatureCollection", "features": [{"type": "Feature", "properties": {"stop_name": "Boves", "type": "Gare s\u00e9lectionn\u00e9e", "icone": "Icon2"}, "geometry": {"type": "Point", "coordinates": [2.398116, 49.846235]}}, {"type": "Feature", "properties": {"stop_name": "Compi\u00e8gne", "type": "Gare accessible", "icone": "Icon1"}, "geometry": {"type": "Point", "coordinates": [2.823693, 49.421977000000005]}}, {"type": "Feature", "properties": {"stop_name": "R\u00e9my", "type": "Gare accessible", "icone": "Icon1"}, "geometry": {"type": "Point", "coordinates": [2.705668, 49.433314]}}, {"type": "Feature", "properties": {"stop_name": "Estr\u00e9es-Saint-Denis", "type": "Gare accessible", "icone": "Icon1"}, "geometry": {"type": "Point", "coordinates": [2.64219, 49.438190999999996]}}, {"type": "Feature", "properties": {"stop_name": "Wacquemoulin", "type": "Gare accessible", "icone": "Icon1"}, "geometry": {"type": "Point", "coordinates": [2.611683, 49.502942]}}, {"type": "Feature", "properties": {"stop_name": "Tricot", "type": "Gare accessible", "icone": "Icon1"}, "geometry": {"type": "Point", "coordinates": [2.581758, 49.561993]}}, {"type": "Feature", "properties": {"stop_name": "Montdidier", "type": "Gare accessible", "icone": "Icon1"}, "geometry": {"type": "Point", "coordinates": [2.562988, 49.641501]}}, {"type": "Feature", "properties": {"stop_name": "Hargicourt - Pierrepont", "type": "Gare accessible", "icone": "Icon1"}, "geometry": {"type": "Point", "coordinates": [2.531061, 49.714276]}}, {"type": "Feature", "properties": {"stop_name": "Moreuil", "type": "Gare accessible", "icone": "Icon1"}, "geometry": {"type": "Point", "coordinates": [2.47581, 49.777002]}}, {"type": "Feature", "properties": {"stop_name": "Th\u00e9zy-Glimont", "type": "Gare accessible", "icone": "Icon1"}, "geometry": {"type": "Point", "coordinates": [2.43599, 49.811896999999995]}}, {"type": "Feature", "properties": {"stop_name": "Longueau", "type": "Gare accessible", "icone": "Icon1"}, "geometry": {"type": "Point", "coordinates": [2.352201, 49.863474]}}, {"type": "Feature", "properties": {"stop_name": "Amiens", "type": "Gare accessible", "icone": "Icon1"}, "geometry": {"type": "Point", "coordinates": [2.308277, 49.890584000000004]}}, {"type": "Feature", "properties": {"stop_name": "Creil", "type": "Gare accessible", "icone": "Icon1"}, "geometry": {"type": "Point", "coordinates": [2.469199, 49.2638]}}, {"type": "Feature", "properties": {"stop_name": "Laigneville", "type": "Gare accessible", "icone": "Icon1"}, "geometry": {"type": "Point", "coordinates": [2.449396, 49.29266]}}, {"type": "Feature", "properties": {"stop_name": "Liancourt - Rantigny", "type": "Gare accessible", "icone": "Icon1"}, "geometry": {"type": "Point", "coordinates": [2.445306, 49.32476]}}, {"type": "Feature", "properties": {"stop_name": "Clermont de l'Oise", "type": "Gare accessible", "icone": "Icon1"}, "geometry": {"type": "Point", "coordinates": [2.41767, 49.38531]}}, {"type": "Feature", "properties": {"stop_name": "Saint-Just-en-Chauss\u00e9e", "type": "Gare accessible", "icone": "Icon1"}, "geometry": {"type": "Point", "coordinates": [2.42949, 49.503640000000004]}}, {"type": "Feature", "properties": {"stop_name": "Breteuil-Embranchement", "type": "Gare accessible", "icone": "Icon1"}, "geometry": {"type": "Point", "coordinates": [2.38465, 49.626419]}}, {"type": "Feature", "properties": {"stop_name": "La Faloise", "type": "Gare accessible", "icone": "Icon1"}, "geometry": {"type": "Point", "coordinates": [2.348663, 49.696532]}}, {"type": "Feature", "properties": {"stop_name": "Ailly-sur-Noye", "type": "Gare accessible", "icone": "Icon1"}, "geometry": {"type": "Point", "coordinates": [2.364177, 49.754445000000004]}}, {"type": "Feature", "properties": {"stop_name": "Dommartin - Remiencourt", "type": "Gare accessible", "icone": "Icon1"}, "geometry": {"type": "Point", "coordinates": [2.392512, 49.799287]}}, {"type": "Feature", "properties": {"stop_name": "Avrechy", "type": "Gare accessible", "icone": "Icon1"}, "geometry": {"type": "Point", "coordinates": [2.41792, 49.444583]}}, {"type": "Feature", "properties": {"stop_name": "Saint-Remy-en-l'Eau", "type": "Gare accessible", "icone": "Icon1"}, "geometry": {"type": "Point", "coordinates": [2.425933, 49.468425]}}, {"type": "Feature", "properties": {"stop_name": "Gannes", "type": "Gare accessible", "icone": "Icon1"}, "geometry": {"type": "Point", "coordinates": [2.43706, 49.572125]}}]}