{"type": "FeatureCollection", "features": [{"type": "Feature", "properties": {"stop_name": "Bricon la Poste", "type": "Gare s\u00e9lectionn\u00e9e"}, "geometry": {"type": "Point", "coordinates": [4.977252, 48.080849]}}, {"type": "Feature", "properties": {"stop_name": "Chaumont", "type": "Gare accessible"}, "geometry": {"type": "Point", "coordinates": [5.1346, 48.109759999999994]}}, {"type": "Feature", "properties": {"stop_name": "Villiers-le-Sec la Poste", "type": "Gare accessible"}, "geometry": {"type": "Point", "coordinates": [5.066972, 48.109185]}}, {"type": "Feature", "properties": {"stop_name": "Villiers-le-Sec Mairie", "type": "Gare accessible"}, "geometry": {"type": "Point", "coordinates": [5.065309, 48.108072]}}, {"type": "Feature", "properties": {"stop_name": "Buxi\u00e8res-l\u00e8s-Villiers", "type": "Gare accessible"}, "geometry": {"type": "Point", "coordinates": [5.036971, 48.10502]}}, {"type": "Feature", "properties": {"stop_name": "Orges", "type": "Gare accessible"}, "geometry": {"type": "Point", "coordinates": [4.926692, 48.080849]}}, {"type": "Feature", "properties": {"stop_name": "Pont-la-Ville", "type": "Gare accessible"}, "geometry": {"type": "Point", "coordinates": [4.890866, 48.08363]}}, {"type": "Feature", "properties": {"stop_name": "Cirfontaines-en-Azois", "type": "Gare accessible"}, "geometry": {"type": "Point", "coordinates": [4.872533, 48.110572999999995]}}, {"type": "Feature", "properties": {"stop_name": "Maranville la Poste", "type": "Gare accessible"}, "geometry": {"type": "Point", "coordinates": [4.862528, 48.135295]}}, {"type": "Feature", "properties": {"stop_name": "Longchamp-sur-Aujon", "type": "Gare accessible"}, "geometry": {"type": "Point", "coordinates": [4.833086, 48.148075]}}, {"type": "Feature", "properties": {"stop_name": "Clairvaux D12", "type": "Gare accessible"}, "geometry": {"type": "Point", "coordinates": [4.793083, 48.146131]}}, {"type": "Feature", "properties": {"stop_name": "Ville-sous-la-Fert\u00e9 Mairie", "type": "Gare accessible"}, "geometry": {"type": "Point", "coordinates": [4.789473, 48.120019]}}]}