{"type": "FeatureCollection", "features": [{"type": "Feature", "properties": {"stop_name": "Chinon", "type": "Gare s\u00e9lectionn\u00e9e", "icone": "Icon2"}, "geometry": {"type": "Point", "coordinates": [0.251645, 47.163073]}}, {"type": "Feature", "properties": {"stop_name": "Rivarennes", "type": "Gare accessible", "icone": "Icon1"}, "geometry": {"type": "Point", "coordinates": [0.361861, 47.267956]}}, {"type": "Feature", "properties": {"stop_name": "Azay-le-Rideau", "type": "Gare accessible", "icone": "Icon1"}, "geometry": {"type": "Point", "coordinates": [0.4476, 47.266154]}}, {"type": "Feature", "properties": {"stop_name": "Druye", "type": "Gare accessible", "icone": "Icon1"}, "geometry": {"type": "Point", "coordinates": [0.535481, 47.307019]}}, {"type": "Feature", "properties": {"stop_name": "Ballan", "type": "Gare accessible", "icone": "Icon1"}, "geometry": {"type": "Point", "coordinates": [0.617807, 47.336746999999995]}}, {"type": "Feature", "properties": {"stop_name": "Tours", "type": "Gare accessible", "icone": "Icon1"}, "geometry": {"type": "Point", "coordinates": [0.692831, 47.389866]}}, {"type": "Feature", "properties": {"stop_name": "Jou\u00e9-l\u00e8s-Tours", "type": "Gare accessible", "icone": "Icon1"}, "geometry": {"type": "Point", "coordinates": [0.667559, 47.354174]}}]}