{"type": "FeatureCollection", "features": [{"type": "Feature", "properties": {"stop_name": "Corbehem", "type": "Gare s\u00e9lectionn\u00e9e", "icone": "Icon2"}, "geometry": {"type": "Point", "coordinates": [3.04045, 50.342833]}}, {"type": "Feature", "properties": {"stop_name": "Douai", "type": "Gare accessible", "icone": "Icon1"}, "geometry": {"type": "Point", "coordinates": [3.089958, 50.371673]}}, {"type": "Feature", "properties": {"stop_name": "Brebi\u00e8res Sud", "type": "Gare accessible", "icone": "Icon1"}, "geometry": {"type": "Point", "coordinates": [3.013861, 50.336220000000004]}}, {"type": "Feature", "properties": {"stop_name": "Vitry-en-Artois", "type": "Gare accessible", "icone": "Icon1"}, "geometry": {"type": "Point", "coordinates": [2.980559, 50.32712]}}, {"type": "Feature", "properties": {"stop_name": "Biache-Saint-Vaast", "type": "Gare accessible", "icone": "Icon1"}, "geometry": {"type": "Point", "coordinates": [2.941533, 50.316266]}}, {"type": "Feature", "properties": {"stop_name": "Roeux", "type": "Gare accessible", "icone": "Icon1"}, "geometry": {"type": "Point", "coordinates": [2.894753, 50.303539]}}, {"type": "Feature", "properties": {"stop_name": "Arras", "type": "Gare accessible", "icone": "Icon1"}, "geometry": {"type": "Point", "coordinates": [2.781314, 50.286971]}}]}