{"type": "FeatureCollection", "features": [{"type": "Feature", "properties": {"stop_name": "Crest", "type": "Gare s\u00e9lectionn\u00e9e", "icone": "Icon2"}, "geometry": {"type": "Point", "coordinates": [5.016106, 44.730196]}}, {"type": "Feature", "properties": {"stop_name": "Die", "type": "Gare accessible", "icone": "Icon1"}, "geometry": {"type": "Point", "coordinates": [5.363219, 44.758238]}}, {"type": "Feature", "properties": {"stop_name": "Saillans", "type": "Gare accessible", "icone": "Icon1"}, "geometry": {"type": "Point", "coordinates": [5.19413, 44.694416]}}, {"type": "Feature", "properties": {"stop_name": "Livron", "type": "Gare accessible", "icone": "Icon1"}, "geometry": {"type": "Point", "coordinates": [4.830559, 44.779617]}}, {"type": "Feature", "properties": {"stop_name": "Valence", "type": "Gare accessible", "icone": "Icon1"}, "geometry": {"type": "Point", "coordinates": [4.893288, 44.928081]}}, {"type": "Feature", "properties": {"stop_name": "Valence TGV Rh\u00f4ne-Alpes Sud", "type": "Gare accessible", "icone": "Icon1"}, "geometry": {"type": "Point", "coordinates": [4.978652, 44.991907]}}, {"type": "Feature", "properties": {"stop_name": "Romans - Bourg-de-P\u00e9age", "type": "Gare accessible", "icone": "Icon1"}, "geometry": {"type": "Point", "coordinates": [5.049574, 45.048862]}}]}