{"type": "FeatureCollection", "features": [{"type": "Feature", "properties": {"start": "Dannemarie - Velesmes", "stop_name": "Dannemarie - Velesmes", "type": "Gare s\u00e9lectionn\u00e9e", "iconstarte": "Icon2"}, "geometry": {"type": "Point", "coordinates": [5.873702, 47.203739]}}, {"type": "Feature", "properties": {"start": "Dannemarie - Velesmes", "stop_name": "Besan\u00e7on Viotte", "type": "Gare accessible", "icone": "TER"}, "geometry": {"type": "Point", "coordinates": [6.021943, 47.247049]}}, {"type": "Feature", "properties": {"start": "Dannemarie - Velesmes", "stop_name": "Saint-Vit", "type": "Gare accessible", "icone": "TER"}, "geometry": {"type": "Point", "coordinates": [5.809024, 47.183513]}}, {"type": "Feature", "properties": {"start": "Dannemarie - Velesmes", "stop_name": "Dole", "type": "Gare accessible", "icone": "TER"}, "geometry": {"type": "Point", "coordinates": [5.48806, 47.09615]}}, {"type": "Feature", "properties": {"start": "Dannemarie - Velesmes", "stop_name": "Auxonne", "type": "Gare accessible", "icone": "TER"}, "geometry": {"type": "Point", "coordinates": [5.377356, 47.192668]}}, {"type": "Feature", "properties": {"start": "Dannemarie - Velesmes", "stop_name": "Genlis", "type": "Gare accessible", "icone": "TER"}, "geometry": {"type": "Point", "coordinates": [5.223965, 47.244281]}}, {"type": "Feature", "properties": {"start": "Dannemarie - Velesmes", "stop_name": "Dijon", "type": "Gare accessible", "icone": "TER"}, "geometry": {"type": "Point", "coordinates": [5.027256, 47.323411]}}, {"type": "Feature", "properties": {"start": "Dannemarie - Velesmes", "stop_name": "Ranchot", "type": "Gare accessible", "icone": "TER"}, "geometry": {"type": "Point", "coordinates": [5.724641, 47.152532]}}, {"type": "Feature", "properties": {"start": "Dannemarie - Velesmes", "stop_name": "Orchamps", "type": "Gare accessible", "icone": "TER"}, "geometry": {"type": "Point", "coordinates": [5.659252, 47.150102]}}, {"type": "Feature", "properties": {"start": "Dannemarie - Velesmes", "stop_name": "Collonges", "type": "Gare accessible", "icone": "TER"}, "geometry": {"type": "Point", "coordinates": [5.265986, 47.221051]}}]}