{"type": "FeatureCollection", "features": [{"type": "Feature", "properties": {"stop_name": "Digne-les-Bains", "type": "Gare s\u00e9lectionn\u00e9e"}, "geometry": {"type": "Point", "coordinates": [6.223133, 44.088631]}}, {"type": "Feature", "properties": {"stop_name": "Mallemoisson", "type": "Gare accessible"}, "geometry": {"type": "Point", "coordinates": [6.127305, 44.042245]}}, {"type": "Feature", "properties": {"stop_name": "Malijai", "type": "Gare accessible"}, "geometry": {"type": "Point", "coordinates": [6.03188, 44.046354]}}, {"type": "Feature", "properties": {"stop_name": "Les M\u00e9es", "type": "Gare accessible"}, "geometry": {"type": "Point", "coordinates": [5.948668, 44.032803]}}, {"type": "Feature", "properties": {"stop_name": "Peyruis P\u00e9age", "type": "Gare accessible"}, "geometry": {"type": "Point", "coordinates": [5.937107, 44.027242]}}, {"type": "Feature", "properties": {"stop_name": "Manosque - Gr\u00e9oux-les-Bains", "type": "Gare accessible"}, "geometry": {"type": "Point", "coordinates": [5.793324, 43.823194]}}, {"type": "Feature", "properties": {"stop_name": "Aix-en-Provence TGV", "type": "Gare accessible"}, "geometry": {"type": "Point", "coordinates": [5.317534, 43.455237]}}, {"type": "Feature", "properties": {"stop_name": "Ch\u00e2teau-Arnoux Mairie", "type": "Gare accessible"}, "geometry": {"type": "Point", "coordinates": [6.009441, 44.093331]}}, {"type": "Feature", "properties": {"stop_name": "Sisteron", "type": "Gare accessible"}, "geometry": {"type": "Point", "coordinates": [5.942402, 44.194894]}}, {"type": "Feature", "properties": {"stop_name": "Laragne", "type": "Gare accessible"}, "geometry": {"type": "Point", "coordinates": [5.819042, 44.316503999999995]}}, {"type": "Feature", "properties": {"stop_name": "Veynes D\u00e9voluy", "type": "Gare accessible"}, "geometry": {"type": "Point", "coordinates": [5.815807, 44.532019]}}]}