{"type": "FeatureCollection", "features": [{"type": "Feature", "properties": {"stop_name": "Domessin-le-Bonnard", "type": "Gare s\u00e9lectionn\u00e9e"}, "geometry": {"type": "Point", "coordinates": [5.694931, 45.524916]}}, {"type": "Feature", "properties": {"stop_name": "Chamb\u00e9ry - Challes-les-Eaux", "type": "Gare accessible"}, "geometry": {"type": "Point", "coordinates": [5.919547, 45.571302]}}, {"type": "Feature", "properties": {"stop_name": "Aiguebelette-Centre", "type": "Gare accessible"}, "geometry": {"type": "Point", "coordinates": [5.812926, 45.537541999999995]}}, {"type": "Feature", "properties": {"stop_name": "L\u00e9pin-le-Lac - La Bauche", "type": "Gare accessible"}, "geometry": {"type": "Point", "coordinates": [5.764584, 45.541546999999994]}}, {"type": "Feature", "properties": {"stop_name": "La-Bridoire-Abris-Bus-le-Haut", "type": "Gare accessible"}, "geometry": {"type": "Point", "coordinates": [5.743918, 45.532004]}}, {"type": "Feature", "properties": {"stop_name": "La Bridoire", "type": "Gare accessible"}, "geometry": {"type": "Point", "coordinates": [5.742902, 45.531040000000004]}}, {"type": "Feature", "properties": {"stop_name": "Saint-B\u00e9ron - La Bridoire", "type": "Gare accessible"}, "geometry": {"type": "Point", "coordinates": [5.731907, 45.503939]}}, {"type": "Feature", "properties": {"stop_name": "Pont-de-Beauvoisin", "type": "Gare accessible"}, "geometry": {"type": "Point", "coordinates": [5.680801, 45.524597]}}, {"type": "Feature", "properties": {"stop_name": "Les Abrets - Rue-Italie", "type": "Gare accessible"}, "geometry": {"type": "Point", "coordinates": [5.584531, 45.537332]}}, {"type": "Feature", "properties": {"stop_name": "Les Abrets - Fitilieu", "type": "Gare accessible"}, "geometry": {"type": "Point", "coordinates": [5.575473, 45.54214]}}, {"type": "Feature", "properties": {"stop_name": "Saint-Andr\u00e9-le-Gaz", "type": "Gare accessible"}, "geometry": {"type": "Point", "coordinates": [5.524254, 45.544529]}}, {"type": "Feature", "properties": {"stop_name": "La Tour-du-Pin", "type": "Gare accessible"}, "geometry": {"type": "Point", "coordinates": [5.449582, 45.560287]}}]}