{"type": "FeatureCollection", "features": [{"type": "Feature", "properties": {"start": "Dourdan", "stop_name": "Dourdan", "type": "Gare s\u00e9lectionn\u00e9e", "iconstarte": "Icon2"}, "geometry": {"type": "Point", "coordinates": [2.009643, 48.533466]}}, {"type": "Feature", "properties": {"start": "Dourdan", "stop_name": "Ch\u00e2teaudun", "type": "Gare accessible", "icone": "TER"}, "geometry": {"type": "Point", "coordinates": [1.338114, 48.073409]}}, {"type": "Feature", "properties": {"start": "Dourdan", "stop_name": "Bonneval", "type": "Gare accessible", "icone": "TER"}, "geometry": {"type": "Point", "coordinates": [1.386298, 48.186239]}}, {"type": "Feature", "properties": {"start": "Dourdan", "stop_name": "Voves", "type": "Gare accessible", "icone": "TER"}, "geometry": {"type": "Point", "coordinates": [1.622232, 48.275005]}}, {"type": "Feature", "properties": {"start": "Dourdan", "stop_name": "Auneau", "type": "Gare accessible", "icone": "TER"}, "geometry": {"type": "Point", "coordinates": [1.779882, 48.446017]}}, {"type": "Feature", "properties": {"start": "Dourdan", "stop_name": "Paris Austerlitz", "type": "Gare accessible", "icone": "TER"}, "geometry": {"type": "Point", "coordinates": [2.364891, 48.842285]}}, {"type": "Feature", "properties": {"start": "Dourdan", "stop_name": "Cloyes", "type": "Gare accessible", "icone": "TER"}, "geometry": {"type": "Point", "coordinates": [1.243354, 47.992103]}}, {"type": "Feature", "properties": {"start": "Dourdan", "stop_name": "Fr\u00e9teval - Mor\u00e9e", "type": "Gare accessible", "icone": "TER"}, "geometry": {"type": "Point", "coordinates": [1.211921, 47.891842]}}, {"type": "Feature", "properties": {"start": "Dourdan", "stop_name": "Pezou", "type": "Gare accessible", "icone": "TER"}, "geometry": {"type": "Point", "coordinates": [1.140958, 47.867153]}}, {"type": "Feature", "properties": {"start": "Dourdan", "stop_name": "Vend\u00f4me", "type": "Gare accessible", "icone": "TER"}, "geometry": {"type": "Point", "coordinates": [1.068219, 47.801959]}}]}