{"type": "FeatureCollection", "features": [{"type": "Feature", "properties": {"stop_name": "Eurville Mairie", "type": "Gare s\u00e9lectionn\u00e9e"}, "geometry": {"type": "Point", "coordinates": [5.03725, 48.585297]}}, {"type": "Feature", "properties": {"stop_name": "Joinville", "type": "Gare accessible"}, "geometry": {"type": "Point", "coordinates": [5.143259, 48.44433]}}, {"type": "Feature", "properties": {"stop_name": "Vecqueville", "type": "Gare accessible"}, "geometry": {"type": "Point", "coordinates": [5.143001, 48.457357]}}, {"type": "Feature", "properties": {"stop_name": "Chatonrupt", "type": "Gare accessible"}, "geometry": {"type": "Point", "coordinates": [5.12729, 48.488599]}}, {"type": "Feature", "properties": {"stop_name": "Curel", "type": "Gare accessible"}, "geometry": {"type": "Point", "coordinates": [5.135624, 48.492257]}}, {"type": "Feature", "properties": {"stop_name": "Chevillon", "type": "Gare accessible"}, "geometry": {"type": "Point", "coordinates": [5.113277, 48.523946]}}, {"type": "Feature", "properties": {"stop_name": "Rachecourt-sur-Marne", "type": "Gare accessible"}, "geometry": {"type": "Point", "coordinates": [5.100304, 48.526959999999995]}}, {"type": "Feature", "properties": {"stop_name": "Gourzon", "type": "Gare accessible"}, "geometry": {"type": "Point", "coordinates": [5.084749, 48.545851]}}, {"type": "Feature", "properties": {"stop_name": "Bayard-Route-Eurville", "type": "Gare accessible"}, "geometry": {"type": "Point", "coordinates": [5.076853, 48.553813]}}, {"type": "Feature", "properties": {"stop_name": "Bienville", "type": "Gare accessible"}, "geometry": {"type": "Point", "coordinates": [5.045461, 48.581534000000005]}}, {"type": "Feature", "properties": {"stop_name": "Marnaval \u00c9glise", "type": "Gare accessible"}, "geometry": {"type": "Point", "coordinates": [4.990121, 48.62535]}}, {"type": "Feature", "properties": {"stop_name": "Saint-Dizier Godard-Jeanson", "type": "Gare accessible"}, "geometry": {"type": "Point", "coordinates": [4.950304, 48.631407]}}, {"type": "Feature", "properties": {"stop_name": "Saint-Dizier", "type": "Gare accessible"}, "geometry": {"type": "Point", "coordinates": [4.947855, 48.642404]}}, {"type": "Feature", "properties": {"stop_name": "Saint-Dizier Saint-Amand", "type": "Gare accessible"}, "geometry": {"type": "Point", "coordinates": [4.967805, 48.625015999999995]}}, {"type": "Feature", "properties": {"stop_name": "Chaumont", "type": "Gare accessible"}, "geometry": {"type": "Point", "coordinates": [5.1346, 48.109759999999994]}}, {"type": "Feature", "properties": {"stop_name": "Vi\u00e9ville", "type": "Gare accessible"}, "geometry": {"type": "Point", "coordinates": [5.135045, 48.239342]}}, {"type": "Feature", "properties": {"stop_name": "Vraincourt", "type": "Gare accessible"}, "geometry": {"type": "Point", "coordinates": [5.126283, 48.239961]}}, {"type": "Feature", "properties": {"stop_name": "Soncourt", "type": "Gare accessible"}, "geometry": {"type": "Point", "coordinates": [5.116971, 48.252239]}}, {"type": "Feature", "properties": {"stop_name": "Froncles", "type": "Gare accessible"}, "geometry": {"type": "Point", "coordinates": [5.141939, 48.296415]}}, {"type": "Feature", "properties": {"stop_name": "Gudmont-Centre", "type": "Gare accessible"}, "geometry": {"type": "Point", "coordinates": [5.136969, 48.342515999999996]}}, {"type": "Feature", "properties": {"stop_name": "Rouvroy-sur-Marne", "type": "Gare accessible"}, "geometry": {"type": "Point", "coordinates": [5.147529, 48.358072]}}, {"type": "Feature", "properties": {"stop_name": "Donjeux", "type": "Gare accessible"}, "geometry": {"type": "Point", "coordinates": [5.151358, 48.365945]}}, {"type": "Feature", "properties": {"stop_name": "Fronville Lotissement", "type": "Gare accessible"}, "geometry": {"type": "Point", "coordinates": [5.154708, 48.404662]}}, {"type": "Feature", "properties": {"stop_name": "Rupt", "type": "Gare accessible"}, "geometry": {"type": "Point", "coordinates": [5.139446, 48.425222999999995]}}, {"type": "Feature", "properties": {"stop_name": "Bologne Salle des F\u00eates", "type": "Gare accessible"}, "geometry": {"type": "Point", "coordinates": [5.141416, 48.199737]}}]}