{"type": "FeatureCollection", "features": [{"type": "Feature", "properties": {"stop_name": "Feyzin-TCL-Gare", "type": "Gare s\u00e9lectionn\u00e9e"}, "geometry": {"type": "Point", "coordinates": [4.853366, 45.665875]}}, {"type": "Feature", "properties": {"stop_name": "Lyon-Perrache Gare Routi\u00e8re", "type": "Gare accessible"}, "geometry": {"type": "Point", "coordinates": [4.827332, 45.74912]}}, {"type": "Feature", "properties": {"stop_name": "S\u00e9r\u00e9zin", "type": "Gare accessible"}, "geometry": {"type": "Point", "coordinates": [4.81812, 45.627264000000004]}}, {"type": "Feature", "properties": {"stop_name": "Chasse-sur-Rh\u00f4ne", "type": "Gare accessible"}, "geometry": {"type": "Point", "coordinates": [4.794848, 45.582406]}}, {"type": "Feature", "properties": {"stop_name": "Vienne-Gare-Routi\u00e8re", "type": "Gare accessible"}, "geometry": {"type": "Point", "coordinates": [4.873992, 45.521263]}}]}