{"type": "FeatureCollection", "features": [{"type": "Feature", "properties": {"stop_name": "Fos-sur-Mer", "type": "Gare s\u00e9lectionn\u00e9e", "icone": "Icon2"}, "geometry": {"type": "Point", "coordinates": [4.974578, 43.42807]}}, {"type": "Feature", "properties": {"stop_name": "Miramas", "type": "Gare accessible", "icone": "Icon1"}, "geometry": {"type": "Point", "coordinates": [4.999565, 43.580737]}}, {"type": "Feature", "properties": {"stop_name": "Istres", "type": "Gare accessible", "icone": "Icon1"}, "geometry": {"type": "Point", "coordinates": [4.98043, 43.515428]}}, {"type": "Feature", "properties": {"stop_name": "Rassuen", "type": "Gare accessible", "icone": "Icon1"}, "geometry": {"type": "Point", "coordinates": [4.973105, 43.496660999999996]}}, {"type": "Feature", "properties": {"stop_name": "Port-de-Bouc", "type": "Gare accessible", "icone": "Icon1"}, "geometry": {"type": "Point", "coordinates": [4.984676, 43.407203]}}, {"type": "Feature", "properties": {"stop_name": "Croix Sainte", "type": "Gare accessible", "icone": "Icon1"}, "geometry": {"type": "Point", "coordinates": [5.019645, 43.408832000000004]}}, {"type": "Feature", "properties": {"stop_name": "Martigues", "type": "Gare accessible", "icone": "Icon1"}, "geometry": {"type": "Point", "coordinates": [5.025762, 43.392914000000005]}}, {"type": "Feature", "properties": {"stop_name": "La Couronne Carro", "type": "Gare accessible", "icone": "Icon1"}, "geometry": {"type": "Point", "coordinates": [5.051718, 43.339853000000005]}}, {"type": "Feature", "properties": {"stop_name": "Sausset-les-Pins", "type": "Gare accessible", "icone": "Icon1"}, "geometry": {"type": "Point", "coordinates": [5.109992, 43.332879]}}, {"type": "Feature", "properties": {"stop_name": "Carry-le-Rouet", "type": "Gare accessible", "icone": "Icon1"}, "geometry": {"type": "Point", "coordinates": [5.153658, 43.336615]}}, {"type": "Feature", "properties": {"stop_name": "La Redonne Ensu\u00e8s", "type": "Gare accessible", "icone": "Icon1"}, "geometry": {"type": "Point", "coordinates": [5.197619, 43.334471]}}, {"type": "Feature", "properties": {"stop_name": "Niolon", "type": "Gare accessible", "icone": "Icon1"}, "geometry": {"type": "Point", "coordinates": [5.25692, 43.340224]}}, {"type": "Feature", "properties": {"stop_name": "L'Estaque", "type": "Gare accessible", "icone": "Icon1"}, "geometry": {"type": "Point", "coordinates": [5.321342, 43.363646]}}, {"type": "Feature", "properties": {"stop_name": "Arenc Eurom\u00e9diterran\u00e9e", "type": "Gare accessible", "icone": "Icon1"}, "geometry": {"type": "Point", "coordinates": [5.36801, 43.312247]}}, {"type": "Feature", "properties": {"stop_name": "Marseille Saint-Charles", "type": "Gare accessible", "icone": "Icon1"}, "geometry": {"type": "Point", "coordinates": [5.380407, 43.302665999999995]}}]}