{"type": "FeatureCollection", "features": [{"type": "Feature", "properties": {"stop_name": "La Bernerie-en-Retz", "type": "Gare s\u00e9lectionn\u00e9e", "icone": "Icon2"}, "geometry": {"type": "Point", "coordinates": [-2.03377, 47.083162]}}, {"type": "Feature", "properties": {"stop_name": "Pornic", "type": "Gare accessible", "icone": "Icon1"}, "geometry": {"type": "Point", "coordinates": [-2.098025, 47.11441]}}, {"type": "Feature", "properties": {"stop_name": "Les Moutiers-en-Retz", "type": "Gare accessible", "icone": "Icon1"}, "geometry": {"type": "Point", "coordinates": [-2.001132, 47.061902]}}, {"type": "Feature", "properties": {"stop_name": "Bourgneuf-en-Retz", "type": "Gare accessible", "icone": "Icon1"}, "geometry": {"type": "Point", "coordinates": [-1.955226, 47.046898999999996]}}, {"type": "Feature", "properties": {"stop_name": "Saint-Hilaire-de-Chal\u00e9ons", "type": "Gare accessible", "icone": "Icon1"}, "geometry": {"type": "Point", "coordinates": [-1.8650229999999999, 47.105743]}}, {"type": "Feature", "properties": {"stop_name": "Sainte-Pazanne", "type": "Gare accessible", "icone": "Icon1"}, "geometry": {"type": "Point", "coordinates": [-1.8136830000000002, 47.105385999999996]}}, {"type": "Feature", "properties": {"stop_name": "Port-Saint-P\u00e8re - Saint-Mars", "type": "Gare accessible", "icone": "Icon1"}, "geometry": {"type": "Point", "coordinates": [-1.739477, 47.116531]}}, {"type": "Feature", "properties": {"stop_name": "Bouaye", "type": "Gare accessible", "icone": "Icon1"}, "geometry": {"type": "Point", "coordinates": [-1.681069, 47.138154]}}, {"type": "Feature", "properties": {"stop_name": "Rez\u00e9 Pont-Rousseau", "type": "Gare accessible", "icone": "Icon1"}, "geometry": {"type": "Point", "coordinates": [-1.5493940000000002, 47.193276000000004]}}, {"type": "Feature", "properties": {"stop_name": "Nantes", "type": "Gare accessible", "icone": "Icon1"}, "geometry": {"type": "Point", "coordinates": [-1.5420770000000001, 47.217490999999995]}}]}