{"type": "FeatureCollection", "features": [{"type": "Feature", "properties": {"stop_name": "La Houssi\u00e8re Van\u00e9mont Centre", "type": "Gare s\u00e9lectionn\u00e9e"}, "geometry": {"type": "Point", "coordinates": [6.878465, 48.200390000000006]}}, {"type": "Feature", "properties": {"stop_name": "Corcieux le Conti", "type": "Gare accessible"}, "geometry": {"type": "Point", "coordinates": [6.882863, 48.170746]}}, {"type": "Feature", "properties": {"stop_name": "Biffontaine Mairie", "type": "Gare accessible"}, "geometry": {"type": "Point", "coordinates": [6.805456, 48.211290999999996]}}, {"type": "Feature", "properties": {"stop_name": "Laveline-devant-Bruy\u00e8res Mairie", "type": "Gare accessible"}, "geometry": {"type": "Point", "coordinates": [6.757545, 48.184156]}}, {"type": "Feature", "properties": {"stop_name": "Bruy\u00e8res", "type": "Gare accessible"}, "geometry": {"type": "Point", "coordinates": [6.718908, 48.205021]}}, {"type": "Feature", "properties": {"stop_name": "L\u00e9panges-Vologn R. Poste", "type": "Gare accessible"}, "geometry": {"type": "Point", "coordinates": [6.671589, 48.172701]}}, {"type": "Feature", "properties": {"stop_name": "Docelles-Chenim\u00e9nil Gare", "type": "Gare accessible"}, "geometry": {"type": "Point", "coordinates": [6.610969, 48.143566]}}, {"type": "Feature", "properties": {"stop_name": "Chenimenil Filature", "type": "Gare accessible"}, "geometry": {"type": "Point", "coordinates": [6.600507, 48.133949]}}, {"type": "Feature", "properties": {"stop_name": "Arches Gare", "type": "Gare accessible"}, "geometry": {"type": "Point", "coordinates": [6.528105, 48.118896]}}, {"type": "Feature", "properties": {"stop_name": "\u00c9pinal", "type": "Gare accessible"}, "geometry": {"type": "Point", "coordinates": [6.441787, 48.178005]}}, {"type": "Feature", "properties": {"stop_name": "Saint-L\u00e9onard Centre", "type": "Gare accessible"}, "geometry": {"type": "Point", "coordinates": [6.943201, 48.21668]}}, {"type": "Feature", "properties": {"stop_name": "Saint-Di\u00e9-des-Vosges", "type": "Gare accessible"}, "geometry": {"type": "Point", "coordinates": [6.948516, 48.282043]}}]}