{"type": "FeatureCollection", "features": [{"type": "Feature", "properties": {"start": "Laroquebrou", "stop_name": "Laroquebrou", "type": "Gare s\u00e9lectionn\u00e9e", "iconstarte": "Icon2"}, "geometry": {"type": "Point", "coordinates": [2.193081, 44.964267]}}, {"type": "Feature", "properties": {"start": "Laroquebrou", "stop_name": "Aurillac", "type": "Gare accessible", "icone": "TER"}, "geometry": {"type": "Point", "coordinates": [2.435583, 44.921041]}}, {"type": "Feature", "properties": {"start": "Laroquebrou", "stop_name": "Laval-de-C\u00e8re", "type": "Gare accessible", "icone": "TER"}, "geometry": {"type": "Point", "coordinates": [1.931781, 44.951167]}}, {"type": "Feature", "properties": {"start": "Laroquebrou", "stop_name": "Bretenoux - Biars", "type": "Gare accessible", "icone": "TER"}, "geometry": {"type": "Point", "coordinates": [1.844383, 44.927466]}}, {"type": "Feature", "properties": {"start": "Laroquebrou", "stop_name": "Saint-Denis-Pr\u00e8s-Martel", "type": "Gare accessible", "icone": "TER"}, "geometry": {"type": "Point", "coordinates": [1.666238, 44.946029]}}, {"type": "Feature", "properties": {"start": "Laroquebrou", "stop_name": "Les Quatre-Routes", "type": "Gare accessible", "icone": "TER"}, "geometry": {"type": "Point", "coordinates": [1.643914, 44.997639]}}, {"type": "Feature", "properties": {"start": "Laroquebrou", "stop_name": "Turenne", "type": "Gare accessible", "icone": "TER"}, "geometry": {"type": "Point", "coordinates": [1.600704, 45.037954]}}, {"type": "Feature", "properties": {"start": "Laroquebrou", "stop_name": "Brive-la-Gaillarde", "type": "Gare accessible", "icone": "TER"}, "geometry": {"type": "Point", "coordinates": [1.528634, 45.152601]}}, {"type": "Feature", "properties": {"start": "Laroquebrou", "stop_name": "Puybrun", "type": "Gare accessible", "icone": "TER"}, "geometry": {"type": "Point", "coordinates": [1.784281, 44.921771]}}, {"type": "Feature", "properties": {"start": "Laroquebrou", "stop_name": "Vayrac", "type": "Gare accessible", "icone": "TER"}, "geometry": {"type": "Point", "coordinates": [1.70635, 44.950301]}}, {"type": "Feature", "properties": {"start": "Laroquebrou", "stop_name": "B\u00e9taille", "type": "Gare accessible", "icone": "TER"}, "geometry": {"type": "Point", "coordinates": [1.734326, 44.942455]}}]}