{"type": "FeatureCollection", "features": [{"type": "Feature", "properties": {"stop_name": "Le Bourget-du-Lac-STAC", "type": "Gare s\u00e9lectionn\u00e9e"}, "geometry": {"type": "Point", "coordinates": [5.871908, 45.64643]}}, {"type": "Feature", "properties": {"stop_name": "\u00c9vian-les-Bains", "type": "Gare accessible"}, "geometry": {"type": "Point", "coordinates": [6.577469, 46.397915999999995]}}, {"type": "Feature", "properties": {"stop_name": "Annecy", "type": "Gare accessible"}, "geometry": {"type": "Point", "coordinates": [6.121826, 45.902046999999996]}}, {"type": "Feature", "properties": {"stop_name": "Chamb\u00e9ry - Challes-les-Eaux", "type": "Gare accessible"}, "geometry": {"type": "Point", "coordinates": [5.919547, 45.571302]}}, {"type": "Feature", "properties": {"stop_name": "Annemasse", "type": "Gare accessible"}, "geometry": {"type": "Point", "coordinates": [6.236431, 46.199245]}}, {"type": "Feature", "properties": {"stop_name": "Saint-Julien-en-Genevois", "type": "Gare accessible"}, "geometry": {"type": "Point", "coordinates": [6.085527, 46.142075]}}, {"type": "Feature", "properties": {"stop_name": "Thonon-les-Bains", "type": "Gare accessible"}, "geometry": {"type": "Point", "coordinates": [6.481673, 46.368989]}}, {"type": "Feature", "properties": {"stop_name": "Bons-en-Chablais", "type": "Gare accessible"}, "geometry": {"type": "Point", "coordinates": [6.36647, 46.270109999999995]}}, {"type": "Feature", "properties": {"stop_name": "Saint-Gervais-les-Bains Le Fayet", "type": "Gare accessible"}, "geometry": {"type": "Point", "coordinates": [6.701331, 45.906423]}}, {"type": "Feature", "properties": {"stop_name": "Sallanches - Combloux - Meg\u00e8ve", "type": "Gare accessible"}, "geometry": {"type": "Point", "coordinates": [6.636458, 45.935699]}}, {"type": "Feature", "properties": {"stop_name": "Cluses", "type": "Gare accessible"}, "geometry": {"type": "Point", "coordinates": [6.582771, 46.061468]}}, {"type": "Feature", "properties": {"stop_name": "Chambery-Jacob-Bellecombette", "type": "Gare accessible"}, "geometry": {"type": "Point", "coordinates": [5.91021, 45.557790000000004]}}, {"type": "Feature", "properties": {"stop_name": "Bonneville", "type": "Gare accessible"}, "geometry": {"type": "Point", "coordinates": [6.416493, 46.077752000000004]}}, {"type": "Feature", "properties": {"stop_name": "La Roche-sur-Foron", "type": "Gare accessible"}, "geometry": {"type": "Point", "coordinates": [6.30384, 46.067541999999996]}}, {"type": "Feature", "properties": {"stop_name": "Chamonix-Mont-Blanc", "type": "Gare accessible"}, "geometry": {"type": "Point", "coordinates": [6.87363, 45.92277]}}]}