{"type": "FeatureCollection", "features": [{"type": "Feature", "properties": {"start": "Le Valdahon Camp Militaire", "stop_name": "Le Valdahon Camp Militaire", "type": "Gare s\u00e9lectionn\u00e9e", "iconstarte": "Icon2"}, "geometry": {"type": "Point", "coordinates": [6.314862, 47.151045]}}, {"type": "Feature", "properties": {"start": "Le Valdahon Camp Militaire", "stop_name": "La Chaux-de-Fonds", "type": "Gare accessible", "icone": "TER"}, "geometry": {"type": "Point", "coordinates": [6.82603, 47.09865]}}, {"type": "Feature", "properties": {"start": "Le Valdahon Camp Militaire", "stop_name": "Le Cr\u00eat-du-Locle", "type": "Gare accessible", "icone": "TER"}, "geometry": {"type": "Point", "coordinates": [6.78519, 47.0776]}}, {"type": "Feature", "properties": {"start": "Le Valdahon Camp Militaire", "stop_name": "Le Locle", "type": "Gare accessible", "icone": "TER"}, "geometry": {"type": "Point", "coordinates": [6.74616, 47.05786]}}, {"type": "Feature", "properties": {"start": "Le Valdahon Camp Militaire", "stop_name": "Le Locle Col des Roches", "type": "Gare accessible", "icone": "TER"}, "geometry": {"type": "Point", "coordinates": [6.7258, 47.049887]}}, {"type": "Feature", "properties": {"start": "Le Valdahon Camp Militaire", "stop_name": "Morteau", "type": "Gare accessible", "icone": "TER"}, "geometry": {"type": "Point", "coordinates": [6.604792, 47.053721]}}, {"type": "Feature", "properties": {"start": "Le Valdahon Camp Militaire", "stop_name": "Gilley", "type": "Gare accessible", "icone": "TER"}, "geometry": {"type": "Point", "coordinates": [6.492388, 47.050357]}}, {"type": "Feature", "properties": {"start": "Le Valdahon Camp Militaire", "stop_name": "Avoudrey", "type": "Gare accessible", "icone": "TER"}, "geometry": {"type": "Point", "coordinates": [6.43481, 47.129852]}}, {"type": "Feature", "properties": {"start": "Le Valdahon Camp Militaire", "stop_name": "Le Valdahon", "type": "Gare accessible", "icone": "TER"}, "geometry": {"type": "Point", "coordinates": [6.342274, 47.149733]}}, {"type": "Feature", "properties": {"start": "Le Valdahon Camp Militaire", "stop_name": "\u00c9talans", "type": "Gare accessible", "icone": "TER"}, "geometry": {"type": "Point", "coordinates": [6.270842, 47.155696]}}, {"type": "Feature", "properties": {"start": "Le Valdahon Camp Militaire", "stop_name": "L'H\u00f4pital-du-Grosbois", "type": "Gare accessible", "icone": "TER"}, "geometry": {"type": "Point", "coordinates": [6.21327, 47.169212]}}, {"type": "Feature", "properties": {"start": "Le Valdahon Camp Militaire", "stop_name": "Mamirolle", "type": "Gare accessible", "icone": "TER"}, "geometry": {"type": "Point", "coordinates": [6.161833, 47.199903]}}, {"type": "Feature", "properties": {"start": "Le Valdahon Camp Militaire", "stop_name": "Sa\u00f4ne", "type": "Gare accessible", "icone": "TER"}, "geometry": {"type": "Point", "coordinates": [6.101379, 47.20957]}}, {"type": "Feature", "properties": {"start": "Le Valdahon Camp Militaire", "stop_name": "Morre", "type": "Gare accessible", "icone": "TER"}, "geometry": {"type": "Point", "coordinates": [6.067345, 47.225991]}}, {"type": "Feature", "properties": {"start": "Le Valdahon Camp Militaire", "stop_name": "Besan\u00e7on Mouill\u00e8re", "type": "Gare accessible", "icone": "TER"}, "geometry": {"type": "Point", "coordinates": [6.033804, 47.240397]}}, {"type": "Feature", "properties": {"start": "Le Valdahon Camp Militaire", "stop_name": "Besan\u00e7on Viotte", "type": "Gare accessible", "icone": "TER"}, "geometry": {"type": "Point", "coordinates": [6.021943, 47.247049]}}]}