{"type": "FeatureCollection", "features": [{"type": "Feature", "properties": {"stop_name": "Magnette", "type": "Gare s\u00e9lectionn\u00e9e", "icone": "Icon2"}, "geometry": {"type": "Point", "coordinates": [2.602987, 46.464146]}}, {"type": "Feature", "properties": {"stop_name": "Saint-Amand-Montrond - Orval", "type": "Gare accessible", "icone": "Icon1"}, "geometry": {"type": "Point", "coordinates": [2.485989, 46.726508]}}, {"type": "Feature", "properties": {"stop_name": "Ur\u00e7ay", "type": "Gare accessible", "icone": "Icon1"}, "geometry": {"type": "Point", "coordinates": [2.586642, 46.629329999999996]}}, {"type": "Feature", "properties": {"stop_name": "Vallon-en-Sully", "type": "Gare accessible", "icone": "Icon1"}, "geometry": {"type": "Point", "coordinates": [2.610766, 46.536481]}}, {"type": "Feature", "properties": {"stop_name": "Les Trillers", "type": "Gare accessible", "icone": "Icon1"}, "geometry": {"type": "Point", "coordinates": [2.599956, 46.414629999999995]}}, {"type": "Feature", "properties": {"stop_name": "La Ville Gozet", "type": "Gare accessible", "icone": "Icon1"}, "geometry": {"type": "Point", "coordinates": [2.59169, 46.350055]}}, {"type": "Feature", "properties": {"stop_name": "Montlu\u00e7on", "type": "Gare accessible", "icone": "Icon1"}, "geometry": {"type": "Point", "coordinates": [2.596159, 46.338101]}}, {"type": "Feature", "properties": {"stop_name": "Commentry", "type": "Gare accessible", "icone": "Icon1"}, "geometry": {"type": "Point", "coordinates": [2.739938, 46.295105]}}, {"type": "Feature", "properties": {"stop_name": "Montlu\u00e7on Rimard", "type": "Gare accessible", "icone": "Icon1"}, "geometry": {"type": "Point", "coordinates": [2.610771, 46.335359999999994]}}, {"type": "Feature", "properties": {"stop_name": "Bourges", "type": "Gare accessible", "icone": "Icon1"}, "geometry": {"type": "Point", "coordinates": [2.394236, 47.094128999999995]}}, {"type": "Feature", "properties": {"stop_name": "Saint-Florent-sur-Cher", "type": "Gare accessible", "icone": "Icon1"}, "geometry": {"type": "Point", "coordinates": [2.252111, 46.992111]}}, {"type": "Feature", "properties": {"stop_name": "Lunery", "type": "Gare accessible", "icone": "Icon1"}, "geometry": {"type": "Point", "coordinates": [2.27509, 46.935164]}}, {"type": "Feature", "properties": {"stop_name": "Ch\u00e2teauneuf-sur-Cher", "type": "Gare accessible", "icone": "Icon1"}, "geometry": {"type": "Point", "coordinates": [2.310173, 46.856682]}}, {"type": "Feature", "properties": {"stop_name": "Bigny", "type": "Gare accessible", "icone": "Icon1"}, "geometry": {"type": "Point", "coordinates": [2.369954, 46.801552]}}]}