{"type": "FeatureCollection", "features": [{"type": "Feature", "properties": {"start": "Margival", "stop_name": "Margival", "type": "Gare s\u00e9lectionn\u00e9e", "iconstarte": "Icon2"}, "geometry": {"type": "Point", "coordinates": [3.402717, 49.439376]}}, {"type": "Feature", "properties": {"start": "Margival", "stop_name": "Laon", "type": "Gare accessible", "icone": "TER"}, "geometry": {"type": "Point", "coordinates": [3.62434, 49.570578]}}, {"type": "Feature", "properties": {"start": "Margival", "stop_name": "Clacy - Mons", "type": "Gare accessible", "icone": "TER"}, "geometry": {"type": "Point", "coordinates": [3.576635, 49.543787]}}, {"type": "Feature", "properties": {"start": "Margival", "stop_name": "Anizy - Pinon", "type": "Gare accessible", "icone": "TER"}, "geometry": {"type": "Point", "coordinates": [3.448575, 49.49615]}}, {"type": "Feature", "properties": {"start": "Margival", "stop_name": "Vauxaillon", "type": "Gare accessible", "icone": "TER"}, "geometry": {"type": "Point", "coordinates": [3.40953, 49.47424]}}, {"type": "Feature", "properties": {"start": "Margival", "stop_name": "Crouy", "type": "Gare accessible", "icone": "TER"}, "geometry": {"type": "Point", "coordinates": [3.356999, 49.40365]}}, {"type": "Feature", "properties": {"start": "Margival", "stop_name": "Soissons", "type": "Gare accessible", "icone": "TER"}, "geometry": {"type": "Point", "coordinates": [3.33809, 49.369226]}}, {"type": "Feature", "properties": {"start": "Margival", "stop_name": "Vierzy", "type": "Gare accessible", "icone": "TER"}, "geometry": {"type": "Point", "coordinates": [3.277834, 49.29103]}}, {"type": "Feature", "properties": {"start": "Margival", "stop_name": "Longpont", "type": "Gare accessible", "icone": "TER"}, "geometry": {"type": "Point", "coordinates": [3.230265, 49.272602]}}, {"type": "Feature", "properties": {"start": "Margival", "stop_name": "Corcy", "type": "Gare accessible", "icone": "TER"}, "geometry": {"type": "Point", "coordinates": [3.216073, 49.255201]}}, {"type": "Feature", "properties": {"start": "Margival", "stop_name": "Villers-Cotter\u00eats", "type": "Gare accessible", "icone": "TER"}, "geometry": {"type": "Point", "coordinates": [3.093604, 49.250228]}}, {"type": "Feature", "properties": {"start": "Margival", "stop_name": "Vaumoise", "type": "Gare accessible", "icone": "TER"}, "geometry": {"type": "Point", "coordinates": [2.988748, 49.233921]}}, {"type": "Feature", "properties": {"start": "Margival", "stop_name": "Cr\u00e9py-en-Valois", "type": "Gare accessible", "icone": "TER"}, "geometry": {"type": "Point", "coordinates": [2.886494, 49.231252]}}]}