{"type": "FeatureCollection", "features": [{"type": "Feature", "properties": {"start": "Maroeuil", "stop_name": "Maroeuil", "type": "Gare s\u00e9lectionn\u00e9e", "iconstarte": "Icon2"}, "geometry": {"type": "Point", "coordinates": [2.698498, 50.322431]}}, {"type": "Feature", "properties": {"start": "Maroeuil", "stop_name": "\u00c9taples - Le Touquet", "type": "Gare accessible", "icone": "TER"}, "geometry": {"type": "Point", "coordinates": [1.642582, 50.516544]}}, {"type": "Feature", "properties": {"start": "Maroeuil", "stop_name": "Montreuil sur Mer", "type": "Gare accessible", "icone": "TER"}, "geometry": {"type": "Point", "coordinates": [1.768935, 50.466155]}}, {"type": "Feature", "properties": {"start": "Maroeuil", "stop_name": "Beaurainville", "type": "Gare accessible", "icone": "TER"}, "geometry": {"type": "Point", "coordinates": [1.895193, 50.422895]}}, {"type": "Feature", "properties": {"start": "Maroeuil", "stop_name": "Hesdin", "type": "Gare accessible", "icone": "TER"}, "geometry": {"type": "Point", "coordinates": [2.0353, 50.378181]}}, {"type": "Feature", "properties": {"start": "Maroeuil", "stop_name": "Auchy-l\u00e8s-Hesdin", "type": "Gare accessible", "icone": "TER"}, "geometry": {"type": "Point", "coordinates": [2.102353, 50.396249]}}, {"type": "Feature", "properties": {"start": "Maroeuil", "stop_name": "Anvin", "type": "Gare accessible", "icone": "TER"}, "geometry": {"type": "Point", "coordinates": [2.255089, 50.446779]}}, {"type": "Feature", "properties": {"start": "Maroeuil", "stop_name": "Saint-Pol-sur-Ternoise", "type": "Gare accessible", "icone": "TER"}, "geometry": {"type": "Point", "coordinates": [2.33934, 50.379156]}}, {"type": "Feature", "properties": {"start": "Maroeuil", "stop_name": "Tincques", "type": "Gare accessible", "icone": "TER"}, "geometry": {"type": "Point", "coordinates": [2.49804, 50.357153]}}, {"type": "Feature", "properties": {"start": "Maroeuil", "stop_name": "Savy-Berlette", "type": "Gare accessible", "icone": "TER"}, "geometry": {"type": "Point", "coordinates": [2.558068, 50.353862]}}, {"type": "Feature", "properties": {"start": "Maroeuil", "stop_name": "Aubigny-en-Artois", "type": "Gare accessible", "icone": "TER"}, "geometry": {"type": "Point", "coordinates": [2.592519, 50.3529]}}, {"type": "Feature", "properties": {"start": "Maroeuil", "stop_name": "Fr\u00e9vin-Capelle", "type": "Gare accessible", "icone": "TER"}, "geometry": {"type": "Point", "coordinates": [2.63317, 50.347208]}}, {"type": "Feature", "properties": {"start": "Maroeuil", "stop_name": "Arras", "type": "Gare accessible", "icone": "TER"}, "geometry": {"type": "Point", "coordinates": [2.781314, 50.286971]}}, {"type": "Feature", "properties": {"start": "Maroeuil", "stop_name": "Brimeux", "type": "Gare accessible", "icone": "TER"}, "geometry": {"type": "Point", "coordinates": [1.833896, 50.446741]}}, {"type": "Feature", "properties": {"start": "Maroeuil", "stop_name": "Maresquel", "type": "Gare accessible", "icone": "TER"}, "geometry": {"type": "Point", "coordinates": [1.930836, 50.408076]}}, {"type": "Feature", "properties": {"start": "Maroeuil", "stop_name": "Aubin-Saint-Vaast", "type": "Gare accessible", "icone": "TER"}, "geometry": {"type": "Point", "coordinates": [1.969989, 50.394778]}}, {"type": "Feature", "properties": {"start": "Maroeuil", "stop_name": "Blangy-sur-Ternoise", "type": "Gare accessible", "icone": "TER"}, "geometry": {"type": "Point", "coordinates": [2.1723, 50.424662]}}]}