{"type": "FeatureCollection", "features": [{"type": "Feature", "properties": {"stop_name": "Marseille Saint-Charles", "type": "Gare s\u00e9lectionn\u00e9e", "icone": "Icon2"}, "geometry": {"type": "Point", "coordinates": [5.380407, 43.302665999999995]}}, {"type": "Feature", "properties": {"stop_name": "Saint-Antoine", "type": "Gare accessible", "icone": "Icon1"}, "geometry": {"type": "Point", "coordinates": [5.35781, 43.369599]}}, {"type": "Feature", "properties": {"stop_name": "Simiane", "type": "Gare accessible", "icone": "Icon1"}, "geometry": {"type": "Point", "coordinates": [5.426058, 43.434751]}}, {"type": "Feature", "properties": {"stop_name": "Gardanne", "type": "Gare accessible", "icone": "Icon1"}, "geometry": {"type": "Point", "coordinates": [5.463324, 43.456022999999995]}}, {"type": "Feature", "properties": {"stop_name": "Aix-en-Provence", "type": "Gare accessible", "icone": "Icon1"}, "geometry": {"type": "Point", "coordinates": [5.44533, 43.522903]}}, {"type": "Feature", "properties": {"stop_name": "Meyrargues", "type": "Gare accessible", "icone": "Icon1"}, "geometry": {"type": "Point", "coordinates": [5.539566, 43.644037]}}, {"type": "Feature", "properties": {"stop_name": "Manosque - Gr\u00e9oux-les-Bains", "type": "Gare accessible", "icone": "Icon1"}, "geometry": {"type": "Point", "coordinates": [5.793324, 43.823194]}}, {"type": "Feature", "properties": {"stop_name": "La Brillanne - Oraison", "type": "Gare accessible", "icone": "Icon1"}, "geometry": {"type": "Point", "coordinates": [5.892371, 43.924822999999996]}}, {"type": "Feature", "properties": {"stop_name": "Ch\u00e2teau-Arnoux-Saint-Auban", "type": "Gare accessible", "icone": "Icon1"}, "geometry": {"type": "Point", "coordinates": [5.997435, 44.061463]}}, {"type": "Feature", "properties": {"stop_name": "Sisteron", "type": "Gare accessible", "icone": "Icon1"}, "geometry": {"type": "Point", "coordinates": [5.942402, 44.194894]}}, {"type": "Feature", "properties": {"stop_name": "Laragne", "type": "Gare accessible", "icone": "Icon1"}, "geometry": {"type": "Point", "coordinates": [5.819042, 44.316503999999995]}}, {"type": "Feature", "properties": {"stop_name": "Serres", "type": "Gare accessible", "icone": "Icon1"}, "geometry": {"type": "Point", "coordinates": [5.71847, 44.424687]}}, {"type": "Feature", "properties": {"stop_name": "Veynes D\u00e9voluy", "type": "Gare accessible", "icone": "Icon1"}, "geometry": {"type": "Point", "coordinates": [5.815807, 44.532019]}}, {"type": "Feature", "properties": {"stop_name": "Gap", "type": "Gare accessible", "icone": "Icon1"}, "geometry": {"type": "Point", "coordinates": [6.085669, 44.563714000000004]}}, {"type": "Feature", "properties": {"stop_name": "Chorges", "type": "Gare accessible", "icone": "Icon1"}, "geometry": {"type": "Point", "coordinates": [6.271889, 44.545842]}}, {"type": "Feature", "properties": {"stop_name": "Embrun", "type": "Gare accessible", "icone": "Icon1"}, "geometry": {"type": "Point", "coordinates": [6.496753, 44.567012]}}, {"type": "Feature", "properties": {"stop_name": "Mont-Dauphin - Guillestre", "type": "Gare accessible", "icone": "Icon1"}, "geometry": {"type": "Point", "coordinates": [6.61561, 44.674625]}}, {"type": "Feature", "properties": {"stop_name": "L'Argenti\u00e8re les \u00c9crins", "type": "Gare accessible", "icone": "Icon1"}, "geometry": {"type": "Point", "coordinates": [6.556408, 44.791013]}}, {"type": "Feature", "properties": {"stop_name": "Brian\u00e7on", "type": "Gare accessible", "icone": "Icon1"}, "geometry": {"type": "Point", "coordinates": [6.632966, 44.889842]}}, {"type": "Feature", "properties": {"stop_name": "Sept\u00e8mes", "type": "Gare accessible", "icone": "Icon1"}, "geometry": {"type": "Point", "coordinates": [5.370158, 43.403151]}}, {"type": "Feature", "properties": {"stop_name": "Picon Busserine", "type": "Gare accessible", "icone": "Icon1"}, "geometry": {"type": "Point", "coordinates": [5.392746, 43.330999]}}, {"type": "Feature", "properties": {"stop_name": "Sainte-Marthe en Provence", "type": "Gare accessible", "icone": "Icon1"}, "geometry": {"type": "Point", "coordinates": [5.390403, 43.33928]}}, {"type": "Feature", "properties": {"stop_name": "Saint-Joseph le Castellas", "type": "Gare accessible", "icone": "Icon1"}, "geometry": {"type": "Point", "coordinates": [5.377083, 43.351911]}}, {"type": "Feature", "properties": {"stop_name": "Nice-Ville", "type": "Gare accessible", "icone": "Icon1"}, "geometry": {"type": "Point", "coordinates": [7.261904, 43.704556]}}, {"type": "Feature", "properties": {"stop_name": "Nice Saint-Augustin", "type": "Gare accessible", "icone": "Icon1"}, "geometry": {"type": "Point", "coordinates": [7.216199, 43.670728000000004]}}, {"type": "Feature", "properties": {"stop_name": "Antibes", "type": "Gare accessible", "icone": "Icon1"}, "geometry": {"type": "Point", "coordinates": [7.119913, 43.585971]}}, {"type": "Feature", "properties": {"stop_name": "Cannes", "type": "Gare accessible", "icone": "Icon1"}, "geometry": {"type": "Point", "coordinates": [7.019711, 43.553908]}}, {"type": "Feature", "properties": {"stop_name": "Saint-Rapha\u00ebl Valescure", "type": "Gare accessible", "icone": "Icon1"}, "geometry": {"type": "Point", "coordinates": [6.769037, 43.423631]}}, {"type": "Feature", "properties": {"stop_name": "Les Arcs - Draguignan", "type": "Gare accessible", "icone": "Icon1"}, "geometry": {"type": "Point", "coordinates": [6.482424, 43.455725]}}, {"type": "Feature", "properties": {"stop_name": "Toulon", "type": "Gare accessible", "icone": "Icon1"}, "geometry": {"type": "Point", "coordinates": [5.929404, 43.128353000000004]}}, {"type": "Feature", "properties": {"stop_name": "Ollioules - Sanary-sur-Mer", "type": "Gare accessible", "icone": "Icon1"}, "geometry": {"type": "Point", "coordinates": [5.825015, 43.122578000000004]}}, {"type": "Feature", "properties": {"stop_name": "La Ciotat-Ceyreste", "type": "Gare accessible", "icone": "Icon1"}, "geometry": {"type": "Point", "coordinates": [5.632741, 43.199602]}}, {"type": "Feature", "properties": {"stop_name": "Aubagne", "type": "Gare accessible", "icone": "Icon1"}, "geometry": {"type": "Point", "coordinates": [5.566322, 43.296073]}}, {"type": "Feature", "properties": {"stop_name": "Marseille Blancarde", "type": "Gare accessible", "icone": "Icon1"}, "geometry": {"type": "Point", "coordinates": [5.406588, 43.296195000000004]}}, {"type": "Feature", "properties": {"stop_name": "Fr\u00e9jus", "type": "Gare accessible", "icone": "Icon1"}, "geometry": {"type": "Point", "coordinates": [6.732943, 43.43203]}}, {"type": "Feature", "properties": {"stop_name": "Mandelieu-la-Napoule", "type": "Gare accessible", "icone": "Icon1"}, "geometry": {"type": "Point", "coordinates": [6.941318, 43.52391]}}, {"type": "Feature", "properties": {"stop_name": "Carnoules", "type": "Gare accessible", "icone": "Icon1"}, "geometry": {"type": "Point", "coordinates": [6.186191, 43.297513]}}, {"type": "Feature", "properties": {"stop_name": "Vitrolles A\u00e9roport Marseille P", "type": "Gare accessible", "icone": "Icon1"}, "geometry": {"type": "Point", "coordinates": [5.237122, 43.441734000000004]}}, {"type": "Feature", "properties": {"stop_name": "Miramas", "type": "Gare accessible", "icone": "Icon1"}, "geometry": {"type": "Point", "coordinates": [4.999565, 43.580737]}}, {"type": "Feature", "properties": {"stop_name": "Saint-Martin-de-Crau", "type": "Gare accessible", "icone": "Icon1"}, "geometry": {"type": "Point", "coordinates": [4.800331, 43.622351]}}, {"type": "Feature", "properties": {"stop_name": "Arles", "type": "Gare accessible", "icone": "Icon1"}, "geometry": {"type": "Point", "coordinates": [4.632105, 43.684863]}}, {"type": "Feature", "properties": {"stop_name": "Avignon Centre", "type": "Gare accessible", "icone": "Icon1"}, "geometry": {"type": "Point", "coordinates": [4.805269, 43.941922999999996]}}, {"type": "Feature", "properties": {"stop_name": "Orange", "type": "Gare accessible", "icone": "Icon1"}, "geometry": {"type": "Point", "coordinates": [4.820058, 44.137485]}}, {"type": "Feature", "properties": {"stop_name": "Boll\u00e8ne la Croisi\u00e8re", "type": "Gare accessible", "icone": "Icon1"}, "geometry": {"type": "Point", "coordinates": [4.708055, 44.27154]}}, {"type": "Feature", "properties": {"stop_name": "Pierrelatte", "type": "Gare accessible", "icone": "Icon1"}, "geometry": {"type": "Point", "coordinates": [4.703798, 44.374634]}}, {"type": "Feature", "properties": {"stop_name": "Mont\u00e9limar", "type": "Gare accessible", "icone": "Icon1"}, "geometry": {"type": "Point", "coordinates": [4.744726, 44.558935999999996]}}, {"type": "Feature", "properties": {"stop_name": "Valence", "type": "Gare accessible", "icone": "Icon1"}, "geometry": {"type": "Point", "coordinates": [4.893288, 44.928081]}}, {"type": "Feature", "properties": {"stop_name": "Tain-l'Hermitage - Tournon", "type": "Gare accessible", "icone": "Icon1"}, "geometry": {"type": "Point", "coordinates": [4.839708, 45.072178]}}, {"type": "Feature", "properties": {"stop_name": "Saint-Vallier sur Rh\u00f4ne", "type": "Gare accessible", "icone": "Icon1"}, "geometry": {"type": "Point", "coordinates": [4.814302, 45.185678]}}, {"type": "Feature", "properties": {"stop_name": "Saint-Rambert-d'Albon", "type": "Gare accessible", "icone": "Icon1"}, "geometry": {"type": "Point", "coordinates": [4.810739, 45.29776]}}, {"type": "Feature", "properties": {"stop_name": "Le P\u00e9age-de-Roussillon", "type": "Gare accessible", "icone": "Icon1"}, "geometry": {"type": "Point", "coordinates": [4.795406, 45.371724]}}, {"type": "Feature", "properties": {"stop_name": "Saint-Clair - Les Roches", "type": "Gare accessible", "icone": "Icon1"}, "geometry": {"type": "Point", "coordinates": [4.769669, 45.450303000000005]}}, {"type": "Feature", "properties": {"stop_name": "Vienne", "type": "Gare accessible", "icone": "Icon1"}, "geometry": {"type": "Point", "coordinates": [4.874274, 45.521231]}}, {"type": "Feature", "properties": {"stop_name": "Lyon Part Dieu", "type": "Gare accessible", "icone": "Icon1"}, "geometry": {"type": "Point", "coordinates": [4.859409, 45.760596]}}, {"type": "Feature", "properties": {"stop_name": "Le Teil", "type": "Gare accessible", "icone": "Icon1"}, "geometry": {"type": "Point", "coordinates": [4.685991, 44.552596]}}, {"type": "Feature", "properties": {"stop_name": "Saint-P\u00e9ray", "type": "Gare accessible", "icone": "Icon1"}, "geometry": {"type": "Point", "coordinates": [4.85035, 44.94771]}}, {"type": "Feature", "properties": {"stop_name": "Lyon Perrache", "type": "Gare accessible", "icone": "Icon1"}, "geometry": {"type": "Point", "coordinates": [4.825777, 45.748508]}}, {"type": "Feature", "properties": {"stop_name": "Cassis", "type": "Gare accessible", "icone": "Icon1"}, "geometry": {"type": "Point", "coordinates": [5.553138, 43.234079]}}, {"type": "Feature", "properties": {"stop_name": "Saint-Cyr Les Lecques - La Cadi\u00e8re", "type": "Gare accessible", "icone": "Icon1"}, "geometry": {"type": "Point", "coordinates": [5.703819, 43.185506]}}, {"type": "Feature", "properties": {"stop_name": "Bandol", "type": "Gare accessible", "icone": "Icon1"}, "geometry": {"type": "Point", "coordinates": [5.750128, 43.140384999999995]}}, {"type": "Feature", "properties": {"stop_name": "La Seyne - Six Fours", "type": "Gare accessible", "icone": "Icon1"}, "geometry": {"type": "Point", "coordinates": [5.876969, 43.117020000000004]}}, {"type": "Feature", "properties": {"stop_name": "Montpellier Saint-Roch", "type": "Gare accessible", "icone": "Icon1"}, "geometry": {"type": "Point", "coordinates": [3.880674, 43.604738]}}, {"type": "Feature", "properties": {"stop_name": "Lunel", "type": "Gare accessible", "icone": "Icon1"}, "geometry": {"type": "Point", "coordinates": [4.131086, 43.679392]}}, {"type": "Feature", "properties": {"stop_name": "N\u00eemes", "type": "Gare accessible", "icone": "Icon1"}, "geometry": {"type": "Point", "coordinates": [4.365872, 43.832313]}}, {"type": "Feature", "properties": {"stop_name": "N\u00eemes Pont du Gard", "type": "Gare accessible", "icone": "Icon1"}, "geometry": {"type": "Point", "coordinates": [4.507678, 43.816809]}}, {"type": "Feature", "properties": {"stop_name": "Tarascon-sur-Rh\u00f4ne", "type": "Gare accessible", "icone": "Icon1"}, "geometry": {"type": "Point", "coordinates": [4.657206, 43.801331]}}, {"type": "Feature", "properties": {"stop_name": "B\u00e9ziers", "type": "Gare accessible", "icone": "Icon1"}, "geometry": {"type": "Point", "coordinates": [3.218895, 43.336295]}}, {"type": "Feature", "properties": {"stop_name": "Agde", "type": "Gare accessible", "icone": "Icon1"}, "geometry": {"type": "Point", "coordinates": [3.466203, 43.31728]}}, {"type": "Feature", "properties": {"stop_name": "S\u00e8te", "type": "Gare accessible", "icone": "Icon1"}, "geometry": {"type": "Point", "coordinates": [3.696571, 43.412641]}}, {"type": "Feature", "properties": {"stop_name": "Frontignan", "type": "Gare accessible", "icone": "Icon1"}, "geometry": {"type": "Point", "coordinates": [3.758689, 43.444934]}}, {"type": "Feature", "properties": {"stop_name": "Verg\u00e8ze - Codognan", "type": "Gare accessible", "icone": "Icon1"}, "geometry": {"type": "Point", "coordinates": [4.218911, 43.739784]}}, {"type": "Feature", "properties": {"stop_name": "Narbonne", "type": "Gare accessible", "icone": "Icon1"}, "geometry": {"type": "Point", "coordinates": [3.005667, 43.190618]}}, {"type": "Feature", "properties": {"stop_name": "Beaucaire", "type": "Gare accessible", "icone": "Icon1"}, "geometry": {"type": "Point", "coordinates": [4.647087, 43.80209]}}, {"type": "Feature", "properties": {"stop_name": "Coursan", "type": "Gare accessible", "icone": "Icon1"}, "geometry": {"type": "Point", "coordinates": [3.050946, 43.233731]}}, {"type": "Feature", "properties": {"stop_name": "Marseillan Plage", "type": "Gare accessible", "icone": "Icon1"}, "geometry": {"type": "Point", "coordinates": [3.535629, 43.318258]}}, {"type": "Feature", "properties": {"stop_name": "Baillargues", "type": "Gare accessible", "icone": "Icon1"}, "geometry": {"type": "Point", "coordinates": [4.007159, 43.653323]}}, {"type": "Feature", "properties": {"stop_name": "Villeneuve-l\u00e8s-Maguelone", "type": "Gare accessible", "icone": "Icon1"}, "geometry": {"type": "Point", "coordinates": [3.849887, 43.543728]}}, {"type": "Feature", "properties": {"stop_name": "Vic - Mireval", "type": "Gare accessible", "icone": "Icon1"}, "geometry": {"type": "Point", "coordinates": [3.799379, 43.500704]}}, {"type": "Feature", "properties": {"stop_name": "Vias", "type": "Gare accessible", "icone": "Icon1"}, "geometry": {"type": "Point", "coordinates": [3.425356, 43.315653000000005]}}, {"type": "Feature", "properties": {"stop_name": "Saint-Chamas", "type": "Gare accessible", "icone": "Icon1"}, "geometry": {"type": "Point", "coordinates": [5.040265, 43.551161]}}, {"type": "Feature", "properties": {"stop_name": "Rognac", "type": "Gare accessible", "icone": "Icon1"}, "geometry": {"type": "Point", "coordinates": [5.230664, 43.486632]}}, {"type": "Feature", "properties": {"stop_name": "Pas des Lanciers", "type": "Gare accessible", "icone": "Icon1"}, "geometry": {"type": "Point", "coordinates": [5.253825, 43.409709]}}, {"type": "Feature", "properties": {"stop_name": "L'Estaque", "type": "Gare accessible", "icone": "Icon1"}, "geometry": {"type": "Point", "coordinates": [5.321342, 43.363646]}}, {"type": "Feature", "properties": {"stop_name": "Salon", "type": "Gare accessible", "icone": "Icon1"}, "geometry": {"type": "Point", "coordinates": [5.088588, 43.639082]}}, {"type": "Feature", "properties": {"stop_name": "Lamanon", "type": "Gare accessible", "icone": "Icon1"}, "geometry": {"type": "Point", "coordinates": [5.091369, 43.700033000000005]}}, {"type": "Feature", "properties": {"stop_name": "S\u00e9nas", "type": "Gare accessible", "icone": "Icon1"}, "geometry": {"type": "Point", "coordinates": [5.073345, 43.741003000000006]}}, {"type": "Feature", "properties": {"stop_name": "Orgon", "type": "Gare accessible", "icone": "Icon1"}, "geometry": {"type": "Point", "coordinates": [5.045683, 43.785932]}}, {"type": "Feature", "properties": {"stop_name": "Cavaillon", "type": "Gare accessible", "icone": "Icon1"}, "geometry": {"type": "Point", "coordinates": [5.043714, 43.834703000000005]}}, {"type": "Feature", "properties": {"stop_name": "L'Isle-sur-Sorgue - Fontaine-V", "type": "Gare accessible", "icone": "Icon1"}, "geometry": {"type": "Point", "coordinates": [5.047606, 43.917398]}}, {"type": "Feature", "properties": {"stop_name": "Le Thor", "type": "Gare accessible", "icone": "Icon1"}, "geometry": {"type": "Point", "coordinates": [4.996271, 43.926507]}}, {"type": "Feature", "properties": {"stop_name": "Gadagne", "type": "Gare accessible", "icone": "Icon1"}, "geometry": {"type": "Point", "coordinates": [4.956824, 43.929699]}}, {"type": "Feature", "properties": {"stop_name": "Saint-Saturnin-l\u00e8s-Avignon", "type": "Gare accessible", "icone": "Icon1"}, "geometry": {"type": "Point", "coordinates": [4.935321, 43.953179999999996]}}, {"type": "Feature", "properties": {"stop_name": "Mori\u00e8res-l\u00e8s-Avignon", "type": "Gare accessible", "icone": "Icon1"}, "geometry": {"type": "Point", "coordinates": [4.908206, 43.941502]}}, {"type": "Feature", "properties": {"stop_name": "Montfavet", "type": "Gare accessible", "icone": "Icon1"}, "geometry": {"type": "Point", "coordinates": [4.87404, 43.932679]}}, {"type": "Feature", "properties": {"stop_name": "Avignon TGV", "type": "Gare accessible", "icone": "Icon1"}, "geometry": {"type": "Point", "coordinates": [4.786136, 43.92194]}}, {"type": "Feature", "properties": {"stop_name": "Arenc Eurom\u00e9diterran\u00e9e", "type": "Gare accessible", "icone": "Icon1"}, "geometry": {"type": "Point", "coordinates": [5.36801, 43.312247]}}, {"type": "Feature", "properties": {"stop_name": "Istres", "type": "Gare accessible", "icone": "Icon1"}, "geometry": {"type": "Point", "coordinates": [4.98043, 43.515428]}}, {"type": "Feature", "properties": {"stop_name": "Rassuen", "type": "Gare accessible", "icone": "Icon1"}, "geometry": {"type": "Point", "coordinates": [4.973105, 43.496660999999996]}}, {"type": "Feature", "properties": {"stop_name": "Fos-sur-Mer", "type": "Gare accessible", "icone": "Icon1"}, "geometry": {"type": "Point", "coordinates": [4.974578, 43.42807]}}, {"type": "Feature", "properties": {"stop_name": "Port-de-Bouc", "type": "Gare accessible", "icone": "Icon1"}, "geometry": {"type": "Point", "coordinates": [4.984676, 43.407203]}}, {"type": "Feature", "properties": {"stop_name": "Croix Sainte", "type": "Gare accessible", "icone": "Icon1"}, "geometry": {"type": "Point", "coordinates": [5.019645, 43.408832000000004]}}, {"type": "Feature", "properties": {"stop_name": "Martigues", "type": "Gare accessible", "icone": "Icon1"}, "geometry": {"type": "Point", "coordinates": [5.025762, 43.392914000000005]}}, {"type": "Feature", "properties": {"stop_name": "La Couronne Carro", "type": "Gare accessible", "icone": "Icon1"}, "geometry": {"type": "Point", "coordinates": [5.051718, 43.339853000000005]}}, {"type": "Feature", "properties": {"stop_name": "Sausset-les-Pins", "type": "Gare accessible", "icone": "Icon1"}, "geometry": {"type": "Point", "coordinates": [5.109992, 43.332879]}}, {"type": "Feature", "properties": {"stop_name": "Carry-le-Rouet", "type": "Gare accessible", "icone": "Icon1"}, "geometry": {"type": "Point", "coordinates": [5.153658, 43.336615]}}, {"type": "Feature", "properties": {"stop_name": "La Redonne Ensu\u00e8s", "type": "Gare accessible", "icone": "Icon1"}, "geometry": {"type": "Point", "coordinates": [5.197619, 43.334471]}}, {"type": "Feature", "properties": {"stop_name": "Niolon", "type": "Gare accessible", "icone": "Icon1"}, "geometry": {"type": "Point", "coordinates": [5.25692, 43.340224]}}, {"type": "Feature", "properties": {"stop_name": "Pertuis", "type": "Gare accessible", "icone": "Icon1"}, "geometry": {"type": "Point", "coordinates": [5.503716, 43.684584]}}, {"type": "Feature", "properties": {"stop_name": "La Pomme", "type": "Gare accessible", "icone": "Icon1"}, "geometry": {"type": "Point", "coordinates": [5.441279, 43.290481]}}, {"type": "Feature", "properties": {"stop_name": "Saint-Marcel", "type": "Gare accessible", "icone": "Icon1"}, "geometry": {"type": "Point", "coordinates": [5.467117, 43.2882]}}, {"type": "Feature", "properties": {"stop_name": "La Barasse", "type": "Gare accessible", "icone": "Icon1"}, "geometry": {"type": "Point", "coordinates": [5.482365, 43.285319]}}, {"type": "Feature", "properties": {"stop_name": "La Penne-sur-Huveaune", "type": "Gare accessible", "icone": "Icon1"}, "geometry": {"type": "Point", "coordinates": [5.515552, 43.284688]}}, {"type": "Feature", "properties": {"stop_name": "Hy\u00e8res", "type": "Gare accessible", "icone": "Icon1"}, "geometry": {"type": "Point", "coordinates": [6.124207, 43.108902]}}, {"type": "Feature", "properties": {"stop_name": "La Crau", "type": "Gare accessible", "icone": "Icon1"}, "geometry": {"type": "Point", "coordinates": [6.068664, 43.144949]}}, {"type": "Feature", "properties": {"stop_name": "La Pauline", "type": "Gare accessible", "icone": "Icon1"}, "geometry": {"type": "Point", "coordinates": [6.035043, 43.136244]}}, {"type": "Feature", "properties": {"stop_name": "La Garde", "type": "Gare accessible", "icone": "Icon1"}, "geometry": {"type": "Point", "coordinates": [6.010069, 43.118739]}}, {"type": "Feature", "properties": {"stop_name": "Vidauban", "type": "Gare accessible", "icone": "Icon1"}, "geometry": {"type": "Point", "coordinates": [6.433753, 43.430934]}}, {"type": "Feature", "properties": {"stop_name": "Le Luc - Le Cannet", "type": "Gare accessible", "icone": "Icon1"}, "geometry": {"type": "Point", "coordinates": [6.343041, 43.3903]}}, {"type": "Feature", "properties": {"stop_name": "Gonfaron", "type": "Gare accessible", "icone": "Icon1"}, "geometry": {"type": "Point", "coordinates": [6.281763, 43.317240000000005]}}, {"type": "Feature", "properties": {"stop_name": "Pignans", "type": "Gare accessible", "icone": "Icon1"}, "geometry": {"type": "Point", "coordinates": [6.224828, 43.298553000000005]}}, {"type": "Feature", "properties": {"stop_name": "Puget-Ville", "type": "Gare accessible", "icone": "Icon1"}, "geometry": {"type": "Point", "coordinates": [6.13978, 43.284118]}}, {"type": "Feature", "properties": {"stop_name": "Cuers - Pierrefeu", "type": "Gare accessible", "icone": "Icon1"}, "geometry": {"type": "Point", "coordinates": [6.085686, 43.236428000000004]}}, {"type": "Feature", "properties": {"stop_name": "Solli\u00e8s-Pont", "type": "Gare accessible", "icone": "Icon1"}, "geometry": {"type": "Point", "coordinates": [6.0463, 43.190871]}}, {"type": "Feature", "properties": {"stop_name": "Cannes La Bocca", "type": "Gare accessible", "icone": "Icon1"}, "geometry": {"type": "Point", "coordinates": [6.986661, 43.548871000000005]}}, {"type": "Feature", "properties": {"stop_name": "Juan les Pins", "type": "Gare accessible", "icone": "Icon1"}, "geometry": {"type": "Point", "coordinates": [7.111472, 43.570939]}}, {"type": "Feature", "properties": {"stop_name": "Cagnes-sur-Mer", "type": "Gare accessible", "icone": "Icon1"}, "geometry": {"type": "Point", "coordinates": [7.148122, 43.657687]}}, {"type": "Feature", "properties": {"stop_name": "Saint-Laurent-du-Var", "type": "Gare accessible", "icone": "Icon1"}, "geometry": {"type": "Point", "coordinates": [7.194452, 43.662468]}}, {"type": "Feature", "properties": {"stop_name": "Livron", "type": "Gare accessible", "icone": "Icon1"}, "geometry": {"type": "Point", "coordinates": [4.830559, 44.779617]}}, {"type": "Feature", "properties": {"stop_name": "Loriol", "type": "Gare accessible", "icone": "Icon1"}, "geometry": {"type": "Point", "coordinates": [4.817213, 44.754515000000005]}}, {"type": "Feature", "properties": {"stop_name": "Donz\u00e8re", "type": "Gare accessible", "icone": "Icon1"}, "geometry": {"type": "Point", "coordinates": [4.704626, 44.443365]}}, {"type": "Feature", "properties": {"stop_name": "Courth\u00e9zon", "type": "Gare accessible", "icone": "Icon1"}, "geometry": {"type": "Point", "coordinates": [4.888178, 44.089999]}}, {"type": "Feature", "properties": {"stop_name": "B\u00e9darrides", "type": "Gare accessible", "icone": "Icon1"}, "geometry": {"type": "Point", "coordinates": [4.89325, 44.040843]}}, {"type": "Feature", "properties": {"stop_name": "Sorgues - Ch\u00e2teauneuf-du-Pape", "type": "Gare accessible", "icone": "Icon1"}, "geometry": {"type": "Point", "coordinates": [4.875612, 44.005427000000005]}}]}