{"type": "FeatureCollection", "features": [{"type": "Feature", "properties": {"start": "Menars", "stop_name": "Menars", "type": "Gare s\u00e9lectionn\u00e9e", "iconstarte": "Icon2"}, "geometry": {"type": "Point", "coordinates": [1.405653, 47.644928]}}, {"type": "Feature", "properties": {"start": "Menars", "stop_name": "Orl\u00e9ans", "type": "Gare accessible", "icone": "TER"}, "geometry": {"type": "Point", "coordinates": [1.904242, 47.907891]}}, {"type": "Feature", "properties": {"start": "Menars", "stop_name": "La Chapelle-Saint-Mesmin", "type": "Gare accessible", "icone": "TER"}, "geometry": {"type": "Point", "coordinates": [1.826981, 47.892935]}}, {"type": "Feature", "properties": {"start": "Menars", "stop_name": "Chaingy Fourneaux Plage", "type": "Gare accessible", "icone": "TER"}, "geometry": {"type": "Point", "coordinates": [1.782365, 47.877178]}}, {"type": "Feature", "properties": {"start": "Menars", "stop_name": "Saint-Ay", "type": "Gare accessible", "icone": "TER"}, "geometry": {"type": "Point", "coordinates": [1.750163, 47.863162]}}, {"type": "Feature", "properties": {"start": "Menars", "stop_name": "Meung-sur-Loire", "type": "Gare accessible", "icone": "TER"}, "geometry": {"type": "Point", "coordinates": [1.691921, 47.829954]}}, {"type": "Feature", "properties": {"start": "Menars", "stop_name": "Baule", "type": "Gare accessible", "icone": "TER"}, "geometry": {"type": "Point", "coordinates": [1.668274, 47.811886]}}, {"type": "Feature", "properties": {"start": "Menars", "stop_name": "Beaugency", "type": "Gare accessible", "icone": "TER"}, "geometry": {"type": "Point", "coordinates": [1.625944, 47.778404]}}, {"type": "Feature", "properties": {"start": "Menars", "stop_name": "Mer", "type": "Gare accessible", "icone": "TER"}, "geometry": {"type": "Point", "coordinates": [1.506363, 47.705894]}}, {"type": "Feature", "properties": {"start": "Menars", "stop_name": "Su\u00e8vres", "type": "Gare accessible", "icone": "TER"}, "geometry": {"type": "Point", "coordinates": [1.454098, 47.680225]}}, {"type": "Feature", "properties": {"start": "Menars", "stop_name": "La Chauss\u00e9e-Saint-Victor", "type": "Gare accessible", "icone": "TER"}, "geometry": {"type": "Point", "coordinates": [1.353372, 47.612517]}}, {"type": "Feature", "properties": {"start": "Menars", "stop_name": "Blois - Chambord", "type": "Gare accessible", "icone": "TER"}, "geometry": {"type": "Point", "coordinates": [1.323759, 47.585449]}}]}