{"type": "FeatureCollection", "features": [{"type": "Feature", "properties": {"stop_name": "Menchhoffen Abri", "type": "Gare s\u00e9lectionn\u00e9e"}, "geometry": {"type": "Point", "coordinates": [7.496546, 48.858841999999996]}}, {"type": "Feature", "properties": {"stop_name": "Ingwiller", "type": "Gare accessible"}, "geometry": {"type": "Point", "coordinates": [7.477162, 48.872407]}}, {"type": "Feature", "properties": {"stop_name": "Obermodern", "type": "Gare accessible"}, "geometry": {"type": "Point", "coordinates": [7.547135, 48.842587]}}, {"type": "Feature", "properties": {"stop_name": "Pfaffenhoffen Pl. R\u00e9publique", "type": "Gare accessible"}, "geometry": {"type": "Point", "coordinates": [7.607554, 48.844006]}}, {"type": "Feature", "properties": {"stop_name": "Pfaffenhoffen Mairie", "type": "Gare accessible"}, "geometry": {"type": "Point", "coordinates": [7.610925, 48.844724]}}, {"type": "Feature", "properties": {"stop_name": "La Walck Monument Aux Morts", "type": "Gare accessible"}, "geometry": {"type": "Point", "coordinates": [7.61172, 48.848209999999995]}}, {"type": "Feature", "properties": {"stop_name": "Niedermodern - Uberach", "type": "Gare accessible"}, "geometry": {"type": "Point", "coordinates": [7.624716, 48.845344]}}, {"type": "Feature", "properties": {"stop_name": "Neubourg \u00c9glise", "type": "Gare accessible"}, "geometry": {"type": "Point", "coordinates": [7.68113, 48.838559000000004]}}, {"type": "Feature", "properties": {"stop_name": "Schweighouse Mar\u00e9chal Leclerc", "type": "Gare accessible"}, "geometry": {"type": "Point", "coordinates": [7.731436, 48.822099]}}, {"type": "Feature", "properties": {"stop_name": "Schweighouse \u00c9gl. protestante", "type": "Gare accessible"}, "geometry": {"type": "Point", "coordinates": [7.740845, 48.820347]}}, {"type": "Feature", "properties": {"stop_name": "Haguenau Arr\u00eat Ritmo Moulin Neuf", "type": "Gare accessible"}, "geometry": {"type": "Point", "coordinates": [7.780509, 48.815794]}}, {"type": "Feature", "properties": {"stop_name": "Uttwiller Croisement", "type": "Gare accessible"}, "geometry": {"type": "Point", "coordinates": [7.487526, 48.846149]}}, {"type": "Feature", "properties": {"stop_name": "Bouxwiller Clos Des Seigneurs", "type": "Gare accessible"}, "geometry": {"type": "Point", "coordinates": [7.486641, 48.828192]}}, {"type": "Feature", "properties": {"stop_name": "Bouxwiller Centre", "type": "Gare accessible"}, "geometry": {"type": "Point", "coordinates": [7.483024, 48.827393]}}, {"type": "Feature", "properties": {"stop_name": "Bouxwiller Lyc\u00e9e Schattenmann", "type": "Gare accessible"}, "geometry": {"type": "Point", "coordinates": [7.478946, 48.826399]}}, {"type": "Feature", "properties": {"stop_name": "Neuwiller Rue de Bouxwiller", "type": "Gare accessible"}, "geometry": {"type": "Point", "coordinates": [7.407151, 48.822848]}}, {"type": "Feature", "properties": {"stop_name": "Neuwiller Pharmacie", "type": "Gare accessible"}, "geometry": {"type": "Point", "coordinates": [7.402853, 48.823614]}}, {"type": "Feature", "properties": {"stop_name": "Dossenheim Lotissement", "type": "Gare accessible"}, "geometry": {"type": "Point", "coordinates": [7.402116, 48.807528000000005]}}, {"type": "Feature", "properties": {"stop_name": "Dossenheim Mairie", "type": "Gare accessible"}, "geometry": {"type": "Point", "coordinates": [7.402476, 48.805191]}}, {"type": "Feature", "properties": {"stop_name": "Saverne Lyc\u00e9e Verne", "type": "Gare accessible"}, "geometry": {"type": "Point", "coordinates": [7.373398, 48.736039]}}, {"type": "Feature", "properties": {"stop_name": "Saverne Place des Dragons", "type": "Gare accessible"}, "geometry": {"type": "Point", "coordinates": [7.361915, 48.739602000000005]}}, {"type": "Feature", "properties": {"stop_name": "Saverne Haut Barr", "type": "Gare accessible"}, "geometry": {"type": "Point", "coordinates": [7.352343, 48.73148]}}, {"type": "Feature", "properties": {"stop_name": "Sarreguemines", "type": "Gare accessible"}, "geometry": {"type": "Point", "coordinates": [7.068576, 49.10738]}}, {"type": "Feature", "properties": {"stop_name": "Oermingen", "type": "Gare accessible"}, "geometry": {"type": "Point", "coordinates": [7.131732, 49.000372]}}, {"type": "Feature", "properties": {"stop_name": "Diemeringen", "type": "Gare accessible"}, "geometry": {"type": "Point", "coordinates": [7.185252, 48.940533]}}, {"type": "Feature", "properties": {"stop_name": "Adamswiller Mairie", "type": "Gare accessible"}, "geometry": {"type": "Point", "coordinates": [7.201179, 48.903835]}}, {"type": "Feature", "properties": {"stop_name": "Adamswiller Lotissement la For\u00eat", "type": "Gare accessible"}, "geometry": {"type": "Point", "coordinates": [7.208238, 48.905635]}}, {"type": "Feature", "properties": {"stop_name": "Tieffenbach - Struth", "type": "Gare accessible"}, "geometry": {"type": "Point", "coordinates": [7.255418, 48.90636]}}, {"type": "Feature", "properties": {"stop_name": "Frohmuhl Lavoir", "type": "Gare accessible"}, "geometry": {"type": "Point", "coordinates": [7.280985, 48.907795]}}, {"type": "Feature", "properties": {"stop_name": "Col de Puberg", "type": "Gare accessible"}, "geometry": {"type": "Point", "coordinates": [7.318055, 48.916897999999996]}}, {"type": "Feature", "properties": {"stop_name": "Wingen-sur-Moder", "type": "Gare accessible"}, "geometry": {"type": "Point", "coordinates": [7.380538, 48.920092]}}, {"type": "Feature", "properties": {"stop_name": "Wimmenau D.919 - Rue de la Gare", "type": "Gare accessible"}, "geometry": {"type": "Point", "coordinates": [7.420315, 48.910025]}}, {"type": "Feature", "properties": {"stop_name": "Ettendorf", "type": "Gare accessible"}, "geometry": {"type": "Point", "coordinates": [7.585288, 48.808186]}}, {"type": "Feature", "properties": {"stop_name": "Alteckendorf Altdorf", "type": "Gare accessible"}, "geometry": {"type": "Point", "coordinates": [7.589267, 48.794562]}}, {"type": "Feature", "properties": {"stop_name": "Alteckendorf Mairie", "type": "Gare accessible"}, "geometry": {"type": "Point", "coordinates": [7.594688, 48.792818]}}, {"type": "Feature", "properties": {"stop_name": "Alteckendorf Eckendorf", "type": "Gare accessible"}, "geometry": {"type": "Point", "coordinates": [7.601602, 48.789784999999995]}}, {"type": "Feature", "properties": {"stop_name": "Minversheim Rue Principale", "type": "Gare accessible"}, "geometry": {"type": "Point", "coordinates": [7.620869, 48.784366]}}, {"type": "Feature", "properties": {"stop_name": "Mommenheim", "type": "Gare accessible"}, "geometry": {"type": "Point", "coordinates": [7.642303, 48.755951]}}, {"type": "Feature", "properties": {"stop_name": "Strasbourg", "type": "Gare accessible"}, "geometry": {"type": "Point", "coordinates": [7.734793, 48.584532]}}, {"type": "Feature", "properties": {"stop_name": "Saverne", "type": "Gare accessible"}, "geometry": {"type": "Point", "coordinates": [7.362055, 48.744483]}}, {"type": "Feature", "properties": {"stop_name": "Wingen-sur-Moder Mairie", "type": "Gare accessible"}, "geometry": {"type": "Point", "coordinates": [7.371182, 48.923275]}}, {"type": "Feature", "properties": {"stop_name": "Rosteig Monument aux Morts", "type": "Gare accessible"}, "geometry": {"type": "Point", "coordinates": [7.340953, 48.932970000000005]}}]}