{"type": "FeatureCollection", "features": [{"type": "Feature", "properties": {"stop_name": "Merxheim Pl. G\u00e9n\u00e9ral de Gaulle", "type": "Gare s\u00e9lectionn\u00e9e"}, "geometry": {"type": "Point", "coordinates": [7.29265, 47.910654]}}, {"type": "Feature", "properties": {"stop_name": "Colmar", "type": "Gare accessible"}, "geometry": {"type": "Point", "coordinates": [7.347756, 48.073527]}}, {"type": "Feature", "properties": {"stop_name": "Herrlisheim-pr\u00e8s-Colmar", "type": "Gare accessible"}, "geometry": {"type": "Point", "coordinates": [7.320888, 48.016572]}}, {"type": "Feature", "properties": {"stop_name": "Rouffach", "type": "Gare accessible"}, "geometry": {"type": "Point", "coordinates": [7.312529, 47.960188]}}, {"type": "Feature", "properties": {"stop_name": "Rouffach CHS", "type": "Gare accessible"}, "geometry": {"type": "Point", "coordinates": [7.291129, 47.950571999999994]}}, {"type": "Feature", "properties": {"stop_name": "Merxheim", "type": "Gare accessible"}, "geometry": {"type": "Point", "coordinates": [7.302333, 47.913189]}}, {"type": "Feature", "properties": {"stop_name": "Raedersheim", "type": "Gare accessible"}, "geometry": {"type": "Point", "coordinates": [7.284047, 47.886906]}}]}