{"type": "FeatureCollection", "features": [{"type": "Feature", "properties": {"start": "Meximieux - P\u00e9rouges", "stop_name": "Meximieux - P\u00e9rouges", "type": "Gare s\u00e9lectionn\u00e9e", "iconstarte": "Icon2"}, "geometry": {"type": "Point", "coordinates": [5.193296, 45.901783]}}, {"type": "Feature", "properties": {"start": "Meximieux - P\u00e9rouges", "stop_name": "Amb\u00e9rieu-en-Bugey", "type": "Gare accessible", "icone": "TER"}, "geometry": {"type": "Point", "coordinates": [5.342402, 45.954014]}}, {"type": "Feature", "properties": {"start": "Meximieux - P\u00e9rouges", "stop_name": "La Valbonne", "type": "Gare accessible", "icone": "TER"}, "geometry": {"type": "Point", "coordinates": [5.124964, 45.849268]}}, {"type": "Feature", "properties": {"start": "Meximieux - P\u00e9rouges", "stop_name": "Montluel", "type": "Gare accessible", "icone": "TER"}, "geometry": {"type": "Point", "coordinates": [5.05753, 45.847783]}}, {"type": "Feature", "properties": {"start": "Meximieux - P\u00e9rouges", "stop_name": "Beynost", "type": "Gare accessible", "icone": "TER"}, "geometry": {"type": "Point", "coordinates": [5.006947, 45.833898]}}, {"type": "Feature", "properties": {"start": "Meximieux - P\u00e9rouges", "stop_name": "Saint-Maurice-de-Beynost", "type": "Gare accessible", "icone": "TER"}, "geometry": {"type": "Point", "coordinates": [4.976986, 45.827421]}}, {"type": "Feature", "properties": {"start": "Meximieux - P\u00e9rouges", "stop_name": "Miribel", "type": "Gare accessible", "icone": "TER"}, "geometry": {"type": "Point", "coordinates": [4.953922, 45.822091]}}, {"type": "Feature", "properties": {"start": "Meximieux - P\u00e9rouges", "stop_name": "Cr\u00e9pieux la Pape", "type": "Gare accessible", "icone": "TER"}, "geometry": {"type": "Point", "coordinates": [4.892701, 45.803918]}}, {"type": "Feature", "properties": {"start": "Meximieux - P\u00e9rouges", "stop_name": "Lyon Part Dieu", "type": "Gare accessible", "icone": "TER"}, "geometry": {"type": "Point", "coordinates": [4.859409, 45.760596]}}, {"type": "Feature", "properties": {"start": "Meximieux - P\u00e9rouges", "stop_name": "Givors Ville", "type": "Gare accessible", "icone": "TER"}, "geometry": {"type": "Point", "coordinates": [4.766086, 45.584948]}}, {"type": "Feature", "properties": {"start": "Meximieux - P\u00e9rouges", "stop_name": "Rive-de-Gier", "type": "Gare accessible", "icone": "TER"}, "geometry": {"type": "Point", "coordinates": [4.606648, 45.524324]}}, {"type": "Feature", "properties": {"start": "Meximieux - P\u00e9rouges", "stop_name": "Saint-Chamond", "type": "Gare accessible", "icone": "TER"}, "geometry": {"type": "Point", "coordinates": [4.516971, 45.472557]}}, {"type": "Feature", "properties": {"start": "Meximieux - P\u00e9rouges", "stop_name": "Saint-\u00c9tienne Ch\u00e2teaucreux", "type": "Gare accessible", "icone": "TER"}, "geometry": {"type": "Point", "coordinates": [4.399722, 45.443366]}}, {"type": "Feature", "properties": {"start": "Meximieux - P\u00e9rouges", "stop_name": "Lons-le-Saunier", "type": "Gare accessible", "icone": "TER"}, "geometry": {"type": "Point", "coordinates": [5.551108, 46.66858]}}, {"type": "Feature", "properties": {"start": "Meximieux - P\u00e9rouges", "stop_name": "Cousance", "type": "Gare accessible", "icone": "TER"}, "geometry": {"type": "Point", "coordinates": [5.386986, 46.535169]}}, {"type": "Feature", "properties": {"start": "Meximieux - P\u00e9rouges", "stop_name": "Saint-Amour", "type": "Gare accessible", "icone": "TER"}, "geometry": {"type": "Point", "coordinates": [5.334427, 46.433733]}}, {"type": "Feature", "properties": {"start": "Meximieux - P\u00e9rouges", "stop_name": "Bourg-en-Bresse", "type": "Gare accessible", "icone": "TER"}, "geometry": {"type": "Point", "coordinates": [5.215011, 46.200111]}}, {"type": "Feature", "properties": {"start": "Meximieux - P\u00e9rouges", "stop_name": "Lyon Perrache", "type": "Gare accessible", "icone": "TER"}, "geometry": {"type": "Point", "coordinates": [4.825777, 45.748508]}}, {"type": "Feature", "properties": {"start": "Meximieux - P\u00e9rouges", "stop_name": "Tenay - Hauteville", "type": "Gare accessible", "icone": "TER"}, "geometry": {"type": "Point", "coordinates": [5.50161, 45.92221]}}, {"type": "Feature", "properties": {"start": "Meximieux - P\u00e9rouges", "stop_name": "Virieu-le-Grand - Belley", "type": "Gare accessible", "icone": "TER"}, "geometry": {"type": "Point", "coordinates": [5.65363, 45.848323]}}, {"type": "Feature", "properties": {"start": "Meximieux - P\u00e9rouges", "stop_name": "Culoz", "type": "Gare accessible", "icone": "TER"}, "geometry": {"type": "Point", "coordinates": [5.778728, 45.843278]}}, {"type": "Feature", "properties": {"start": "Meximieux - P\u00e9rouges", "stop_name": "Seyssel - Corbonod", "type": "Gare accessible", "icone": "TER"}, "geometry": {"type": "Point", "coordinates": [5.831503, 45.963074]}}, {"type": "Feature", "properties": {"start": "Meximieux - P\u00e9rouges", "stop_name": "Bellegarde", "type": "Gare accessible", "icone": "TER"}, "geometry": {"type": "Point", "coordinates": [5.823483, 46.109425]}}, {"type": "Feature", "properties": {"start": "Meximieux - P\u00e9rouges", "stop_name": "Geneve", "type": "Gare accessible", "icone": "TER"}, "geometry": {"type": "Point", "coordinates": [6.14244, 46.21022]}}]}