{"type": "FeatureCollection", "features": [{"type": "Feature", "properties": {"start": "Mommenheim", "stop_name": "Mommenheim", "type": "Gare s\u00e9lectionn\u00e9e", "iconstarte": "Icon2"}, "geometry": {"type": "Point", "coordinates": [7.642303, 48.755951]}}, {"type": "Feature", "properties": {"start": "Mommenheim", "stop_name": "Strasbourg", "type": "Gare accessible", "icone": "TER"}, "geometry": {"type": "Point", "coordinates": [7.734793, 48.584532]}}, {"type": "Feature", "properties": {"start": "Mommenheim", "stop_name": "Stephansfeld", "type": "Gare accessible", "icone": "TER"}, "geometry": {"type": "Point", "coordinates": [7.704595, 48.717587]}}, {"type": "Feature", "properties": {"start": "Mommenheim", "stop_name": "Brumath", "type": "Gare accessible", "icone": "TER"}, "geometry": {"type": "Point", "coordinates": [7.700421, 48.733077]}}, {"type": "Feature", "properties": {"start": "Mommenheim", "stop_name": "Schwindratzheim", "type": "Gare accessible", "icone": "TER"}, "geometry": {"type": "Point", "coordinates": [7.600597, 48.753658]}}, {"type": "Feature", "properties": {"start": "Mommenheim", "stop_name": "Hochfelden", "type": "Gare accessible", "icone": "TER"}, "geometry": {"type": "Point", "coordinates": [7.572281, 48.755416]}}, {"type": "Feature", "properties": {"start": "Mommenheim", "stop_name": "Wilwisheim", "type": "Gare accessible", "icone": "TER"}, "geometry": {"type": "Point", "coordinates": [7.507836, 48.745877]}}, {"type": "Feature", "properties": {"start": "Mommenheim", "stop_name": "Dettwiller", "type": "Gare accessible", "icone": "TER"}, "geometry": {"type": "Point", "coordinates": [7.465077, 48.751916]}}, {"type": "Feature", "properties": {"start": "Mommenheim", "stop_name": "Steinbourg", "type": "Gare accessible", "icone": "TER"}, "geometry": {"type": "Point", "coordinates": [7.416299, 48.763529]}}, {"type": "Feature", "properties": {"start": "Mommenheim", "stop_name": "Saverne", "type": "Gare accessible", "icone": "TER"}, "geometry": {"type": "Point", "coordinates": [7.362055, 48.744483]}}, {"type": "Feature", "properties": {"start": "Mommenheim", "stop_name": "Sarrebourg", "type": "Gare accessible", "icone": "TER"}, "geometry": {"type": "Point", "coordinates": [7.05285, 48.73808]}}, {"type": "Feature", "properties": {"start": "Mommenheim", "stop_name": "R\u00e9ding", "type": "Gare accessible", "icone": "TER"}, "geometry": {"type": "Point", "coordinates": [7.095885, 48.74296]}}, {"type": "Feature", "properties": {"start": "Mommenheim", "stop_name": "Lutzelbourg", "type": "Gare accessible", "icone": "TER"}, "geometry": {"type": "Point", "coordinates": [7.251587, 48.730011]}}, {"type": "Feature", "properties": {"start": "Mommenheim", "stop_name": "Vendenheim", "type": "Gare accessible", "icone": "TER"}, "geometry": {"type": "Point", "coordinates": [7.717777, 48.665922]}}, {"type": "Feature", "properties": {"start": "Mommenheim", "stop_name": "Obermodern", "type": "Gare accessible", "icone": "TER"}, "geometry": {"type": "Point", "coordinates": [7.547135, 48.842587]}}, {"type": "Feature", "properties": {"start": "Mommenheim", "stop_name": "Ingwiller", "type": "Gare accessible", "icone": "TER"}, "geometry": {"type": "Point", "coordinates": [7.477162, 48.872407]}}, {"type": "Feature", "properties": {"start": "Mommenheim", "stop_name": "Wingen-sur-Moder", "type": "Gare accessible", "icone": "TER"}, "geometry": {"type": "Point", "coordinates": [7.380538, 48.920092]}}, {"type": "Feature", "properties": {"start": "Mommenheim", "stop_name": "Tieffenbach - Struth", "type": "Gare accessible", "icone": "TER"}, "geometry": {"type": "Point", "coordinates": [7.255418, 48.90636]}}, {"type": "Feature", "properties": {"start": "Mommenheim", "stop_name": "Diemeringen", "type": "Gare accessible", "icone": "TER"}, "geometry": {"type": "Point", "coordinates": [7.185252, 48.940533]}}, {"type": "Feature", "properties": {"start": "Mommenheim", "stop_name": "Oermingen", "type": "Gare accessible", "icone": "TER"}, "geometry": {"type": "Point", "coordinates": [7.131732, 49.000372]}}, {"type": "Feature", "properties": {"start": "Mommenheim", "stop_name": "Kalhausen Gare", "type": "Gare accessible", "icone": "TER"}, "geometry": {"type": "Point", "coordinates": [7.125438, 49.035033]}}, {"type": "Feature", "properties": {"start": "Mommenheim", "stop_name": "Sarreguemines", "type": "Gare accessible", "icone": "TER"}, "geometry": {"type": "Point", "coordinates": [7.068576, 49.10738]}}, {"type": "Feature", "properties": {"start": "Mommenheim", "stop_name": "Krimmeri Meinau", "type": "Gare accessible", "icone": "TER"}, "geometry": {"type": "Point", "coordinates": [7.752614, 48.563644]}}, {"type": "Feature", "properties": {"start": "Mommenheim", "stop_name": "Sarrebruck", "type": "Gare accessible", "icone": "TER"}, "geometry": {"type": "Point", "coordinates": [6.991, 49.241]}}]}