{"type": "FeatureCollection", "features": [{"type": "Feature", "properties": {"start": "Mont\u00e9limar", "stop_name": "Mont\u00e9limar", "type": "Gare s\u00e9lectionn\u00e9e", "iconstarte": "Icon2"}, "geometry": {"type": "Point", "coordinates": [4.744726, 44.558936]}}, {"type": "Feature", "properties": {"start": "Mont\u00e9limar", "stop_name": "Annecy", "type": "Gare accessible", "icone": "TER"}, "geometry": {"type": "Point", "coordinates": [6.121826, 45.902047]}}, {"type": "Feature", "properties": {"start": "Mont\u00e9limar", "stop_name": "Rumilly", "type": "Gare accessible", "icone": "TER"}, "geometry": {"type": "Point", "coordinates": [5.947949, 45.863053]}}, {"type": "Feature", "properties": {"start": "Mont\u00e9limar", "stop_name": "Albens", "type": "Gare accessible", "icone": "TER"}, "geometry": {"type": "Point", "coordinates": [5.948342, 45.785946]}}, {"type": "Feature", "properties": {"start": "Mont\u00e9limar", "stop_name": "Gr\u00e9sy-sur-Aix", "type": "Gare accessible", "icone": "TER"}, "geometry": {"type": "Point", "coordinates": [5.922146, 45.724527]}}, {"type": "Feature", "properties": {"start": "Mont\u00e9limar", "stop_name": "Aix-les-Bains le Revard", "type": "Gare accessible", "icone": "TER"}, "geometry": {"type": "Point", "coordinates": [5.909371, 45.688161]}}, {"type": "Feature", "properties": {"start": "Mont\u00e9limar", "stop_name": "Chamb\u00e9ry - Challes-les-Eaux", "type": "Gare accessible", "icone": "TER"}, "geometry": {"type": "Point", "coordinates": [5.919547, 45.571302]}}, {"type": "Feature", "properties": {"start": "Mont\u00e9limar", "stop_name": "Montm\u00e9lian", "type": "Gare accessible", "icone": "TER"}, "geometry": {"type": "Point", "coordinates": [6.043175, 45.503082]}}, {"type": "Feature", "properties": {"start": "Mont\u00e9limar", "stop_name": "Pontcharra sur Br\u00e9da", "type": "Gare accessible", "icone": "TER"}, "geometry": {"type": "Point", "coordinates": [6.007859, 45.434091]}}, {"type": "Feature", "properties": {"start": "Mont\u00e9limar", "stop_name": "Grenoble Universit\u00e9s - Gi\u00e8res", "type": "Gare accessible", "icone": "TER"}, "geometry": {"type": "Point", "coordinates": [5.784731, 45.184971]}}, {"type": "Feature", "properties": {"start": "Mont\u00e9limar", "stop_name": "Grenoble", "type": "Gare accessible", "icone": "TER"}, "geometry": {"type": "Point", "coordinates": [5.714366, 45.192693]}}, {"type": "Feature", "properties": {"start": "Mont\u00e9limar", "stop_name": "Moirans", "type": "Gare accessible", "icone": "TER"}, "geometry": {"type": "Point", "coordinates": [5.581934, 45.32216]}}, {"type": "Feature", "properties": {"start": "Mont\u00e9limar", "stop_name": "Tullins Fures", "type": "Gare accessible", "icone": "TER"}, "geometry": {"type": "Point", "coordinates": [5.492174, 45.300905]}}, {"type": "Feature", "properties": {"start": "Mont\u00e9limar", "stop_name": "Saint-Marcellin", "type": "Gare accessible", "icone": "TER"}, "geometry": {"type": "Point", "coordinates": [5.323654, 45.150885]}}, {"type": "Feature", "properties": {"start": "Mont\u00e9limar", "stop_name": "Saint-Hilaire - Saint-Nazaire", "type": "Gare accessible", "icone": "TER"}, "geometry": {"type": "Point", "coordinates": [5.243845, 45.071342]}}, {"type": "Feature", "properties": {"start": "Mont\u00e9limar", "stop_name": "Romans - Bourg-de-P\u00e9age", "type": "Gare accessible", "icone": "TER"}, "geometry": {"type": "Point", "coordinates": [5.049574, 45.048862]}}, {"type": "Feature", "properties": {"start": "Mont\u00e9limar", "stop_name": "Valence TGV Rh\u00f4ne-Alpes Sud", "type": "Gare accessible", "icone": "TER"}, "geometry": {"type": "Point", "coordinates": [4.978652, 44.991907]}}, {"type": "Feature", "properties": {"start": "Mont\u00e9limar", "stop_name": "Valence Ville", "type": "Gare accessible", "icone": "TER"}, "geometry": {"type": "Point", "coordinates": [4.893288, 44.928081]}}, {"type": "Feature", "properties": {"start": "Mont\u00e9limar", "stop_name": "Livron", "type": "Gare accessible", "icone": "TER"}, "geometry": {"type": "Point", "coordinates": [4.830559, 44.779617]}}, {"type": "Feature", "properties": {"start": "Mont\u00e9limar", "stop_name": "Pierrelatte", "type": "Gare accessible", "icone": "TER"}, "geometry": {"type": "Point", "coordinates": [4.703798, 44.374634]}}, {"type": "Feature", "properties": {"start": "Mont\u00e9limar", "stop_name": "Boll\u00e8ne la Croisi\u00e8re", "type": "Gare accessible", "icone": "TER"}, "geometry": {"type": "Point", "coordinates": [4.708055, 44.27154]}}, {"type": "Feature", "properties": {"start": "Mont\u00e9limar", "stop_name": "Orange", "type": "Gare accessible", "icone": "TER"}, "geometry": {"type": "Point", "coordinates": [4.820058, 44.137485]}}, {"type": "Feature", "properties": {"start": "Mont\u00e9limar", "stop_name": "Avignon Centre", "type": "Gare accessible", "icone": "TER"}, "geometry": {"type": "Point", "coordinates": [4.805269, 43.941923]}}, {"type": "Feature", "properties": {"start": "Mont\u00e9limar", "stop_name": "Marseille Saint-Charles", "type": "Gare accessible", "icone": "TER"}, "geometry": {"type": "Point", "coordinates": [5.380407, 43.302666]}}, {"type": "Feature", "properties": {"start": "Mont\u00e9limar", "stop_name": "Vitrolles A\u00e9roport Marseille P", "type": "Gare accessible", "icone": "TER"}, "geometry": {"type": "Point", "coordinates": [5.237122, 43.441734]}}, {"type": "Feature", "properties": {"start": "Mont\u00e9limar", "stop_name": "Miramas", "type": "Gare accessible", "icone": "TER"}, "geometry": {"type": "Point", "coordinates": [4.999565, 43.580737]}}, {"type": "Feature", "properties": {"start": "Mont\u00e9limar", "stop_name": "Saint-Martin-de-Crau", "type": "Gare accessible", "icone": "TER"}, "geometry": {"type": "Point", "coordinates": [4.800331, 43.622351]}}, {"type": "Feature", "properties": {"start": "Mont\u00e9limar", "stop_name": "Arles", "type": "Gare accessible", "icone": "TER"}, "geometry": {"type": "Point", "coordinates": [4.632105, 43.684863]}}, {"type": "Feature", "properties": {"start": "Mont\u00e9limar", "stop_name": "Saint-Rambert-d'Albon", "type": "Gare accessible", "icone": "TER"}, "geometry": {"type": "Point", "coordinates": [4.810739, 45.29776]}}, {"type": "Feature", "properties": {"start": "Mont\u00e9limar", "stop_name": "Le P\u00e9age-de-Roussillon", "type": "Gare accessible", "icone": "TER"}, "geometry": {"type": "Point", "coordinates": [4.795406, 45.371724]}}, {"type": "Feature", "properties": {"start": "Mont\u00e9limar", "stop_name": "Saint-Clair - Les Roches", "type": "Gare accessible", "icone": "TER"}, "geometry": {"type": "Point", "coordinates": [4.769669, 45.450303]}}, {"type": "Feature", "properties": {"start": "Mont\u00e9limar", "stop_name": "Vienne", "type": "Gare accessible", "icone": "TER"}, "geometry": {"type": "Point", "coordinates": [4.874274, 45.521231]}}, {"type": "Feature", "properties": {"start": "Mont\u00e9limar", "stop_name": "Lyon Part Dieu", "type": "Gare accessible", "icone": "TER"}, "geometry": {"type": "Point", "coordinates": [4.859409, 45.760596]}}, {"type": "Feature", "properties": {"start": "Mont\u00e9limar", "stop_name": "Saint-Vallier sur Rh\u00f4ne", "type": "Gare accessible", "icone": "TER"}, "geometry": {"type": "Point", "coordinates": [4.814302, 45.185678]}}, {"type": "Feature", "properties": {"start": "Mont\u00e9limar", "stop_name": "Tain-l'Hermitage - Tournon", "type": "Gare accessible", "icone": "TER"}, "geometry": {"type": "Point", "coordinates": [4.839708, 45.072178]}}, {"type": "Feature", "properties": {"start": "Mont\u00e9limar", "stop_name": "Donz\u00e8re", "type": "Gare accessible", "icone": "TER"}, "geometry": {"type": "Point", "coordinates": [4.704626, 44.443365]}}, {"type": "Feature", "properties": {"start": "Mont\u00e9limar", "stop_name": "Loriol", "type": "Gare accessible", "icone": "TER"}, "geometry": {"type": "Point", "coordinates": [4.817213, 44.754515]}}, {"type": "Feature", "properties": {"start": "Mont\u00e9limar", "stop_name": "Lyon Jean Mac\u00e9", "type": "Gare accessible", "icone": "TER"}, "geometry": {"type": "Point", "coordinates": [4.841499, 45.74503]}}, {"type": "Feature", "properties": {"start": "Mont\u00e9limar", "stop_name": "Lyon Perrache", "type": "Gare accessible", "icone": "TER"}, "geometry": {"type": "Point", "coordinates": [4.825777, 45.748508]}}, {"type": "Feature", "properties": {"start": "Mont\u00e9limar", "stop_name": "Lyon Vaise", "type": "Gare accessible", "icone": "TER"}, "geometry": {"type": "Point", "coordinates": [4.804186, 45.77976]}}, {"type": "Feature", "properties": {"start": "Mont\u00e9limar", "stop_name": "Collonges - Fontaines", "type": "Gare accessible", "icone": "TER"}, "geometry": {"type": "Point", "coordinates": [4.84665, 45.829128]}}, {"type": "Feature", "properties": {"start": "Mont\u00e9limar", "stop_name": "Couzon-au-Mont-d'Or", "type": "Gare accessible", "icone": "TER"}, "geometry": {"type": "Point", "coordinates": [4.82948, 45.84876]}}, {"type": "Feature", "properties": {"start": "Mont\u00e9limar", "stop_name": "Albigny - Neuville", "type": "Gare accessible", "icone": "TER"}, "geometry": {"type": "Point", "coordinates": [4.832852, 45.874897]}}, {"type": "Feature", "properties": {"start": "Mont\u00e9limar", "stop_name": "Saint-Germain-au-Mont-d'Or", "type": "Gare accessible", "icone": "TER"}, "geometry": {"type": "Point", "coordinates": [4.804206, 45.888431]}}, {"type": "Feature", "properties": {"start": "Mont\u00e9limar", "stop_name": "Quincieux", "type": "Gare accessible", "icone": "TER"}, "geometry": {"type": "Point", "coordinates": [4.77857, 45.906914]}}, {"type": "Feature", "properties": {"start": "Mont\u00e9limar", "stop_name": "Anse", "type": "Gare accessible", "icone": "TER"}, "geometry": {"type": "Point", "coordinates": [4.719824, 45.939351]}}, {"type": "Feature", "properties": {"start": "Mont\u00e9limar", "stop_name": "Villefranche-sur-Sa\u00f4ne", "type": "Gare accessible", "icone": "TER"}, "geometry": {"type": "Point", "coordinates": [4.720798, 45.984482]}}, {"type": "Feature", "properties": {"start": "Mont\u00e9limar", "stop_name": "Saint-Georges-de-Reneins", "type": "Gare accessible", "icone": "TER"}, "geometry": {"type": "Point", "coordinates": [4.718888, 46.06221]}}, {"type": "Feature", "properties": {"start": "Mont\u00e9limar", "stop_name": "Belleville sur S\u00e2one", "type": "Gare accessible", "icone": "TER"}, "geometry": {"type": "Point", "coordinates": [4.729011, 46.111952]}}, {"type": "Feature", "properties": {"start": "Mont\u00e9limar", "stop_name": "Roman\u00e8che-Thorins-Maison Blanche", "type": "Gare accessible", "icone": "TER"}, "geometry": {"type": "Point", "coordinates": [4.741973, 46.176344]}}, {"type": "Feature", "properties": {"start": "Mont\u00e9limar", "stop_name": "Pontanevaux", "type": "Gare accessible", "icone": "TER"}, "geometry": {"type": "Point", "coordinates": [4.772881, 46.213047]}}, {"type": "Feature", "properties": {"start": "Mont\u00e9limar", "stop_name": "Cr\u00eaches-sur-Sa\u00f4ne", "type": "Gare accessible", "icone": "TER"}, "geometry": {"type": "Point", "coordinates": [4.784047, 46.246154]}}, {"type": "Feature", "properties": {"start": "Mont\u00e9limar", "stop_name": "M\u00e2con", "type": "Gare accessible", "icone": "TER"}, "geometry": {"type": "Point", "coordinates": [4.824887, 46.302572]}}, {"type": "Feature", "properties": {"start": "Mont\u00e9limar", "stop_name": "Sorgues - Ch\u00e2teauneuf-du-Pape", "type": "Gare accessible", "icone": "TER"}, "geometry": {"type": "Point", "coordinates": [4.875612, 44.005427]}}, {"type": "Feature", "properties": {"start": "Mont\u00e9limar", "stop_name": "Courth\u00e9zon", "type": "Gare accessible", "icone": "TER"}, "geometry": {"type": "Point", "coordinates": [4.888178, 44.089999]}}, {"type": "Feature", "properties": {"start": "Mont\u00e9limar", "stop_name": "B\u00e9darrides", "type": "Gare accessible", "icone": "TER"}, "geometry": {"type": "Point", "coordinates": [4.89325, 44.040843]}}, {"type": "Feature", "properties": {"start": "Mont\u00e9limar", "stop_name": "Saint-Chamas", "type": "Gare accessible", "icone": "TER"}, "geometry": {"type": "Point", "coordinates": [5.040265, 43.551161]}}, {"type": "Feature", "properties": {"start": "Mont\u00e9limar", "stop_name": "Rognac", "type": "Gare accessible", "icone": "TER"}, "geometry": {"type": "Point", "coordinates": [5.230664, 43.486632]}}, {"type": "Feature", "properties": {"start": "Mont\u00e9limar", "stop_name": "Pas des Lanciers", "type": "Gare accessible", "icone": "TER"}, "geometry": {"type": "Point", "coordinates": [5.253825, 43.409709]}}, {"type": "Feature", "properties": {"start": "Mont\u00e9limar", "stop_name": "L'Estaque", "type": "Gare accessible", "icone": "TER"}, "geometry": {"type": "Point", "coordinates": [5.321342, 43.363646]}}]}