{"type": "FeatureCollection", "features": [{"type": "Feature", "properties": {"stop_name": "Moulins sur Allier", "type": "Gare s\u00e9lectionn\u00e9e", "icone": "Icon2"}, "geometry": {"type": "Point", "coordinates": [3.338782, 46.561394]}}, {"type": "Feature", "properties": {"stop_name": "Nevers", "type": "Gare accessible", "icone": "Icon1"}, "geometry": {"type": "Point", "coordinates": [3.150743, 46.987282]}}, {"type": "Feature", "properties": {"stop_name": "Dompierre Sept Fons", "type": "Gare accessible", "icone": "Icon1"}, "geometry": {"type": "Point", "coordinates": [3.674911, 46.526302]}}, {"type": "Feature", "properties": {"stop_name": "Gilly-sur-Loire", "type": "Gare accessible", "icone": "Icon1"}, "geometry": {"type": "Point", "coordinates": [3.782111, 46.536992]}}, {"type": "Feature", "properties": {"stop_name": "Digoin", "type": "Gare accessible", "icone": "Icon1"}, "geometry": {"type": "Point", "coordinates": [3.987678, 46.485191]}}, {"type": "Feature", "properties": {"stop_name": "Paray-le-Monial", "type": "Gare accessible", "icone": "Icon1"}, "geometry": {"type": "Point", "coordinates": [4.113666, 46.447294]}}, {"type": "Feature", "properties": {"stop_name": "La Clayette - Baudemont", "type": "Gare accessible", "icone": "Icon1"}, "geometry": {"type": "Point", "coordinates": [4.298436, 46.288148]}}, {"type": "Feature", "properties": {"stop_name": "Chauffailles", "type": "Gare accessible", "icone": "Icon1"}, "geometry": {"type": "Point", "coordinates": [4.345393, 46.207439]}}, {"type": "Feature", "properties": {"stop_name": "Lamure-sur-Azergues", "type": "Gare accessible", "icone": "Icon1"}, "geometry": {"type": "Point", "coordinates": [4.492121, 46.06111]}}, {"type": "Feature", "properties": {"stop_name": "Bois-d'Oingt - L\u00e9gny", "type": "Gare accessible", "icone": "Icon1"}, "geometry": {"type": "Point", "coordinates": [4.57513, 45.906545]}}, {"type": "Feature", "properties": {"stop_name": "Lozanne", "type": "Gare accessible", "icone": "Icon1"}, "geometry": {"type": "Point", "coordinates": [4.681474, 45.854174]}}, {"type": "Feature", "properties": {"stop_name": "Lyon Part Dieu", "type": "Gare accessible", "icone": "Icon1"}, "geometry": {"type": "Point", "coordinates": [4.859409, 45.760596]}}, {"type": "Feature", "properties": {"stop_name": "Lyon Perrache", "type": "Gare accessible", "icone": "Icon1"}, "geometry": {"type": "Point", "coordinates": [4.825777, 45.748508]}}, {"type": "Feature", "properties": {"stop_name": "Tours", "type": "Gare accessible", "icone": "Icon1"}, "geometry": {"type": "Point", "coordinates": [0.692831, 47.389866]}}, {"type": "Feature", "properties": {"stop_name": "Saint-Pierre-des-Corps", "type": "Gare accessible", "icone": "Icon1"}, "geometry": {"type": "Point", "coordinates": [0.723539, 47.386140000000005]}}, {"type": "Feature", "properties": {"stop_name": "Chenonceaux", "type": "Gare accessible", "icone": "Icon1"}, "geometry": {"type": "Point", "coordinates": [1.065446, 47.330631]}}, {"type": "Feature", "properties": {"stop_name": "Montrichard", "type": "Gare accessible", "icone": "Icon1"}, "geometry": {"type": "Point", "coordinates": [1.171782, 47.343571999999995]}}, {"type": "Feature", "properties": {"stop_name": "Saint-Aignan - Noyers", "type": "Gare accessible", "icone": "Icon1"}, "geometry": {"type": "Point", "coordinates": [1.383626, 47.286724]}}, {"type": "Feature", "properties": {"stop_name": "Selles-sur-Cher", "type": "Gare accessible", "icone": "Icon1"}, "geometry": {"type": "Point", "coordinates": [1.546045, 47.281511]}}, {"type": "Feature", "properties": {"stop_name": "Gi\u00e8vres", "type": "Gare accessible", "icone": "Icon1"}, "geometry": {"type": "Point", "coordinates": [1.667814, 47.27878]}}, {"type": "Feature", "properties": {"stop_name": "Villefranche-sur-Cher", "type": "Gare accessible", "icone": "Icon1"}, "geometry": {"type": "Point", "coordinates": [1.768056, 47.294779999999996]}}, {"type": "Feature", "properties": {"stop_name": "Vierzon", "type": "Gare accessible", "icone": "Icon1"}, "geometry": {"type": "Point", "coordinates": [2.059869, 47.226473999999996]}}, {"type": "Feature", "properties": {"stop_name": "Bourges", "type": "Gare accessible", "icone": "Icon1"}, "geometry": {"type": "Point", "coordinates": [2.394236, 47.094128999999995]}}, {"type": "Feature", "properties": {"stop_name": "Bl\u00e9r\u00e9 - la Croix", "type": "Gare accessible", "icone": "Icon1"}, "geometry": {"type": "Point", "coordinates": [0.987745, 47.337740999999994]}}, {"type": "Feature", "properties": {"stop_name": "Clermont-Ferrand", "type": "Gare accessible", "icone": "Icon1"}, "geometry": {"type": "Point", "coordinates": [3.100543, 45.778945]}}, {"type": "Feature", "properties": {"stop_name": "Riom - Ch\u00e2tel-Guyon", "type": "Gare accessible", "icone": "Icon1"}, "geometry": {"type": "Point", "coordinates": [3.120498, 45.889965000000004]}}, {"type": "Feature", "properties": {"stop_name": "Vichy", "type": "Gare accessible", "icone": "Icon1"}, "geometry": {"type": "Point", "coordinates": [3.430476, 46.126991]}}, {"type": "Feature", "properties": {"stop_name": "Saint-Germain-des-Foss\u00e9s", "type": "Gare accessible", "icone": "Icon1"}, "geometry": {"type": "Point", "coordinates": [3.430574, 46.209239000000004]}}, {"type": "Feature", "properties": {"stop_name": "Varennes-sur-Allier", "type": "Gare accessible", "icone": "Icon1"}, "geometry": {"type": "Point", "coordinates": [3.394239, 46.3155]}}, {"type": "Feature", "properties": {"stop_name": "Bessay", "type": "Gare accessible", "icone": "Icon1"}, "geometry": {"type": "Point", "coordinates": [3.360642, 46.442972999999995]}}, {"type": "Feature", "properties": {"stop_name": "Chantenay-Saint-Imbert", "type": "Gare accessible", "icone": "Icon1"}, "geometry": {"type": "Point", "coordinates": [3.171472, 46.728556]}}, {"type": "Feature", "properties": {"stop_name": "Saint-Pierre-le-Mo\u00fbtier", "type": "Gare accessible", "icone": "Icon1"}, "geometry": {"type": "Point", "coordinates": [3.111738, 46.793278]}}, {"type": "Feature", "properties": {"stop_name": "Saincaize", "type": "Gare accessible", "icone": "Icon1"}, "geometry": {"type": "Point", "coordinates": [3.071937, 46.931405]}}, {"type": "Feature", "properties": {"stop_name": "Villeneuve-sur-Allier", "type": "Gare accessible", "icone": "Icon1"}, "geometry": {"type": "Point", "coordinates": [3.247165, 46.658954]}}, {"type": "Feature", "properties": {"stop_name": "Gannat", "type": "Gare accessible", "icone": "Icon1"}, "geometry": {"type": "Point", "coordinates": [3.204773, 46.097592]}}, {"type": "Feature", "properties": {"stop_name": "Vic-le-Comte", "type": "Gare accessible", "icone": "Icon1"}, "geometry": {"type": "Point", "coordinates": [3.207042, 45.664941]}}, {"type": "Feature", "properties": {"stop_name": "Les Martres-de-Veyre", "type": "Gare accessible", "icone": "Icon1"}, "geometry": {"type": "Point", "coordinates": [3.193325, 45.688195]}}, {"type": "Feature", "properties": {"stop_name": "Le Cendre - Orcet", "type": "Gare accessible", "icone": "Icon1"}, "geometry": {"type": "Point", "coordinates": [3.188682, 45.723828000000005]}}, {"type": "Feature", "properties": {"stop_name": "Sarli\u00e8ve - Cournon", "type": "Gare accessible", "icone": "Icon1"}, "geometry": {"type": "Point", "coordinates": [3.168075, 45.738743]}}, {"type": "Feature", "properties": {"stop_name": "Clermont la Pardieu", "type": "Gare accessible", "icone": "Icon1"}, "geometry": {"type": "Point", "coordinates": [3.134193, 45.766988]}}, {"type": "Feature", "properties": {"stop_name": "Issoire", "type": "Gare accessible", "icone": "Icon1"}, "geometry": {"type": "Point", "coordinates": [3.25404, 45.543949]}}, {"type": "Feature", "properties": {"stop_name": "Parent - Coudes - Champeix", "type": "Gare accessible", "icone": "Icon1"}, "geometry": {"type": "Point", "coordinates": [3.216771, 45.614416]}}, {"type": "Feature", "properties": {"stop_name": "Le Breuil-sur-Couze", "type": "Gare accessible", "icone": "Icon1"}, "geometry": {"type": "Point", "coordinates": [3.262221, 45.467099]}}, {"type": "Feature", "properties": {"stop_name": "Brassac-les-Mines - Sainte-Florine", "type": "Gare accessible", "icone": "Icon1"}, "geometry": {"type": "Point", "coordinates": [3.330167, 45.414246]}}, {"type": "Feature", "properties": {"stop_name": "Arvant", "type": "Gare accessible", "icone": "Icon1"}, "geometry": {"type": "Point", "coordinates": [3.310554, 45.365459]}}, {"type": "Feature", "properties": {"stop_name": "Brioude", "type": "Gare accessible", "icone": "Icon1"}, "geometry": {"type": "Point", "coordinates": [3.37856, 45.300561]}}, {"type": "Feature", "properties": {"stop_name": "Saint-Agnan", "type": "Gare accessible", "icone": "Icon1"}, "geometry": {"type": "Point", "coordinates": [3.878938, 46.502031]}}, {"type": "Feature", "properties": {"stop_name": "G\u00e9nelard", "type": "Gare accessible", "icone": "Icon1"}, "geometry": {"type": "Point", "coordinates": [4.237965, 46.58122]}}, {"type": "Feature", "properties": {"stop_name": "Ciry-le-Noble", "type": "Gare accessible", "icone": "Icon1"}, "geometry": {"type": "Point", "coordinates": [4.299518, 46.604191]}}, {"type": "Feature", "properties": {"stop_name": "Galuzot", "type": "Gare accessible", "icone": "Icon1"}, "geometry": {"type": "Point", "coordinates": [4.329962, 46.642236]}}, {"type": "Feature", "properties": {"stop_name": "Montceau-les-Mines", "type": "Gare accessible", "icone": "Icon1"}, "geometry": {"type": "Point", "coordinates": [4.361026, 46.670664]}}, {"type": "Feature", "properties": {"stop_name": "Blanzy", "type": "Gare accessible", "icone": "Icon1"}, "geometry": {"type": "Point", "coordinates": [4.391358, 46.694064000000004]}}, {"type": "Feature", "properties": {"stop_name": "Montchanin", "type": "Gare accessible", "icone": "Icon1"}, "geometry": {"type": "Point", "coordinates": [4.48147, 46.759211]}}, {"type": "Feature", "properties": {"stop_name": "Beaune", "type": "Gare accessible", "icone": "Icon1"}, "geometry": {"type": "Point", "coordinates": [4.848423, 47.023014]}}, {"type": "Feature", "properties": {"stop_name": "Dijon", "type": "Gare accessible", "icone": "Icon1"}, "geometry": {"type": "Point", "coordinates": [5.027256, 47.323411]}}, {"type": "Feature", "properties": {"stop_name": "Gerzat", "type": "Gare accessible", "icone": "Icon1"}, "geometry": {"type": "Point", "coordinates": [3.143236, 45.833488]}}, {"type": "Feature", "properties": {"stop_name": "Decize", "type": "Gare accessible", "icone": "Icon1"}, "geometry": {"type": "Point", "coordinates": [3.467289, 46.83736]}}, {"type": "Feature", "properties": {"stop_name": "B\u00e9ard", "type": "Gare accessible", "icone": "Icon1"}, "geometry": {"type": "Point", "coordinates": [3.318075, 46.865293]}}, {"type": "Feature", "properties": {"stop_name": "Imphy", "type": "Gare accessible", "icone": "Icon1"}, "geometry": {"type": "Point", "coordinates": [3.259737, 46.933402]}}, {"type": "Feature", "properties": {"stop_name": "Nevers le Banlay", "type": "Gare accessible", "icone": "Icon1"}, "geometry": {"type": "Point", "coordinates": [3.163687, 47.006853]}}, {"type": "Feature", "properties": {"stop_name": "Les Perri\u00e8res", "type": "Gare accessible", "icone": "Icon1"}, "geometry": {"type": "Point", "coordinates": [3.146714, 47.005521]}}, {"type": "Feature", "properties": {"stop_name": "Ch\u00e2tillon d'Azergues", "type": "Gare accessible", "icone": "Icon1"}, "geometry": {"type": "Point", "coordinates": [4.64517, 45.875248]}}, {"type": "Feature", "properties": {"stop_name": "Chessy", "type": "Gare accessible", "icone": "Icon1"}, "geometry": {"type": "Point", "coordinates": [4.622304, 45.885524]}}, {"type": "Feature", "properties": {"stop_name": "Chamelet", "type": "Gare accessible", "icone": "Icon1"}, "geometry": {"type": "Point", "coordinates": [4.507125, 45.981667]}}, {"type": "Feature", "properties": {"stop_name": "Lyon Vaise", "type": "Gare accessible", "icone": "Icon1"}, "geometry": {"type": "Point", "coordinates": [4.804186, 45.779759999999996]}}]}