{"type": "FeatureCollection", "features": [{"type": "Feature", "properties": {"start": "Namps - Quevauvillers", "stop_name": "Namps - Quevauvillers", "type": "Gare s\u00e9lectionn\u00e9e", "iconstarte": "Icon2"}, "geometry": {"type": "Point", "coordinates": [2.105376, 49.8083]}}, {"type": "Feature", "properties": {"start": "Namps - Quevauvillers", "stop_name": "Amiens", "type": "Gare accessible", "icone": "TER"}, "geometry": {"type": "Point", "coordinates": [2.308277, 49.890584]}}, {"type": "Feature", "properties": {"start": "Namps - Quevauvillers", "stop_name": "Saint-Roch (Somme)", "type": "Gare accessible", "icone": "TER"}, "geometry": {"type": "Point", "coordinates": [2.28377, 49.893454]}}, {"type": "Feature", "properties": {"start": "Namps - Quevauvillers", "stop_name": "Poix-de-Picardie", "type": "Gare accessible", "icone": "TER"}, "geometry": {"type": "Point", "coordinates": [1.989899, 49.777788]}}, {"type": "Feature", "properties": {"start": "Namps - Quevauvillers", "stop_name": "Fouilloy", "type": "Gare accessible", "icone": "TER"}, "geometry": {"type": "Point", "coordinates": [1.825774, 49.736315]}}, {"type": "Feature", "properties": {"start": "Namps - Quevauvillers", "stop_name": "Abancourt", "type": "Gare accessible", "icone": "TER"}, "geometry": {"type": "Point", "coordinates": [1.774297, 49.685621]}}]}