{"type": "FeatureCollection", "features": [{"type": "Feature", "properties": {"stop_name": "Nancy", "type": "Gare s\u00e9lectionn\u00e9e", "icone": "Icon2"}, "geometry": {"type": "Point", "coordinates": [6.174579, 48.689857]}}, {"type": "Feature", "properties": {"stop_name": "Charmes", "type": "Gare accessible", "icone": "Icon1"}, "geometry": {"type": "Point", "coordinates": [6.301537, 48.378483]}}, {"type": "Feature", "properties": {"stop_name": "\u00c9pinal", "type": "Gare accessible", "icone": "Icon1"}, "geometry": {"type": "Point", "coordinates": [6.441787, 48.178005]}}, {"type": "Feature", "properties": {"stop_name": "Pont-\u00e0-Mousson", "type": "Gare accessible", "icone": "Icon1"}, "geometry": {"type": "Point", "coordinates": [6.051021, 48.900348]}}, {"type": "Feature", "properties": {"stop_name": "Onville", "type": "Gare accessible", "icone": "Icon1"}, "geometry": {"type": "Point", "coordinates": [5.979092, 49.013667]}}, {"type": "Feature", "properties": {"stop_name": "Conflans - Jarny", "type": "Gare accessible", "icone": "Icon1"}, "geometry": {"type": "Point", "coordinates": [5.867933, 49.166118]}}, {"type": "Feature", "properties": {"stop_name": "Baroncourt", "type": "Gare accessible", "icone": "Icon1"}, "geometry": {"type": "Point", "coordinates": [5.699708, 49.284534]}}, {"type": "Feature", "properties": {"stop_name": "Longuyon", "type": "Gare accessible", "icone": "Icon1"}, "geometry": {"type": "Point", "coordinates": [5.604551, 49.444412]}}, {"type": "Feature", "properties": {"stop_name": "Longwy", "type": "Gare accessible", "icone": "Icon1"}, "geometry": {"type": "Point", "coordinates": [5.76956, 49.513003999999995]}}, {"type": "Feature", "properties": {"stop_name": "Blainville - Damelevi\u00e8res", "type": "Gare accessible", "icone": "Icon1"}, "geometry": {"type": "Point", "coordinates": [6.386948, 48.564799]}}, {"type": "Feature", "properties": {"stop_name": "Einvaux", "type": "Gare accessible", "icone": "Icon1"}, "geometry": {"type": "Point", "coordinates": [6.393244, 48.503597]}}, {"type": "Feature", "properties": {"stop_name": "Bayon", "type": "Gare accessible", "icone": "Icon1"}, "geometry": {"type": "Point", "coordinates": [6.32286, 48.468045000000004]}}, {"type": "Feature", "properties": {"stop_name": "Vincey", "type": "Gare accessible", "icone": "Icon1"}, "geometry": {"type": "Point", "coordinates": [6.335801, 48.343424]}}, {"type": "Feature", "properties": {"stop_name": "Ch\u00e2tel - Nomexy", "type": "Gare accessible", "icone": "Icon1"}, "geometry": {"type": "Point", "coordinates": [6.388008, 48.307114]}}, {"type": "Feature", "properties": {"stop_name": "Igney", "type": "Gare accessible", "icone": "Icon1"}, "geometry": {"type": "Point", "coordinates": [6.39969, 48.270747]}}, {"type": "Feature", "properties": {"stop_name": "Thaon", "type": "Gare accessible", "icone": "Icon1"}, "geometry": {"type": "Point", "coordinates": [6.416337, 48.244686]}}, {"type": "Feature", "properties": {"stop_name": "Varang\u00e9ville - Saint-Nicolas", "type": "Gare accessible", "icone": "Icon1"}, "geometry": {"type": "Point", "coordinates": [6.313142, 48.635215]}}, {"type": "Feature", "properties": {"stop_name": "Arches Gare", "type": "Gare accessible", "icone": "Icon1"}, "geometry": {"type": "Point", "coordinates": [6.528105, 48.118896]}}, {"type": "Feature", "properties": {"stop_name": "Pouxeux", "type": "Gare accessible", "icone": "Icon1"}, "geometry": {"type": "Point", "coordinates": [6.569532, 48.108806]}}, {"type": "Feature", "properties": {"stop_name": "\u00c9loyes", "type": "Gare accessible", "icone": "Icon1"}, "geometry": {"type": "Point", "coordinates": [6.600101, 48.087196]}}, {"type": "Feature", "properties": {"stop_name": "Saint-Nabord", "type": "Gare accessible", "icone": "Icon1"}, "geometry": {"type": "Point", "coordinates": [6.581572, 48.045742]}}, {"type": "Feature", "properties": {"stop_name": "Remiremont", "type": "Gare accessible", "icone": "Icon1"}, "geometry": {"type": "Point", "coordinates": [6.598879, 48.016342]}}, {"type": "Feature", "properties": {"stop_name": "Revigny", "type": "Gare accessible", "icone": "Icon1"}, "geometry": {"type": "Point", "coordinates": [4.985513, 48.824193]}}, {"type": "Feature", "properties": {"stop_name": "Bar-le-Duc", "type": "Gare accessible", "icone": "Icon1"}, "geometry": {"type": "Point", "coordinates": [5.167053, 48.773598]}}, {"type": "Feature", "properties": {"stop_name": "Commercy", "type": "Gare accessible", "icone": "Icon1"}, "geometry": {"type": "Point", "coordinates": [5.58861, 48.765749]}}, {"type": "Feature", "properties": {"stop_name": "Toul", "type": "Gare accessible", "icone": "Icon1"}, "geometry": {"type": "Point", "coordinates": [5.880499, 48.679010999999996]}}, {"type": "Feature", "properties": {"stop_name": "Liverdun", "type": "Gare accessible", "icone": "Icon1"}, "geometry": {"type": "Point", "coordinates": [6.061669, 48.749387]}}, {"type": "Feature", "properties": {"stop_name": "Verdun", "type": "Gare accessible", "icone": "Icon1"}, "geometry": {"type": "Point", "coordinates": [5.379672, 49.165440999999994]}}, {"type": "Feature", "properties": {"stop_name": "Saint-Di\u00e9-des-Vosges", "type": "Gare accessible", "icone": "Icon1"}, "geometry": {"type": "Point", "coordinates": [6.948516, 48.282043]}}, {"type": "Feature", "properties": {"stop_name": "\u00c9tival-Clairefontaine", "type": "Gare accessible", "icone": "Icon1"}, "geometry": {"type": "Point", "coordinates": [6.877124, 48.367171]}}, {"type": "Feature", "properties": {"stop_name": "Raon-l'\u00c9tape", "type": "Gare accessible", "icone": "Icon1"}, "geometry": {"type": "Point", "coordinates": [6.837042, 48.403946999999995]}}, {"type": "Feature", "properties": {"stop_name": "Baccarat", "type": "Gare accessible", "icone": "Icon1"}, "geometry": {"type": "Point", "coordinates": [6.743921, 48.452092]}}, {"type": "Feature", "properties": {"stop_name": "Azerailles", "type": "Gare accessible", "icone": "Icon1"}, "geometry": {"type": "Point", "coordinates": [6.696164, 48.491252]}}, {"type": "Feature", "properties": {"stop_name": "Saint-Cl\u00e9ment - Laronxe", "type": "Gare accessible", "icone": "Icon1"}, "geometry": {"type": "Point", "coordinates": [6.608166, 48.531216]}}, {"type": "Feature", "properties": {"stop_name": "Lun\u00e9ville", "type": "Gare accessible", "icone": "Icon1"}, "geometry": {"type": "Point", "coordinates": [6.496997, 48.587990000000005]}}, {"type": "Feature", "properties": {"stop_name": "Neufch\u00e2teau", "type": "Gare accessible", "icone": "Icon1"}, "geometry": {"type": "Point", "coordinates": [5.691036, 48.358092]}}, {"type": "Feature", "properties": {"stop_name": "Dijon", "type": "Gare accessible", "icone": "Icon1"}, "geometry": {"type": "Point", "coordinates": [5.027256, 47.323411]}}, {"type": "Feature", "properties": {"stop_name": "\u00c9tain", "type": "Gare accessible", "icone": "Icon1"}, "geometry": {"type": "Point", "coordinates": [5.639808, 49.207491]}}, {"type": "Feature", "properties": {"stop_name": "Mont-sur-Meurthe", "type": "Gare accessible", "icone": "Icon1"}, "geometry": {"type": "Point", "coordinates": [6.449774, 48.559964]}}, {"type": "Feature", "properties": {"stop_name": "Rosi\u00e8res-aux-Salines", "type": "Gare accessible", "icone": "Icon1"}, "geometry": {"type": "Point", "coordinates": [6.350631, 48.605441]}}, {"type": "Feature", "properties": {"stop_name": "Dombasle-sur-Meurthe", "type": "Gare accessible", "icone": "Icon1"}, "geometry": {"type": "Point", "coordinates": [6.343566, 48.623332]}}, {"type": "Feature", "properties": {"stop_name": "Laneuveville-devant-Nancy", "type": "Gare accessible", "icone": "Icon1"}, "geometry": {"type": "Point", "coordinates": [6.227977, 48.65568]}}, {"type": "Feature", "properties": {"stop_name": "Jarville-la-Malgrange", "type": "Gare accessible", "icone": "Icon1"}, "geometry": {"type": "Point", "coordinates": [6.202401, 48.669712]}}, {"type": "Feature", "properties": {"stop_name": "Frouard", "type": "Gare accessible", "icone": "Icon1"}, "geometry": {"type": "Point", "coordinates": [6.143927, 48.755428]}}, {"type": "Feature", "properties": {"stop_name": "Nan\u00e7ois - Tronville", "type": "Gare accessible", "icone": "Icon1"}, "geometry": {"type": "Point", "coordinates": [5.29114, 48.718022]}}, {"type": "Feature", "properties": {"stop_name": "L\u00e9rouville", "type": "Gare accessible", "icone": "Icon1"}, "geometry": {"type": "Point", "coordinates": [5.538437, 48.796902]}}, {"type": "Feature", "properties": {"stop_name": "Pagny-sur-Meuse", "type": "Gare accessible", "icone": "Icon1"}, "geometry": {"type": "Point", "coordinates": [5.733632, 48.696582]}}, {"type": "Feature", "properties": {"stop_name": "Foug", "type": "Gare accessible", "icone": "Icon1"}, "geometry": {"type": "Point", "coordinates": [5.791265, 48.679264]}}, {"type": "Feature", "properties": {"stop_name": "Fontenoy-sur-Moselle", "type": "Gare accessible", "icone": "Icon1"}, "geometry": {"type": "Point", "coordinates": [5.980173, 48.711419]}}, {"type": "Feature", "properties": {"stop_name": "Champigneulles", "type": "Gare accessible", "icone": "Icon1"}, "geometry": {"type": "Point", "coordinates": [6.168952, 48.735025]}}, {"type": "Feature", "properties": {"stop_name": "Vitry-le-Fran\u00e7ois", "type": "Gare accessible", "icone": "Icon1"}, "geometry": {"type": "Point", "coordinates": [4.587515, 48.717913]}}, {"type": "Feature", "properties": {"stop_name": "Ch\u00e2lons-en-Champagne", "type": "Gare accessible", "icone": "Icon1"}, "geometry": {"type": "Point", "coordinates": [4.348656, 48.955252]}}, {"type": "Feature", "properties": {"stop_name": "\u00c9pernay", "type": "Gare accessible", "icone": "Icon1"}, "geometry": {"type": "Point", "coordinates": [3.959798, 49.046289]}}, {"type": "Feature", "properties": {"stop_name": "Reims", "type": "Gare accessible", "icone": "Icon1"}, "geometry": {"type": "Point", "coordinates": [4.021994, 49.258934]}}, {"type": "Feature", "properties": {"stop_name": "Pompey", "type": "Gare accessible", "icone": "Icon1"}, "geometry": {"type": "Point", "coordinates": [6.13061, 48.77304]}}, {"type": "Feature", "properties": {"stop_name": "Marbache", "type": "Gare accessible", "icone": "Icon1"}, "geometry": {"type": "Point", "coordinates": [6.108779, 48.801156]}}, {"type": "Feature", "properties": {"stop_name": "Dieulouard", "type": "Gare accessible", "icone": "Icon1"}, "geometry": {"type": "Point", "coordinates": [6.071505, 48.843826]}}, {"type": "Feature", "properties": {"stop_name": "Pagny-sur-Moselle", "type": "Gare accessible", "icone": "Icon1"}, "geometry": {"type": "Point", "coordinates": [6.025035, 48.9852]}}, {"type": "Feature", "properties": {"stop_name": "Nov\u00e9ant-sur-Moselle", "type": "Gare accessible", "icone": "Icon1"}, "geometry": {"type": "Point", "coordinates": [6.052051, 49.028717]}}, {"type": "Feature", "properties": {"stop_name": "Ancy-sur-Moselle", "type": "Gare accessible", "icone": "Icon1"}, "geometry": {"type": "Point", "coordinates": [6.062342, 49.057714000000004]}}, {"type": "Feature", "properties": {"stop_name": "Ars-sur-Moselle", "type": "Gare accessible", "icone": "Icon1"}, "geometry": {"type": "Point", "coordinates": [6.077646, 49.074475]}}, {"type": "Feature", "properties": {"stop_name": "Metz", "type": "Gare accessible", "icone": "Icon1"}, "geometry": {"type": "Point", "coordinates": [6.177052, 49.109466]}}, {"type": "Feature", "properties": {"stop_name": "Chenevi\u00e8res", "type": "Gare accessible", "icone": "Icon1"}, "geometry": {"type": "Point", "coordinates": [6.63247, 48.519403999999994]}}, {"type": "Feature", "properties": {"stop_name": "Bertrichamps", "type": "Gare accessible", "icone": "Icon1"}, "geometry": {"type": "Point", "coordinates": [6.791125, 48.428401]}}, {"type": "Feature", "properties": {"stop_name": "Saint-Michel-sur-Meurthe", "type": "Gare accessible", "icone": "Icon1"}, "geometry": {"type": "Point", "coordinates": [6.888278, 48.326984]}}, {"type": "Feature", "properties": {"stop_name": "Thiaville", "type": "Gare accessible", "icone": "Icon1"}, "geometry": {"type": "Point", "coordinates": [6.810241, 48.413914]}}, {"type": "Feature", "properties": {"stop_name": "M\u00e9nil - Flin", "type": "Gare accessible", "icone": "Icon1"}, "geometry": {"type": "Point", "coordinates": [6.659217, 48.505022]}}, {"type": "Feature", "properties": {"stop_name": "Strasbourg", "type": "Gare accessible", "icone": "Icon1"}, "geometry": {"type": "Point", "coordinates": [7.734793, 48.584532]}}, {"type": "Feature", "properties": {"stop_name": "Brumath", "type": "Gare accessible", "icone": "Icon1"}, "geometry": {"type": "Point", "coordinates": [7.700421, 48.733077]}}, {"type": "Feature", "properties": {"stop_name": "Saverne", "type": "Gare accessible", "icone": "Icon1"}, "geometry": {"type": "Point", "coordinates": [7.362055, 48.744483]}}, {"type": "Feature", "properties": {"stop_name": "Sarrebourg", "type": "Gare accessible", "icone": "Icon1"}, "geometry": {"type": "Point", "coordinates": [7.05285, 48.73808]}}, {"type": "Feature", "properties": {"stop_name": "Igney - Avricourt", "type": "Gare accessible", "icone": "Icon1"}, "geometry": {"type": "Point", "coordinates": [6.805306, 48.646701]}}, {"type": "Feature", "properties": {"stop_name": "R\u00e9ding", "type": "Gare accessible", "icone": "Icon1"}, "geometry": {"type": "Point", "coordinates": [7.095885, 48.742959]}}, {"type": "Feature", "properties": {"stop_name": "Lutzelbourg", "type": "Gare accessible", "icone": "Icon1"}, "geometry": {"type": "Point", "coordinates": [7.251587, 48.730011]}}, {"type": "Feature", "properties": {"stop_name": "Houdemont", "type": "Gare accessible", "icone": "Icon1"}, "geometry": {"type": "Point", "coordinates": [6.179726, 48.645525]}}, {"type": "Feature", "properties": {"stop_name": "Ludres", "type": "Gare accessible", "icone": "Icon1"}, "geometry": {"type": "Point", "coordinates": [6.170647, 48.62188]}}, {"type": "Feature", "properties": {"stop_name": "Messein", "type": "Gare accessible", "icone": "Icon1"}, "geometry": {"type": "Point", "coordinates": [6.137836, 48.612879]}}, {"type": "Feature", "properties": {"stop_name": "Neuves-Maisons", "type": "Gare accessible", "icone": "Icon1"}, "geometry": {"type": "Point", "coordinates": [6.107932, 48.614832]}}, {"type": "Feature", "properties": {"stop_name": "Pont-Saint-Vincent", "type": "Gare accessible", "icone": "Icon1"}, "geometry": {"type": "Point", "coordinates": [6.10224, 48.602973999999996]}}, {"type": "Feature", "properties": {"stop_name": "Culmont - Chalindrey", "type": "Gare accessible", "icone": "Icon1"}, "geometry": {"type": "Point", "coordinates": [5.443219, 47.810202000000004]}}, {"type": "Feature", "properties": {"stop_name": "Is-sur-Tille", "type": "Gare accessible", "icone": "Icon1"}, "geometry": {"type": "Point", "coordinates": [5.129481, 47.520454]}}, {"type": "Feature", "properties": {"stop_name": "Belleville", "type": "Gare accessible", "icone": "Icon1"}, "geometry": {"type": "Point", "coordinates": [6.101779, 48.819245]}}, {"type": "Feature", "properties": {"stop_name": "Vandi\u00e8res", "type": "Gare accessible", "icone": "Icon1"}, "geometry": {"type": "Point", "coordinates": [6.037921, 48.951493]}}, {"type": "Feature", "properties": {"stop_name": "Thionville", "type": "Gare accessible", "icone": "Icon1"}, "geometry": {"type": "Point", "coordinates": [6.168582, 49.353965]}}, {"type": "Feature", "properties": {"stop_name": "Uckange", "type": "Gare accessible", "icone": "Icon1"}, "geometry": {"type": "Point", "coordinates": [6.1566, 49.303459000000004]}}, {"type": "Feature", "properties": {"stop_name": "Hagondange", "type": "Gare accessible", "icone": "Icon1"}, "geometry": {"type": "Point", "coordinates": [6.16448, 49.25356]}}, {"type": "Feature", "properties": {"stop_name": "Paris Est", "type": "Gare accessible", "icone": "Icon1"}, "geometry": {"type": "Point", "coordinates": [2.358424, 48.876742]}}, {"type": "Feature", "properties": {"stop_name": "Ch\u00e2teau-Thierry", "type": "Gare accessible", "icone": "Icon1"}, "geometry": {"type": "Point", "coordinates": [3.409302, 49.038140000000006]}}, {"type": "Feature", "properties": {"stop_name": "Dormans", "type": "Gare accessible", "icone": "Icon1"}, "geometry": {"type": "Point", "coordinates": [3.641835, 49.07908]}}, {"type": "Feature", "properties": {"stop_name": "Howald", "type": "Gare accessible", "icone": "Icon1"}, "geometry": {"type": "Point", "coordinates": [6.13232, 49.58032]}}, {"type": "Feature", "properties": {"stop_name": "Luxembourg", "type": "Gare accessible", "icone": "Icon1"}, "geometry": {"type": "Point", "coordinates": [6.134722, 49.599722]}}, {"type": "Feature", "properties": {"stop_name": "Bettembourg", "type": "Gare accessible", "icone": "Icon1"}, "geometry": {"type": "Point", "coordinates": [6.101111, 49.516110999999995]}}, {"type": "Feature", "properties": {"stop_name": "Hettange-Grande", "type": "Gare accessible", "icone": "Icon1"}, "geometry": {"type": "Point", "coordinates": [6.156759, 49.407685]}}, {"type": "Feature", "properties": {"stop_name": "Maizi\u00e8res-l\u00e8s-Metz", "type": "Gare accessible", "icone": "Icon1"}, "geometry": {"type": "Point", "coordinates": [6.158727, 49.215536]}}, {"type": "Feature", "properties": {"stop_name": "Woippy", "type": "Gare accessible", "icone": "Icon1"}, "geometry": {"type": "Point", "coordinates": [6.155621, 49.148796999999995]}}, {"type": "Feature", "properties": {"stop_name": "Metz Nord", "type": "Gare accessible", "icone": "Icon1"}, "geometry": {"type": "Point", "coordinates": [6.167538, 49.136865]}}]}