{"type": "FeatureCollection", "features": [{"type": "Feature", "properties": {"stop_name": "Nantes", "type": "Gare s\u00e9lectionn\u00e9e", "icone": "Icon2"}, "geometry": {"type": "Point", "coordinates": [-1.5420770000000001, 47.217490999999995]}}, {"type": "Feature", "properties": {"stop_name": "Rennes", "type": "Gare accessible", "icone": "Icon1"}, "geometry": {"type": "Point", "coordinates": [-1.6727439999999998, 48.103517]}}, {"type": "Feature", "properties": {"stop_name": "Clisson", "type": "Gare accessible", "icone": "Icon1"}, "geometry": {"type": "Point", "coordinates": [-1.286292, 47.086015]}}, {"type": "Feature", "properties": {"stop_name": "Montaigu", "type": "Gare accessible", "icone": "Icon1"}, "geometry": {"type": "Point", "coordinates": [-1.3161889999999998, 46.98372]}}, {"type": "Feature", "properties": {"stop_name": "L'Herbergement - Les Brouzils", "type": "Gare accessible", "icone": "Icon1"}, "geometry": {"type": "Point", "coordinates": [-1.3712790000000001, 46.906946000000005]}}, {"type": "Feature", "properties": {"stop_name": "Belleville-Vend\u00e9e", "type": "Gare accessible", "icone": "Icon1"}, "geometry": {"type": "Point", "coordinates": [-1.434512, 46.788329]}}, {"type": "Feature", "properties": {"stop_name": "La Roche-sur-Yon", "type": "Gare accessible", "icone": "Icon1"}, "geometry": {"type": "Point", "coordinates": [-1.43566, 46.672075]}}, {"type": "Feature", "properties": {"stop_name": "Ancenis", "type": "Gare accessible", "icone": "Icon1"}, "geometry": {"type": "Point", "coordinates": [-1.177763, 47.369334]}}, {"type": "Feature", "properties": {"stop_name": "Angers Saint-Laud", "type": "Gare accessible", "icone": "Icon1"}, "geometry": {"type": "Point", "coordinates": [-0.55677, 47.464649]}}, {"type": "Feature", "properties": {"stop_name": "La Possonni\u00e8re", "type": "Gare accessible", "icone": "Icon1"}, "geometry": {"type": "Point", "coordinates": [-0.691742, 47.37149]}}, {"type": "Feature", "properties": {"stop_name": "Champtoc\u00e9-sur-Loire", "type": "Gare accessible", "icone": "Icon1"}, "geometry": {"type": "Point", "coordinates": [-0.868674, 47.410314]}}, {"type": "Feature", "properties": {"stop_name": "Ingrandes", "type": "Gare accessible", "icone": "Icon1"}, "geometry": {"type": "Point", "coordinates": [-0.920832, 47.405929]}}, {"type": "Feature", "properties": {"stop_name": "Varades - Saint-Florent-le-Vieil", "type": "Gare accessible", "icone": "Icon1"}, "geometry": {"type": "Point", "coordinates": [-1.0198200000000002, 47.374561]}}, {"type": "Feature", "properties": {"stop_name": "Oudon", "type": "Gare accessible", "icone": "Icon1"}, "geometry": {"type": "Point", "coordinates": [-1.292009, 47.343367]}}, {"type": "Feature", "properties": {"stop_name": "Le Cellier", "type": "Gare accessible", "icone": "Icon1"}, "geometry": {"type": "Point", "coordinates": [-1.35079, 47.313419]}}, {"type": "Feature", "properties": {"stop_name": "Mauves-sur-Loire", "type": "Gare accessible", "icone": "Icon1"}, "geometry": {"type": "Point", "coordinates": [-1.3893010000000001, 47.293026]}}, {"type": "Feature", "properties": {"stop_name": "Thouar\u00e9", "type": "Gare accessible", "icone": "Icon1"}, "geometry": {"type": "Point", "coordinates": [-1.440883, 47.26513]}}, {"type": "Feature", "properties": {"stop_name": "Le Croisic", "type": "Gare accessible", "icone": "Icon1"}, "geometry": {"type": "Point", "coordinates": [-2.50734, 47.289889]}}, {"type": "Feature", "properties": {"stop_name": "Batz-sur-Mer", "type": "Gare accessible", "icone": "Icon1"}, "geometry": {"type": "Point", "coordinates": [-2.478869, 47.280854999999995]}}, {"type": "Feature", "properties": {"stop_name": "Le Pouliguen", "type": "Gare accessible", "icone": "Icon1"}, "geometry": {"type": "Point", "coordinates": [-2.4331259999999997, 47.282503999999996]}}, {"type": "Feature", "properties": {"stop_name": "La Baule-Escoublac", "type": "Gare accessible", "icone": "Icon1"}, "geometry": {"type": "Point", "coordinates": [-2.38921, 47.288459]}}, {"type": "Feature", "properties": {"stop_name": "La Baule les Pins", "type": "Gare accessible", "icone": "Icon1"}, "geometry": {"type": "Point", "coordinates": [-2.3648849999999997, 47.28345]}}, {"type": "Feature", "properties": {"stop_name": "Pornichet", "type": "Gare accessible", "icone": "Icon1"}, "geometry": {"type": "Point", "coordinates": [-2.344865, 47.27043]}}, {"type": "Feature", "properties": {"stop_name": "Saint-Nazaire", "type": "Gare accessible", "icone": "Icon1"}, "geometry": {"type": "Point", "coordinates": [-2.2110790000000002, 47.286489]}}, {"type": "Feature", "properties": {"stop_name": "Savenay", "type": "Gare accessible", "icone": "Icon1"}, "geometry": {"type": "Point", "coordinates": [-1.951007, 47.358602000000005]}}, {"type": "Feature", "properties": {"stop_name": "Cou\u00ebron", "type": "Gare accessible", "icone": "Icon1"}, "geometry": {"type": "Point", "coordinates": [-1.7236049999999998, 47.221916]}}, {"type": "Feature", "properties": {"stop_name": "Saint-\u00c9tienne-de-Montluc", "type": "Gare accessible", "icone": "Icon1"}, "geometry": {"type": "Point", "coordinates": [-1.785654, 47.274784999999994]}}, {"type": "Feature", "properties": {"stop_name": "Le Mans", "type": "Gare accessible", "icone": "Icon1"}, "geometry": {"type": "Point", "coordinates": [0.192614, 47.995615]}}, {"type": "Feature", "properties": {"stop_name": "Sabl\u00e9-sur-Sarthe", "type": "Gare accessible", "icone": "Icon1"}, "geometry": {"type": "Point", "coordinates": [-0.342, 47.841759]}}, {"type": "Feature", "properties": {"stop_name": "La Suze", "type": "Gare accessible", "icone": "Icon1"}, "geometry": {"type": "Point", "coordinates": [0.026567, 47.892235]}}, {"type": "Feature", "properties": {"stop_name": "Morannes", "type": "Gare accessible", "icone": "Icon1"}, "geometry": {"type": "Point", "coordinates": [-0.41815, 47.739003000000004]}}, {"type": "Feature", "properties": {"stop_name": "\u00c9trich\u00e9 - Ch\u00e2teauneuf", "type": "Gare accessible", "icone": "Icon1"}, "geometry": {"type": "Point", "coordinates": [-0.46086800000000006, 47.656732]}}, {"type": "Feature", "properties": {"stop_name": "Tierc\u00e9", "type": "Gare accessible", "icone": "Icon1"}, "geometry": {"type": "Point", "coordinates": [-0.469408, 47.617528]}}, {"type": "Feature", "properties": {"stop_name": "Le Vieux Briollay", "type": "Gare accessible", "icone": "Icon1"}, "geometry": {"type": "Point", "coordinates": [-0.48300699999999996, 47.573687]}}, {"type": "Feature", "properties": {"stop_name": "Angers Ma\u00eetre \u00c9cole", "type": "Gare accessible", "icone": "Icon1"}, "geometry": {"type": "Point", "coordinates": [-0.5324369999999999, 47.466953000000004]}}, {"type": "Feature", "properties": {"stop_name": "Donges", "type": "Gare accessible", "icone": "Icon1"}, "geometry": {"type": "Point", "coordinates": [-2.071792, 47.308656]}}, {"type": "Feature", "properties": {"stop_name": "Savenni\u00e8res - B\u00e9huard", "type": "Gare accessible", "icone": "Icon1"}, "geometry": {"type": "Point", "coordinates": [-0.655122, 47.381329]}}, {"type": "Feature", "properties": {"stop_name": "Laval", "type": "Gare accessible", "icone": "Icon1"}, "geometry": {"type": "Point", "coordinates": [-0.760929, 48.076254999999996]}}, {"type": "Feature", "properties": {"stop_name": "Vitr\u00e9", "type": "Gare accessible", "icone": "Icon1"}, "geometry": {"type": "Point", "coordinates": [-1.211754, 48.122671000000004]}}, {"type": "Feature", "properties": {"stop_name": "Montoir-de-Bretagne", "type": "Gare accessible", "icone": "Icon1"}, "geometry": {"type": "Point", "coordinates": [-2.161705, 47.321014]}}, {"type": "Feature", "properties": {"stop_name": "La Croix de M\u00e9an", "type": "Gare accessible", "icone": "Icon1"}, "geometry": {"type": "Point", "coordinates": [-2.192942, 47.300604]}}, {"type": "Feature", "properties": {"stop_name": "Penho\u00ebt", "type": "Gare accessible", "icone": "Icon1"}, "geometry": {"type": "Point", "coordinates": [-2.200876, 47.28992]}}, {"type": "Feature", "properties": {"stop_name": "Cordemais", "type": "Gare accessible", "icone": "Icon1"}, "geometry": {"type": "Point", "coordinates": [-1.8466369999999999, 47.302201000000004]}}, {"type": "Feature", "properties": {"stop_name": "La Basse Indre - Saint-Herblain", "type": "Gare accessible", "icone": "Icon1"}, "geometry": {"type": "Point", "coordinates": [-1.6605310000000002, 47.204116]}}, {"type": "Feature", "properties": {"stop_name": "Chantenay", "type": "Gare accessible", "icone": "Icon1"}, "geometry": {"type": "Point", "coordinates": [-1.5943319999999999, 47.1972]}}, {"type": "Feature", "properties": {"stop_name": "Redon", "type": "Gare accessible", "icone": "Icon1"}, "geometry": {"type": "Point", "coordinates": [-2.08777, 47.652004]}}, {"type": "Feature", "properties": {"stop_name": "S\u00e9v\u00e9rac", "type": "Gare accessible", "icone": "Icon1"}, "geometry": {"type": "Point", "coordinates": [-2.0727279999999997, 47.549808]}}, {"type": "Feature", "properties": {"stop_name": "Saint-Gildas-des-bois", "type": "Gare accessible", "icone": "Icon1"}, "geometry": {"type": "Point", "coordinates": [-2.04394, 47.516647999999996]}}, {"type": "Feature", "properties": {"stop_name": "Dreff\u00e9ac", "type": "Gare accessible", "icone": "Icon1"}, "geometry": {"type": "Point", "coordinates": [-2.0501549999999997, 47.48236]}}, {"type": "Feature", "properties": {"stop_name": "Pontch\u00e2teau", "type": "Gare accessible", "icone": "Icon1"}, "geometry": {"type": "Point", "coordinates": [-2.088526, 47.435334000000005]}}, {"type": "Feature", "properties": {"stop_name": "Quimper", "type": "Gare accessible", "icone": "Icon1"}, "geometry": {"type": "Point", "coordinates": [-4.092103, 47.994455]}}, {"type": "Feature", "properties": {"stop_name": "Rosporden", "type": "Gare accessible", "icone": "Icon1"}, "geometry": {"type": "Point", "coordinates": [-3.832702, 47.960224]}}, {"type": "Feature", "properties": {"stop_name": "Quimperl\u00e9", "type": "Gare accessible", "icone": "Icon1"}, "geometry": {"type": "Point", "coordinates": [-3.552693, 47.869375]}}, {"type": "Feature", "properties": {"stop_name": "Lorient", "type": "Gare accessible", "icone": "Icon1"}, "geometry": {"type": "Point", "coordinates": [-3.366221, 47.755596999999995]}}, {"type": "Feature", "properties": {"stop_name": "Hennebont", "type": "Gare accessible", "icone": "Icon1"}, "geometry": {"type": "Point", "coordinates": [-3.285796, 47.79913]}}, {"type": "Feature", "properties": {"stop_name": "Auray", "type": "Gare accessible", "icone": "Icon1"}, "geometry": {"type": "Point", "coordinates": [-2.9993630000000002, 47.680085]}}, {"type": "Feature", "properties": {"stop_name": "Vannes", "type": "Gare accessible", "icone": "Icon1"}, "geometry": {"type": "Point", "coordinates": [-2.75245, 47.665169]}}, {"type": "Feature", "properties": {"stop_name": "Questembert", "type": "Gare accessible", "icone": "Icon1"}, "geometry": {"type": "Point", "coordinates": [-2.449621, 47.683021000000004]}}, {"type": "Feature", "properties": {"stop_name": "Brest", "type": "Gare accessible", "icone": "Icon1"}, "geometry": {"type": "Point", "coordinates": [-4.480306, 48.38762]}}, {"type": "Feature", "properties": {"stop_name": "Saumur", "type": "Gare accessible", "icone": "Icon1"}, "geometry": {"type": "Point", "coordinates": [-0.071403, 47.268994]}}, {"type": "Feature", "properties": {"stop_name": "Les Rosiers-sur-Loire", "type": "Gare accessible", "icone": "Icon1"}, "geometry": {"type": "Point", "coordinates": [-0.219373, 47.361859]}}, {"type": "Feature", "properties": {"stop_name": "La M\u00e9nitr\u00e9", "type": "Gare accessible", "icone": "Icon1"}, "geometry": {"type": "Point", "coordinates": [-0.275838, 47.397383000000005]}}, {"type": "Feature", "properties": {"stop_name": "Saint-Mathurin", "type": "Gare accessible", "icone": "Icon1"}, "geometry": {"type": "Point", "coordinates": [-0.31809899999999997, 47.412073]}}, {"type": "Feature", "properties": {"stop_name": "La Bohalle", "type": "Gare accessible", "icone": "Icon1"}, "geometry": {"type": "Point", "coordinates": [-0.400124, 47.434228999999995]}}, {"type": "Feature", "properties": {"stop_name": "Tr\u00e9laz\u00e9", "type": "Gare accessible", "icone": "Icon1"}, "geometry": {"type": "Point", "coordinates": [-0.469666, 47.452845]}}, {"type": "Feature", "properties": {"stop_name": "Les Sables-d'Olonne", "type": "Gare accessible", "icone": "Icon1"}, "geometry": {"type": "Point", "coordinates": [-1.781116, 46.500032]}}, {"type": "Feature", "properties": {"stop_name": "La Mothe-Achard", "type": "Gare accessible", "icone": "Icon1"}, "geometry": {"type": "Point", "coordinates": [-1.659513, 46.606971]}}, {"type": "Feature", "properties": {"stop_name": "Olonne-sur-Mer", "type": "Gare accessible", "icone": "Icon1"}, "geometry": {"type": "Point", "coordinates": [-1.7673020000000002, 46.548653]}}, {"type": "Feature", "properties": {"stop_name": "Saint-Gilles-Croix-de-Vie", "type": "Gare accessible", "icone": "Icon1"}, "geometry": {"type": "Point", "coordinates": [-1.941252, 46.696346999999996]}}, {"type": "Feature", "properties": {"stop_name": "Saint-Hilaire-de-Riez", "type": "Gare accessible", "icone": "Icon1"}, "geometry": {"type": "Point", "coordinates": [-1.949617, 46.716629]}}, {"type": "Feature", "properties": {"stop_name": "Challans", "type": "Gare accessible", "icone": "Icon1"}, "geometry": {"type": "Point", "coordinates": [-1.8718139999999999, 46.844148]}}, {"type": "Feature", "properties": {"stop_name": "Machecoul", "type": "Gare accessible", "icone": "Icon1"}, "geometry": {"type": "Point", "coordinates": [-1.8226470000000001, 46.990587]}}, {"type": "Feature", "properties": {"stop_name": "Sainte-Pazanne", "type": "Gare accessible", "icone": "Icon1"}, "geometry": {"type": "Point", "coordinates": [-1.8136830000000002, 47.105385999999996]}}, {"type": "Feature", "properties": {"stop_name": "Port-Saint-P\u00e8re - Saint-Mars", "type": "Gare accessible", "icone": "Icon1"}, "geometry": {"type": "Point", "coordinates": [-1.739477, 47.116531]}}, {"type": "Feature", "properties": {"stop_name": "Bouaye", "type": "Gare accessible", "icone": "Icon1"}, "geometry": {"type": "Point", "coordinates": [-1.681069, 47.138154]}}, {"type": "Feature", "properties": {"stop_name": "Rez\u00e9 Pont-Rousseau", "type": "Gare accessible", "icone": "Icon1"}, "geometry": {"type": "Point", "coordinates": [-1.5493940000000002, 47.193276000000004]}}, {"type": "Feature", "properties": {"stop_name": "Pornic", "type": "Gare accessible", "icone": "Icon1"}, "geometry": {"type": "Point", "coordinates": [-2.098025, 47.11441]}}, {"type": "Feature", "properties": {"stop_name": "La Bernerie-en-Retz", "type": "Gare accessible", "icone": "Icon1"}, "geometry": {"type": "Point", "coordinates": [-2.03377, 47.083162]}}, {"type": "Feature", "properties": {"stop_name": "Les Moutiers-en-Retz", "type": "Gare accessible", "icone": "Icon1"}, "geometry": {"type": "Point", "coordinates": [-2.001132, 47.061902]}}, {"type": "Feature", "properties": {"stop_name": "Bourgneuf-en-Retz", "type": "Gare accessible", "icone": "Icon1"}, "geometry": {"type": "Point", "coordinates": [-1.955226, 47.046898999999996]}}, {"type": "Feature", "properties": {"stop_name": "Saint-Hilaire-de-Chal\u00e9ons", "type": "Gare accessible", "icone": "Icon1"}, "geometry": {"type": "Point", "coordinates": [-1.8650229999999999, 47.105743]}}, {"type": "Feature", "properties": {"stop_name": "Cholet", "type": "Gare accessible", "icone": "Icon1"}, "geometry": {"type": "Point", "coordinates": [-0.8698969999999999, 47.065702]}}, {"type": "Feature", "properties": {"stop_name": "Torfou", "type": "Gare accessible", "icone": "Icon1"}, "geometry": {"type": "Point", "coordinates": [-1.117492, 47.033190000000005]}}, {"type": "Feature", "properties": {"stop_name": "Boussay - La Bruffi\u00e8re", "type": "Gare accessible", "icone": "Icon1"}, "geometry": {"type": "Point", "coordinates": [-1.182615, 47.050453000000005]}}, {"type": "Feature", "properties": {"stop_name": "Cugand", "type": "Gare accessible", "icone": "Icon1"}, "geometry": {"type": "Point", "coordinates": [-1.2533100000000001, 47.058370000000004]}}, {"type": "Feature", "properties": {"stop_name": "Saint-S\u00e9bastien Pas Enchant\u00e9s", "type": "Gare accessible", "icone": "Icon1"}, "geometry": {"type": "Point", "coordinates": [-1.510821, 47.206934999999994]}}, {"type": "Feature", "properties": {"stop_name": "Saint-S\u00e9bastien Fr\u00eane Rond", "type": "Gare accessible", "icone": "Icon1"}, "geometry": {"type": "Point", "coordinates": [-1.496026, 47.190548]}}, {"type": "Feature", "properties": {"stop_name": "Vertou", "type": "Gare accessible", "icone": "Icon1"}, "geometry": {"type": "Point", "coordinates": [-1.477956, 47.186149]}}, {"type": "Feature", "properties": {"stop_name": "La Haie-Fouassi\u00e8re", "type": "Gare accessible", "icone": "Icon1"}, "geometry": {"type": "Point", "coordinates": [-1.392174, 47.161615999999995]}}, {"type": "Feature", "properties": {"stop_name": "Le Pallet", "type": "Gare accessible", "icone": "Icon1"}, "geometry": {"type": "Point", "coordinates": [-1.3468200000000001, 47.143823]}}, {"type": "Feature", "properties": {"stop_name": "Gorges", "type": "Gare accessible", "icone": "Icon1"}, "geometry": {"type": "Point", "coordinates": [-1.305914, 47.100190999999995]}}, {"type": "Feature", "properties": {"stop_name": "La Rochelle", "type": "Gare accessible", "icone": "Icon1"}, "geometry": {"type": "Point", "coordinates": [-1.145853, 46.152705]}}, {"type": "Feature", "properties": {"stop_name": "Lu\u00e7on", "type": "Gare accessible", "icone": "Icon1"}, "geometry": {"type": "Point", "coordinates": [-1.1674209999999998, 46.463627]}}, {"type": "Feature", "properties": {"stop_name": "Orl\u00e9ans", "type": "Gare accessible", "icone": "Icon1"}, "geometry": {"type": "Point", "coordinates": [1.904242, 47.907891]}}, {"type": "Feature", "properties": {"stop_name": "Beaugency", "type": "Gare accessible", "icone": "Icon1"}, "geometry": {"type": "Point", "coordinates": [1.625944, 47.778403999999995]}}, {"type": "Feature", "properties": {"stop_name": "Blois - Chambord", "type": "Gare accessible", "icone": "Icon1"}, "geometry": {"type": "Point", "coordinates": [1.323759, 47.585449]}}, {"type": "Feature", "properties": {"stop_name": "Saint-Pierre-des-Corps", "type": "Gare accessible", "icone": "Icon1"}, "geometry": {"type": "Point", "coordinates": [0.723539, 47.386140000000005]}}, {"type": "Feature", "properties": {"stop_name": "Tours", "type": "Gare accessible", "icone": "Icon1"}, "geometry": {"type": "Point", "coordinates": [0.692831, 47.389866]}}, {"type": "Feature", "properties": {"stop_name": "Amboise", "type": "Gare accessible", "icone": "Icon1"}, "geometry": {"type": "Point", "coordinates": [0.981267, 47.421469]}}, {"type": "Feature", "properties": {"stop_name": "Mer", "type": "Gare accessible", "icone": "Icon1"}, "geometry": {"type": "Point", "coordinates": [1.506363, 47.705894]}}, {"type": "Feature", "properties": {"stop_name": "Meung-sur-Loire", "type": "Gare accessible", "icone": "Icon1"}, "geometry": {"type": "Point", "coordinates": [1.691921, 47.829954]}}, {"type": "Feature", "properties": {"stop_name": "Cinq-Mars-la-Pile", "type": "Gare accessible", "icone": "Icon1"}, "geometry": {"type": "Point", "coordinates": [0.459387, 47.345112]}}, {"type": "Feature", "properties": {"stop_name": "Langeais", "type": "Gare accessible", "icone": "Icon1"}, "geometry": {"type": "Point", "coordinates": [0.410104, 47.324058]}}, {"type": "Feature", "properties": {"stop_name": "Port Boulet", "type": "Gare accessible", "icone": "Icon1"}, "geometry": {"type": "Point", "coordinates": [0.155648, 47.248836]}}]}