{"type": "FeatureCollection", "features": [{"type": "Feature", "properties": {"start": "Nantes", "stop_name": "Nantes", "type": "Gare s\u00e9lectionn\u00e9e", "iconstarte": "Icon2"}, "geometry": {"type": "Point", "coordinates": [-1.542077, 47.217491]}}, {"type": "Feature", "properties": {"start": "Nantes", "stop_name": "Le Mans", "type": "Gare accessible", "icone": "TER"}, "geometry": {"type": "Point", "coordinates": [0.192614, 47.995615]}}, {"type": "Feature", "properties": {"start": "Nantes", "stop_name": "Sabl\u00e9-sur-Sarthe", "type": "Gare accessible", "icone": "TER"}, "geometry": {"type": "Point", "coordinates": [-0.342, 47.841759]}}, {"type": "Feature", "properties": {"start": "Nantes", "stop_name": "Angers Saint-Laud", "type": "Gare accessible", "icone": "TER"}, "geometry": {"type": "Point", "coordinates": [-0.55677, 47.464649]}}, {"type": "Feature", "properties": {"start": "Nantes", "stop_name": "Ancenis", "type": "Gare accessible", "icone": "TER"}, "geometry": {"type": "Point", "coordinates": [-1.177763, 47.369334]}}, {"type": "Feature", "properties": {"start": "Nantes", "stop_name": "La Suze", "type": "Gare accessible", "icone": "TER"}, "geometry": {"type": "Point", "coordinates": [0.026567, 47.892235]}}, {"type": "Feature", "properties": {"start": "Nantes", "stop_name": "Morannes", "type": "Gare accessible", "icone": "TER"}, "geometry": {"type": "Point", "coordinates": [-0.41815, 47.739003]}}, {"type": "Feature", "properties": {"start": "Nantes", "stop_name": "\u00c9trich\u00e9 - Ch\u00e2teauneuf", "type": "Gare accessible", "icone": "TER"}, "geometry": {"type": "Point", "coordinates": [-0.460868, 47.656732]}}, {"type": "Feature", "properties": {"start": "Nantes", "stop_name": "Tierc\u00e9", "type": "Gare accessible", "icone": "TER"}, "geometry": {"type": "Point", "coordinates": [-0.469408, 47.617528]}}, {"type": "Feature", "properties": {"start": "Nantes", "stop_name": "Savenay", "type": "Gare accessible", "icone": "TER"}, "geometry": {"type": "Point", "coordinates": [-1.951007, 47.358602]}}, {"type": "Feature", "properties": {"start": "Nantes", "stop_name": "Saint-Nazaire", "type": "Gare accessible", "icone": "TER"}, "geometry": {"type": "Point", "coordinates": [-2.211079, 47.286489]}}, {"type": "Feature", "properties": {"start": "Nantes", "stop_name": "Pornichet", "type": "Gare accessible", "icone": "TER"}, "geometry": {"type": "Point", "coordinates": [-2.344865, 47.27043]}}, {"type": "Feature", "properties": {"start": "Nantes", "stop_name": "La Baule les Pins", "type": "Gare accessible", "icone": "TER"}, "geometry": {"type": "Point", "coordinates": [-2.364885, 47.28345]}}, {"type": "Feature", "properties": {"start": "Nantes", "stop_name": "La Baule-Escoublac", "type": "Gare accessible", "icone": "TER"}, "geometry": {"type": "Point", "coordinates": [-2.38921, 47.288459]}}, {"type": "Feature", "properties": {"start": "Nantes", "stop_name": "Le Pouliguen", "type": "Gare accessible", "icone": "TER"}, "geometry": {"type": "Point", "coordinates": [-2.433126, 47.282504]}}, {"type": "Feature", "properties": {"start": "Nantes", "stop_name": "Batz-sur-Mer", "type": "Gare accessible", "icone": "TER"}, "geometry": {"type": "Point", "coordinates": [-2.478869, 47.280855]}}, {"type": "Feature", "properties": {"start": "Nantes", "stop_name": "Le Croisic", "type": "Gare accessible", "icone": "TER"}, "geometry": {"type": "Point", "coordinates": [-2.50734, 47.289889]}}, {"type": "Feature", "properties": {"start": "Nantes", "stop_name": "Le Vieux Briollay", "type": "Gare accessible", "icone": "TER"}, "geometry": {"type": "Point", "coordinates": [-0.483007, 47.573687]}}, {"type": "Feature", "properties": {"start": "Nantes", "stop_name": "Angers Ma\u00eetre \u00c9cole", "type": "Gare accessible", "icone": "TER"}, "geometry": {"type": "Point", "coordinates": [-0.532437, 47.466953]}}, {"type": "Feature", "properties": {"start": "Nantes", "stop_name": "Donges", "type": "Gare accessible", "icone": "TER"}, "geometry": {"type": "Point", "coordinates": [-2.071792, 47.308656]}}, {"type": "Feature", "properties": {"start": "Nantes", "stop_name": "La Possonni\u00e8re", "type": "Gare accessible", "icone": "TER"}, "geometry": {"type": "Point", "coordinates": [-0.691742, 47.37149]}}, {"type": "Feature", "properties": {"start": "Nantes", "stop_name": "Champtoc\u00e9-sur-Loire", "type": "Gare accessible", "icone": "TER"}, "geometry": {"type": "Point", "coordinates": [-0.868674, 47.410314]}}, {"type": "Feature", "properties": {"start": "Nantes", "stop_name": "Ingrandes", "type": "Gare accessible", "icone": "TER"}, "geometry": {"type": "Point", "coordinates": [-0.920832, 47.405929]}}, {"type": "Feature", "properties": {"start": "Nantes", "stop_name": "Varades - Saint-Florent-le-Vieil", "type": "Gare accessible", "icone": "TER"}, "geometry": {"type": "Point", "coordinates": [-1.01982, 47.374561]}}, {"type": "Feature", "properties": {"start": "Nantes", "stop_name": "Thouar\u00e9", "type": "Gare accessible", "icone": "TER"}, "geometry": {"type": "Point", "coordinates": [-1.440883, 47.26513]}}, {"type": "Feature", "properties": {"start": "Nantes", "stop_name": "Mauves-sur-Loire", "type": "Gare accessible", "icone": "TER"}, "geometry": {"type": "Point", "coordinates": [-1.389301, 47.293026]}}, {"type": "Feature", "properties": {"start": "Nantes", "stop_name": "Le Cellier", "type": "Gare accessible", "icone": "TER"}, "geometry": {"type": "Point", "coordinates": [-1.35079, 47.313419]}}, {"type": "Feature", "properties": {"start": "Nantes", "stop_name": "Oudon", "type": "Gare accessible", "icone": "TER"}, "geometry": {"type": "Point", "coordinates": [-1.292009, 47.343367]}}, {"type": "Feature", "properties": {"start": "Nantes", "stop_name": "Savenni\u00e8res - B\u00e9huard", "type": "Gare accessible", "icone": "TER"}, "geometry": {"type": "Point", "coordinates": [-0.655122, 47.381329]}}, {"type": "Feature", "properties": {"start": "Nantes", "stop_name": "Laval", "type": "Gare accessible", "icone": "TER"}, "geometry": {"type": "Point", "coordinates": [-0.760929, 48.076255]}}, {"type": "Feature", "properties": {"start": "Nantes", "stop_name": "Vitr\u00e9", "type": "Gare accessible", "icone": "TER"}, "geometry": {"type": "Point", "coordinates": [-1.211754, 48.122671]}}, {"type": "Feature", "properties": {"start": "Nantes", "stop_name": "Rennes", "type": "Gare accessible", "icone": "TER"}, "geometry": {"type": "Point", "coordinates": [-1.672744, 48.103517]}}, {"type": "Feature", "properties": {"start": "Nantes", "stop_name": "Saint-\u00c9tienne-de-Montluc", "type": "Gare accessible", "icone": "TER"}, "geometry": {"type": "Point", "coordinates": [-1.785654, 47.274785]}}, {"type": "Feature", "properties": {"start": "Nantes", "stop_name": "Montoir-de-Bretagne", "type": "Gare accessible", "icone": "TER"}, "geometry": {"type": "Point", "coordinates": [-2.161705, 47.321014]}}, {"type": "Feature", "properties": {"start": "Nantes", "stop_name": "La Croix de M\u00e9an", "type": "Gare accessible", "icone": "TER"}, "geometry": {"type": "Point", "coordinates": [-2.192942, 47.300604]}}, {"type": "Feature", "properties": {"start": "Nantes", "stop_name": "Penho\u00ebt", "type": "Gare accessible", "icone": "TER"}, "geometry": {"type": "Point", "coordinates": [-2.200876, 47.28992]}}, {"type": "Feature", "properties": {"start": "Nantes", "stop_name": "Cou\u00ebron", "type": "Gare accessible", "icone": "TER"}, "geometry": {"type": "Point", "coordinates": [-1.723605, 47.221916]}}, {"type": "Feature", "properties": {"start": "Nantes", "stop_name": "Cordemais", "type": "Gare accessible", "icone": "TER"}, "geometry": {"type": "Point", "coordinates": [-1.846637, 47.302201]}}, {"type": "Feature", "properties": {"start": "Nantes", "stop_name": "La Basse Indre - Saint-Herblain", "type": "Gare accessible", "icone": "TER"}, "geometry": {"type": "Point", "coordinates": [-1.660531, 47.204116]}}, {"type": "Feature", "properties": {"start": "Nantes", "stop_name": "Chantenay", "type": "Gare accessible", "icone": "TER"}, "geometry": {"type": "Point", "coordinates": [-1.594332, 47.1972]}}, {"type": "Feature", "properties": {"start": "Nantes", "stop_name": "Redon", "type": "Gare accessible", "icone": "TER"}, "geometry": {"type": "Point", "coordinates": [-2.08777, 47.652004]}}, {"type": "Feature", "properties": {"start": "Nantes", "stop_name": "S\u00e9v\u00e9rac", "type": "Gare accessible", "icone": "TER"}, "geometry": {"type": "Point", "coordinates": [-2.072728, 47.549808]}}, {"type": "Feature", "properties": {"start": "Nantes", "stop_name": "Saint-Gildas-des-bois", "type": "Gare accessible", "icone": "TER"}, "geometry": {"type": "Point", "coordinates": [-2.04394, 47.516648]}}, {"type": "Feature", "properties": {"start": "Nantes", "stop_name": "Dreff\u00e9ac", "type": "Gare accessible", "icone": "TER"}, "geometry": {"type": "Point", "coordinates": [-2.050155, 47.48236]}}, {"type": "Feature", "properties": {"start": "Nantes", "stop_name": "Pontch\u00e2teau", "type": "Gare accessible", "icone": "TER"}, "geometry": {"type": "Point", "coordinates": [-2.088526, 47.435334]}}, {"type": "Feature", "properties": {"start": "Nantes", "stop_name": "Quimper", "type": "Gare accessible", "icone": "TER"}, "geometry": {"type": "Point", "coordinates": [-4.092103, 47.994455]}}, {"type": "Feature", "properties": {"start": "Nantes", "stop_name": "Rosporden", "type": "Gare accessible", "icone": "TER"}, "geometry": {"type": "Point", "coordinates": [-3.832702, 47.960224]}}, {"type": "Feature", "properties": {"start": "Nantes", "stop_name": "Quimperl\u00e9", "type": "Gare accessible", "icone": "TER"}, "geometry": {"type": "Point", "coordinates": [-3.552693, 47.869375]}}, {"type": "Feature", "properties": {"start": "Nantes", "stop_name": "Lorient", "type": "Gare accessible", "icone": "TER"}, "geometry": {"type": "Point", "coordinates": [-3.366221, 47.755597]}}, {"type": "Feature", "properties": {"start": "Nantes", "stop_name": "Hennebont", "type": "Gare accessible", "icone": "TER"}, "geometry": {"type": "Point", "coordinates": [-3.285796, 47.79913]}}, {"type": "Feature", "properties": {"start": "Nantes", "stop_name": "Auray", "type": "Gare accessible", "icone": "TER"}, "geometry": {"type": "Point", "coordinates": [-2.999363, 47.680085]}}, {"type": "Feature", "properties": {"start": "Nantes", "stop_name": "Vannes", "type": "Gare accessible", "icone": "TER"}, "geometry": {"type": "Point", "coordinates": [-2.75245, 47.665169]}}, {"type": "Feature", "properties": {"start": "Nantes", "stop_name": "Questembert", "type": "Gare accessible", "icone": "TER"}, "geometry": {"type": "Point", "coordinates": [-2.449621, 47.683021]}}, {"type": "Feature", "properties": {"start": "Nantes", "stop_name": "Brest", "type": "Gare accessible", "icone": "TER"}, "geometry": {"type": "Point", "coordinates": [-4.480306, 48.38762]}}, {"type": "Feature", "properties": {"start": "Nantes", "stop_name": "Saumur", "type": "Gare accessible", "icone": "TER"}, "geometry": {"type": "Point", "coordinates": [-0.071403, 47.268994]}}, {"type": "Feature", "properties": {"start": "Nantes", "stop_name": "Les Rosiers-sur-Loire", "type": "Gare accessible", "icone": "TER"}, "geometry": {"type": "Point", "coordinates": [-0.219373, 47.361859]}}, {"type": "Feature", "properties": {"start": "Nantes", "stop_name": "La M\u00e9nitr\u00e9", "type": "Gare accessible", "icone": "TER"}, "geometry": {"type": "Point", "coordinates": [-0.275838, 47.397383]}}, {"type": "Feature", "properties": {"start": "Nantes", "stop_name": "Saint-Mathurin", "type": "Gare accessible", "icone": "TER"}, "geometry": {"type": "Point", "coordinates": [-0.318099, 47.412073]}}, {"type": "Feature", "properties": {"start": "Nantes", "stop_name": "La Bohalle", "type": "Gare accessible", "icone": "TER"}, "geometry": {"type": "Point", "coordinates": [-0.400124, 47.434229]}}, {"type": "Feature", "properties": {"start": "Nantes", "stop_name": "Tr\u00e9laz\u00e9", "type": "Gare accessible", "icone": "TER"}, "geometry": {"type": "Point", "coordinates": [-0.469666, 47.452845]}}, {"type": "Feature", "properties": {"start": "Nantes", "stop_name": "La Roche-sur-Yon", "type": "Gare accessible", "icone": "TER"}, "geometry": {"type": "Point", "coordinates": [-1.43566, 46.672075]}}, {"type": "Feature", "properties": {"start": "Nantes", "stop_name": "Belleville-Vend\u00e9e", "type": "Gare accessible", "icone": "TER"}, "geometry": {"type": "Point", "coordinates": [-1.434512, 46.788329]}}, {"type": "Feature", "properties": {"start": "Nantes", "stop_name": "L'Herbergement - Les Brouzils", "type": "Gare accessible", "icone": "TER"}, "geometry": {"type": "Point", "coordinates": [-1.371279, 46.906946]}}, {"type": "Feature", "properties": {"start": "Nantes", "stop_name": "Montaigu", "type": "Gare accessible", "icone": "TER"}, "geometry": {"type": "Point", "coordinates": [-1.316189, 46.98372]}}, {"type": "Feature", "properties": {"start": "Nantes", "stop_name": "Clisson", "type": "Gare accessible", "icone": "TER"}, "geometry": {"type": "Point", "coordinates": [-1.286292, 47.086015]}}, {"type": "Feature", "properties": {"start": "Nantes", "stop_name": "La Mothe-Achard", "type": "Gare accessible", "icone": "TER"}, "geometry": {"type": "Point", "coordinates": [-1.659513, 46.606971]}}, {"type": "Feature", "properties": {"start": "Nantes", "stop_name": "Olonne-sur-Mer", "type": "Gare accessible", "icone": "TER"}, "geometry": {"type": "Point", "coordinates": [-1.767302, 46.548653]}}, {"type": "Feature", "properties": {"start": "Nantes", "stop_name": "Les Sables-d'Olonne", "type": "Gare accessible", "icone": "TER"}, "geometry": {"type": "Point", "coordinates": [-1.781116, 46.500032]}}, {"type": "Feature", "properties": {"start": "Nantes", "stop_name": "Saint-Gilles-Croix-de-Vie", "type": "Gare accessible", "icone": "TER"}, "geometry": {"type": "Point", "coordinates": [-1.941252, 46.696347]}}, {"type": "Feature", "properties": {"start": "Nantes", "stop_name": "Saint-Hilaire-de-Riez", "type": "Gare accessible", "icone": "TER"}, "geometry": {"type": "Point", "coordinates": [-1.949617, 46.716629]}}, {"type": "Feature", "properties": {"start": "Nantes", "stop_name": "Challans", "type": "Gare accessible", "icone": "TER"}, "geometry": {"type": "Point", "coordinates": [-1.871814, 46.844148]}}, {"type": "Feature", "properties": {"start": "Nantes", "stop_name": "Machecoul", "type": "Gare accessible", "icone": "TER"}, "geometry": {"type": "Point", "coordinates": [-1.822647, 46.990587]}}, {"type": "Feature", "properties": {"start": "Nantes", "stop_name": "Sainte-Pazanne", "type": "Gare accessible", "icone": "TER"}, "geometry": {"type": "Point", "coordinates": [-1.813683, 47.105386]}}, {"type": "Feature", "properties": {"start": "Nantes", "stop_name": "Port-Saint-P\u00e8re - Saint-Mars", "type": "Gare accessible", "icone": "TER"}, "geometry": {"type": "Point", "coordinates": [-1.739477, 47.116531]}}, {"type": "Feature", "properties": {"start": "Nantes", "stop_name": "Bouaye", "type": "Gare accessible", "icone": "TER"}, "geometry": {"type": "Point", "coordinates": [-1.681069, 47.138154]}}, {"type": "Feature", "properties": {"start": "Nantes", "stop_name": "Rez\u00e9 Pont-Rousseau", "type": "Gare accessible", "icone": "TER"}, "geometry": {"type": "Point", "coordinates": [-1.549394, 47.193276]}}, {"type": "Feature", "properties": {"start": "Nantes", "stop_name": "Saint-Hilaire-de-Chal\u00e9ons", "type": "Gare accessible", "icone": "TER"}, "geometry": {"type": "Point", "coordinates": [-1.865023, 47.105743]}}, {"type": "Feature", "properties": {"start": "Nantes", "stop_name": "Bourgneuf-en-Retz", "type": "Gare accessible", "icone": "TER"}, "geometry": {"type": "Point", "coordinates": [-1.955226, 47.046899]}}, {"type": "Feature", "properties": {"start": "Nantes", "stop_name": "Les Moutiers-en-Retz", "type": "Gare accessible", "icone": "TER"}, "geometry": {"type": "Point", "coordinates": [-2.001132, 47.061902]}}, {"type": "Feature", "properties": {"start": "Nantes", "stop_name": "La Bernerie-en-Retz", "type": "Gare accessible", "icone": "TER"}, "geometry": {"type": "Point", "coordinates": [-2.03377, 47.083162]}}, {"type": "Feature", "properties": {"start": "Nantes", "stop_name": "Pornic", "type": "Gare accessible", "icone": "TER"}, "geometry": {"type": "Point", "coordinates": [-2.098025, 47.11441]}}, {"type": "Feature", "properties": {"start": "Nantes", "stop_name": "Ancenis Bis", "type": "Gare accessible", "icone": "TER"}, "geometry": {"type": "Point", "coordinates": [-1.177763, 47.369334]}}, {"type": "Feature", "properties": {"start": "Nantes", "stop_name": "Cholet", "type": "Gare accessible", "icone": "TER"}, "geometry": {"type": "Point", "coordinates": [-0.869897, 47.065702]}}, {"type": "Feature", "properties": {"start": "Nantes", "stop_name": "Torfou", "type": "Gare accessible", "icone": "TER"}, "geometry": {"type": "Point", "coordinates": [-1.117492, 47.03319]}}, {"type": "Feature", "properties": {"start": "Nantes", "stop_name": "Boussay - La Bruffi\u00e8re", "type": "Gare accessible", "icone": "TER"}, "geometry": {"type": "Point", "coordinates": [-1.182615, 47.050453]}}, {"type": "Feature", "properties": {"start": "Nantes", "stop_name": "Cugand", "type": "Gare accessible", "icone": "TER"}, "geometry": {"type": "Point", "coordinates": [-1.25331, 47.05837]}}, {"type": "Feature", "properties": {"start": "Nantes", "stop_name": "Gorges", "type": "Gare accessible", "icone": "TER"}, "geometry": {"type": "Point", "coordinates": [-1.305914, 47.100191]}}, {"type": "Feature", "properties": {"start": "Nantes", "stop_name": "Le Pallet", "type": "Gare accessible", "icone": "TER"}, "geometry": {"type": "Point", "coordinates": [-1.34682, 47.143823]}}, {"type": "Feature", "properties": {"start": "Nantes", "stop_name": "La Haie-Fouassi\u00e8re", "type": "Gare accessible", "icone": "TER"}, "geometry": {"type": "Point", "coordinates": [-1.392174, 47.161616]}}, {"type": "Feature", "properties": {"start": "Nantes", "stop_name": "Vertou", "type": "Gare accessible", "icone": "TER"}, "geometry": {"type": "Point", "coordinates": [-1.477956, 47.186149]}}, {"type": "Feature", "properties": {"start": "Nantes", "stop_name": "Saint-S\u00e9bastien Fr\u00eane Rond", "type": "Gare accessible", "icone": "TER"}, "geometry": {"type": "Point", "coordinates": [-1.496026, 47.190548]}}, {"type": "Feature", "properties": {"start": "Nantes", "stop_name": "Saint-S\u00e9bastien Pas Enchant\u00e9s", "type": "Gare accessible", "icone": "TER"}, "geometry": {"type": "Point", "coordinates": [-1.510821, 47.206935]}}, {"type": "Feature", "properties": {"start": "Nantes", "stop_name": "La Rochelle", "type": "Gare accessible", "icone": "TER"}, "geometry": {"type": "Point", "coordinates": [-1.145853, 46.152705]}}, {"type": "Feature", "properties": {"start": "Nantes", "stop_name": "Lu\u00e7on", "type": "Gare accessible", "icone": "TER"}, "geometry": {"type": "Point", "coordinates": [-1.167421, 46.463627]}}, {"type": "Feature", "properties": {"start": "Nantes", "stop_name": "Orl\u00e9ans", "type": "Gare accessible", "icone": "TER"}, "geometry": {"type": "Point", "coordinates": [1.904242, 47.907891]}}, {"type": "Feature", "properties": {"start": "Nantes", "stop_name": "Beaugency", "type": "Gare accessible", "icone": "TER"}, "geometry": {"type": "Point", "coordinates": [1.625944, 47.778404]}}, {"type": "Feature", "properties": {"start": "Nantes", "stop_name": "Blois - Chambord", "type": "Gare accessible", "icone": "TER"}, "geometry": {"type": "Point", "coordinates": [1.323759, 47.585449]}}, {"type": "Feature", "properties": {"start": "Nantes", "stop_name": "Saint-Pierre-des-Corps", "type": "Gare accessible", "icone": "TER"}, "geometry": {"type": "Point", "coordinates": [0.723539, 47.38614]}}, {"type": "Feature", "properties": {"start": "Nantes", "stop_name": "Tours", "type": "Gare accessible", "icone": "TER"}, "geometry": {"type": "Point", "coordinates": [0.692831, 47.389866]}}, {"type": "Feature", "properties": {"start": "Nantes", "stop_name": "Amboise", "type": "Gare accessible", "icone": "TER"}, "geometry": {"type": "Point", "coordinates": [0.981267, 47.421469]}}, {"type": "Feature", "properties": {"start": "Nantes", "stop_name": "Les Aubrais", "type": "Gare accessible", "icone": "TER"}, "geometry": {"type": "Point", "coordinates": [1.906629, 47.926801]}}, {"type": "Feature", "properties": {"start": "Nantes", "stop_name": "Mer", "type": "Gare accessible", "icone": "TER"}, "geometry": {"type": "Point", "coordinates": [1.506363, 47.705894]}}, {"type": "Feature", "properties": {"start": "Nantes", "stop_name": "Meung-sur-Loire", "type": "Gare accessible", "icone": "TER"}, "geometry": {"type": "Point", "coordinates": [1.691921, 47.829954]}}, {"type": "Feature", "properties": {"start": "Nantes", "stop_name": "Cinq-Mars-la-Pile", "type": "Gare accessible", "icone": "TER"}, "geometry": {"type": "Point", "coordinates": [0.459387, 47.345112]}}, {"type": "Feature", "properties": {"start": "Nantes", "stop_name": "Langeais", "type": "Gare accessible", "icone": "TER"}, "geometry": {"type": "Point", "coordinates": [0.410104, 47.324058]}}, {"type": "Feature", "properties": {"start": "Nantes", "stop_name": "Port Boulet", "type": "Gare accessible", "icone": "TER"}, "geometry": {"type": "Point", "coordinates": [0.155648, 47.248836]}}]}