{"type": "FeatureCollection", "features": [{"type": "Feature", "properties": {"stop_name": "Notre-Dame-d'O\u00e9", "type": "Gare s\u00e9lectionn\u00e9e", "icone": "Icon2"}, "geometry": {"type": "Point", "coordinates": [0.707025, 47.459567]}}, {"type": "Feature", "properties": {"stop_name": "Tours", "type": "Gare accessible", "icone": "Icon1"}, "geometry": {"type": "Point", "coordinates": [0.692831, 47.389866]}}, {"type": "Feature", "properties": {"stop_name": "Monnaie", "type": "Gare accessible", "icone": "Icon1"}, "geometry": {"type": "Point", "coordinates": [0.79333, 47.498981]}}, {"type": "Feature", "properties": {"stop_name": "Ch\u00e2teau-Renault", "type": "Gare accessible", "icone": "Icon1"}, "geometry": {"type": "Point", "coordinates": [0.901524, 47.587796000000004]}}, {"type": "Feature", "properties": {"stop_name": "Saint-Amand de Vend\u00f4me", "type": "Gare accessible", "icone": "Icon1"}, "geometry": {"type": "Point", "coordinates": [1.011978, 47.692972]}}, {"type": "Feature", "properties": {"stop_name": "Vend\u00f4me", "type": "Gare accessible", "icone": "Icon1"}, "geometry": {"type": "Point", "coordinates": [1.068219, 47.801959000000004]}}]}