{"type": "FeatureCollection", "features": [{"type": "Feature", "properties": {"start": "Paris Gare du Nord", "stop_name": "Paris Gare du Nord", "type": "Gare s\u00e9lectionn\u00e9e", "iconstarte": "Icon2"}, "geometry": {"type": "Point", "coordinates": [2.354851, 48.880136]}}, {"type": "Feature", "properties": {"start": "Paris Gare du Nord", "stop_name": "Calais Ville", "type": "Gare accessible", "icone": "TER"}, "geometry": {"type": "Point", "coordinates": [1.850885, 50.953466]}}, {"type": "Feature", "properties": {"start": "Paris Gare du Nord", "stop_name": "Boulogne sur Mer", "type": "Gare accessible", "icone": "TER"}, "geometry": {"type": "Point", "coordinates": [1.609714, 50.715613]}}, {"type": "Feature", "properties": {"start": "Paris Gare du Nord", "stop_name": "\u00c9taples - Le Touquet", "type": "Gare accessible", "icone": "TER"}, "geometry": {"type": "Point", "coordinates": [1.642582, 50.516544]}}, {"type": "Feature", "properties": {"start": "Paris Gare du Nord", "stop_name": "Rang-du-Fliers - Verton - Berck", "type": "Gare accessible", "icone": "TER"}, "geometry": {"type": "Point", "coordinates": [1.648048, 50.415845]}}, {"type": "Feature", "properties": {"start": "Paris Gare du Nord", "stop_name": "Rue", "type": "Gare accessible", "icone": "TER"}, "geometry": {"type": "Point", "coordinates": [1.675697, 50.273147]}}, {"type": "Feature", "properties": {"start": "Paris Gare du Nord", "stop_name": "Noyelles-sur-Mer", "type": "Gare accessible", "icone": "TER"}, "geometry": {"type": "Point", "coordinates": [1.70453, 50.187305]}}, {"type": "Feature", "properties": {"start": "Paris Gare du Nord", "stop_name": "Abbeville", "type": "Gare accessible", "icone": "TER"}, "geometry": {"type": "Point", "coordinates": [1.824538, 50.102175]}}, {"type": "Feature", "properties": {"start": "Paris Gare du Nord", "stop_name": "Amiens", "type": "Gare accessible", "icone": "TER"}, "geometry": {"type": "Point", "coordinates": [2.308277, 49.890584]}}, {"type": "Feature", "properties": {"start": "Paris Gare du Nord", "stop_name": "Longueau", "type": "Gare accessible", "icone": "TER"}, "geometry": {"type": "Point", "coordinates": [2.352233, 49.863407]}}, {"type": "Feature", "properties": {"start": "Paris Gare du Nord", "stop_name": "Saint-Just-en-Chauss\u00e9e", "type": "Gare accessible", "icone": "TER"}, "geometry": {"type": "Point", "coordinates": [2.42949, 49.50364]}}, {"type": "Feature", "properties": {"start": "Paris Gare du Nord", "stop_name": "Clermont de l'Oise", "type": "Gare accessible", "icone": "TER"}, "geometry": {"type": "Point", "coordinates": [2.417663, 49.385278]}}, {"type": "Feature", "properties": {"start": "Paris Gare du Nord", "stop_name": "Creil", "type": "Gare accessible", "icone": "TER"}, "geometry": {"type": "Point", "coordinates": [2.469293, 49.263775]}}, {"type": "Feature", "properties": {"start": "Paris Gare du Nord", "stop_name": "Marquise - Rinxent", "type": "Gare accessible", "icone": "TER"}, "geometry": {"type": "Point", "coordinates": [1.729786, 50.805686]}}, {"type": "Feature", "properties": {"start": "Paris Gare du Nord", "stop_name": "Douai", "type": "Gare accessible", "icone": "TER"}, "geometry": {"type": "Point", "coordinates": [3.089958, 50.371673]}}, {"type": "Feature", "properties": {"start": "Paris Gare du Nord", "stop_name": "Arras", "type": "Gare accessible", "icone": "TER"}, "geometry": {"type": "Point", "coordinates": [2.781314, 50.286971]}}, {"type": "Feature", "properties": {"start": "Paris Gare du Nord", "stop_name": "Lille Flandres", "type": "Gare accessible", "icone": "TER"}, "geometry": {"type": "Point", "coordinates": [3.06987, 50.636577]}}, {"type": "Feature", "properties": {"start": "Paris Gare du Nord", "stop_name": "Chantilly - Gouvieux", "type": "Gare accessible", "icone": "TER"}, "geometry": {"type": "Point", "coordinates": [2.459771, 49.187219]}}, {"type": "Feature", "properties": {"start": "Paris Gare du Nord", "stop_name": "Cambrai", "type": "Gare accessible", "icone": "TER"}, "geometry": {"type": "Point", "coordinates": [3.241197, 50.176582]}}, {"type": "Feature", "properties": {"start": "Paris Gare du Nord", "stop_name": "Caudry", "type": "Gare accessible", "icone": "TER"}, "geometry": {"type": "Point", "coordinates": [3.40971, 50.111473]}}, {"type": "Feature", "properties": {"start": "Paris Gare du Nord", "stop_name": "Busigny", "type": "Gare accessible", "icone": "TER"}, "geometry": {"type": "Point", "coordinates": [3.446436, 50.039547]}}, {"type": "Feature", "properties": {"start": "Paris Gare du Nord", "stop_name": "Saint-Quentin", "type": "Gare accessible", "icone": "TER"}, "geometry": {"type": "Point", "coordinates": [3.296958, 49.840025]}}, {"type": "Feature", "properties": {"start": "Paris Gare du Nord", "stop_name": "Compi\u00e8gne", "type": "Gare accessible", "icone": "TER"}, "geometry": {"type": "Point", "coordinates": [2.823693, 49.421977]}}, {"type": "Feature", "properties": {"start": "Paris Gare du Nord", "stop_name": "Aulnoye-Aymeries", "type": "Gare accessible", "icone": "TER"}, "geometry": {"type": "Point", "coordinates": [3.843333, 50.197477]}}, {"type": "Feature", "properties": {"start": "Paris Gare du Nord", "stop_name": "Maubeuge", "type": "Gare accessible", "icone": "TER"}, "geometry": {"type": "Point", "coordinates": [3.966765, 50.272952]}}, {"type": "Feature", "properties": {"start": "Paris Gare du Nord", "stop_name": "Pont-Sainte-Maxence", "type": "Gare accessible", "icone": "TER"}, "geometry": {"type": "Point", "coordinates": [2.602893, 49.309736]}}, {"type": "Feature", "properties": {"start": "Paris Gare du Nord", "stop_name": "Noyon", "type": "Gare accessible", "icone": "TER"}, "geometry": {"type": "Point", "coordinates": [3.006434, 49.577351]}}, {"type": "Feature", "properties": {"start": "Paris Gare du Nord", "stop_name": "Chauny", "type": "Gare accessible", "icone": "TER"}, "geometry": {"type": "Point", "coordinates": [3.223484, 49.611165]}}, {"type": "Feature", "properties": {"start": "Paris Gare du Nord", "stop_name": "Tergnier", "type": "Gare accessible", "icone": "TER"}, "geometry": {"type": "Point", "coordinates": [3.297253, 49.659129]}}, {"type": "Feature", "properties": {"start": "Paris Gare du Nord", "stop_name": "Le Cateau", "type": "Gare accessible", "icone": "TER"}, "geometry": {"type": "Point", "coordinates": [3.539982, 50.091512]}}, {"type": "Feature", "properties": {"start": "Paris Gare du Nord", "stop_name": "Persan - Beaumont", "type": "Gare accessible", "icone": "TER"}, "geometry": {"type": "Point", "coordinates": [2.27914, 49.14795]}}, {"type": "Feature", "properties": {"start": "Paris Gare du Nord", "stop_name": "Chambly", "type": "Gare accessible", "icone": "TER"}, "geometry": {"type": "Point", "coordinates": [2.240538, 49.163605]}}, {"type": "Feature", "properties": {"start": "Paris Gare du Nord", "stop_name": "Bornel - Belle-\u00c9glise", "type": "Gare accessible", "icone": "TER"}, "geometry": {"type": "Point", "coordinates": [2.207241, 49.194621]}}, {"type": "Feature", "properties": {"start": "Paris Gare du Nord", "stop_name": "Esches", "type": "Gare accessible", "icone": "TER"}, "geometry": {"type": "Point", "coordinates": [2.170599, 49.212562]}}, {"type": "Feature", "properties": {"start": "Paris Gare du Nord", "stop_name": "M\u00e9ru", "type": "Gare accessible", "icone": "TER"}, "geometry": {"type": "Point", "coordinates": [2.132415, 49.232385]}}, {"type": "Feature", "properties": {"start": "Paris Gare du Nord", "stop_name": "Laboissi\u00e8re - Le D\u00e9luge", "type": "Gare accessible", "icone": "TER"}, "geometry": {"type": "Point", "coordinates": [2.136197, 49.28867]}}, {"type": "Feature", "properties": {"start": "Paris Gare du Nord", "stop_name": "Saint-Sulpice - Auteuil", "type": "Gare accessible", "icone": "TER"}, "geometry": {"type": "Point", "coordinates": [2.116453, 49.347397]}}, {"type": "Feature", "properties": {"start": "Paris Gare du Nord", "stop_name": "Beauvais", "type": "Gare accessible", "icone": "TER"}, "geometry": {"type": "Point", "coordinates": [2.088609, 49.426522]}}, {"type": "Feature", "properties": {"start": "Paris Gare du Nord", "stop_name": "Orry-la-Ville - Coye", "type": "Gare accessible", "icone": "TER"}, "geometry": {"type": "Point", "coordinates": [2.489997, 49.13893]}}, {"type": "Feature", "properties": {"start": "Paris Gare du Nord", "stop_name": "Rieux - Angicourt", "type": "Gare accessible", "icone": "TER"}, "geometry": {"type": "Point", "coordinates": [2.521185, 49.298581]}}, {"type": "Feature", "properties": {"start": "Paris Gare du Nord", "stop_name": "Villers-Saint-Paul", "type": "Gare accessible", "icone": "TER"}, "geometry": {"type": "Point", "coordinates": [2.489455, 49.282396]}}, {"type": "Feature", "properties": {"start": "Paris Gare du Nord", "stop_name": "Jaux", "type": "Gare accessible", "icone": "TER"}, "geometry": {"type": "Point", "coordinates": [2.777299, 49.386448]}}, {"type": "Feature", "properties": {"start": "Paris Gare du Nord", "stop_name": "Le Meux - La Croix-Saint-Ouen", "type": "Gare accessible", "icone": "TER"}, "geometry": {"type": "Point", "coordinates": [2.753483, 49.35949]}}, {"type": "Feature", "properties": {"start": "Paris Gare du Nord", "stop_name": "Longueil-Sainte-Marie", "type": "Gare accessible", "icone": "TER"}, "geometry": {"type": "Point", "coordinates": [2.717636, 49.342407]}}, {"type": "Feature", "properties": {"start": "Paris Gare du Nord", "stop_name": "Chevri\u00e8res", "type": "Gare accessible", "icone": "TER"}, "geometry": {"type": "Point", "coordinates": [2.682515, 49.337314]}}, {"type": "Feature", "properties": {"start": "Paris Gare du Nord", "stop_name": "Ailly-sur-Noye", "type": "Gare accessible", "icone": "TER"}, "geometry": {"type": "Point", "coordinates": [2.364147, 49.754206]}}, {"type": "Feature", "properties": {"start": "Paris Gare du Nord", "stop_name": "Breteuil-Embranchement", "type": "Gare accessible", "icone": "TER"}, "geometry": {"type": "Point", "coordinates": [2.384714, 49.626499]}}, {"type": "Feature", "properties": {"start": "Paris Gare du Nord", "stop_name": "Avrechy", "type": "Gare accessible", "icone": "TER"}, "geometry": {"type": "Point", "coordinates": [2.418194, 49.444637]}}, {"type": "Feature", "properties": {"start": "Paris Gare du Nord", "stop_name": "Liancourt - Rantigny", "type": "Gare accessible", "icone": "TER"}, "geometry": {"type": "Point", "coordinates": [2.445255, 49.324818]}}, {"type": "Feature", "properties": {"start": "Paris Gare du Nord", "stop_name": "Laigneville", "type": "Gare accessible", "icone": "TER"}, "geometry": {"type": "Point", "coordinates": [2.449251, 49.29291]}}, {"type": "Feature", "properties": {"start": "Paris Gare du Nord", "stop_name": "Laon", "type": "Gare accessible", "icone": "TER"}, "geometry": {"type": "Point", "coordinates": [3.62434, 49.570578]}}, {"type": "Feature", "properties": {"start": "Paris Gare du Nord", "stop_name": "Anizy - Pinon", "type": "Gare accessible", "icone": "TER"}, "geometry": {"type": "Point", "coordinates": [3.448575, 49.49615]}}, {"type": "Feature", "properties": {"start": "Paris Gare du Nord", "stop_name": "Soissons", "type": "Gare accessible", "icone": "TER"}, "geometry": {"type": "Point", "coordinates": [3.33809, 49.369226]}}, {"type": "Feature", "properties": {"start": "Paris Gare du Nord", "stop_name": "Villers-Cotter\u00eats", "type": "Gare accessible", "icone": "TER"}, "geometry": {"type": "Point", "coordinates": [3.093604, 49.250228]}}, {"type": "Feature", "properties": {"start": "Paris Gare du Nord", "stop_name": "Cr\u00e9py-en-Valois", "type": "Gare accessible", "icone": "TER"}, "geometry": {"type": "Point", "coordinates": [2.886494, 49.231252]}}, {"type": "Feature", "properties": {"start": "Paris Gare du Nord", "stop_name": "Nanteuil-le-Haudouin", "type": "Gare accessible", "icone": "TER"}, "geometry": {"type": "Point", "coordinates": [2.794502, 49.142673]}}, {"type": "Feature", "properties": {"start": "Paris Gare du Nord", "stop_name": "Le Plessis-Belleville", "type": "Gare accessible", "icone": "TER"}, "geometry": {"type": "Point", "coordinates": [2.744855, 49.095912]}}, {"type": "Feature", "properties": {"start": "Paris Gare du Nord", "stop_name": "Dammartin - Juilly - Saint-Mard", "type": "Gare accessible", "icone": "TER"}, "geometry": {"type": "Point", "coordinates": [2.69887, 49.03219]}}, {"type": "Feature", "properties": {"start": "Paris Gare du Nord", "stop_name": "Longpont", "type": "Gare accessible", "icone": "TER"}, "geometry": {"type": "Point", "coordinates": [3.230265, 49.272602]}}, {"type": "Feature", "properties": {"start": "Paris Gare du Nord", "stop_name": "Ormoy-Villers", "type": "Gare accessible", "icone": "TER"}, "geometry": {"type": "Point", "coordinates": [2.83795, 49.20032]}}]}