{"type": "FeatureCollection", "features": [{"type": "Feature", "properties": {"stop_name": "Penho\u00ebt", "type": "Gare s\u00e9lectionn\u00e9e", "icone": "Icon2"}, "geometry": {"type": "Point", "coordinates": [-2.200876, 47.28992]}}, {"type": "Feature", "properties": {"stop_name": "Savenay", "type": "Gare accessible", "icone": "Icon1"}, "geometry": {"type": "Point", "coordinates": [-1.951007, 47.358602000000005]}}, {"type": "Feature", "properties": {"stop_name": "Donges", "type": "Gare accessible", "icone": "Icon1"}, "geometry": {"type": "Point", "coordinates": [-2.071792, 47.308656]}}, {"type": "Feature", "properties": {"stop_name": "Montoir-de-Bretagne", "type": "Gare accessible", "icone": "Icon1"}, "geometry": {"type": "Point", "coordinates": [-2.161705, 47.321014]}}, {"type": "Feature", "properties": {"stop_name": "La Croix de M\u00e9an", "type": "Gare accessible", "icone": "Icon1"}, "geometry": {"type": "Point", "coordinates": [-2.192942, 47.300604]}}, {"type": "Feature", "properties": {"stop_name": "Saint-Nazaire", "type": "Gare accessible", "icone": "Icon1"}, "geometry": {"type": "Point", "coordinates": [-2.2110790000000002, 47.286489]}}, {"type": "Feature", "properties": {"stop_name": "Pornichet", "type": "Gare accessible", "icone": "Icon1"}, "geometry": {"type": "Point", "coordinates": [-2.344865, 47.27043]}}, {"type": "Feature", "properties": {"stop_name": "La Baule les Pins", "type": "Gare accessible", "icone": "Icon1"}, "geometry": {"type": "Point", "coordinates": [-2.3648849999999997, 47.28345]}}, {"type": "Feature", "properties": {"stop_name": "La Baule-Escoublac", "type": "Gare accessible", "icone": "Icon1"}, "geometry": {"type": "Point", "coordinates": [-2.38921, 47.288459]}}, {"type": "Feature", "properties": {"stop_name": "Le Pouliguen", "type": "Gare accessible", "icone": "Icon1"}, "geometry": {"type": "Point", "coordinates": [-2.4331259999999997, 47.282503999999996]}}, {"type": "Feature", "properties": {"stop_name": "Batz-sur-Mer", "type": "Gare accessible", "icone": "Icon1"}, "geometry": {"type": "Point", "coordinates": [-2.478869, 47.280854999999995]}}, {"type": "Feature", "properties": {"stop_name": "Le Croisic", "type": "Gare accessible", "icone": "Icon1"}, "geometry": {"type": "Point", "coordinates": [-2.50734, 47.289889]}}, {"type": "Feature", "properties": {"stop_name": "Nantes", "type": "Gare accessible", "icone": "Icon1"}, "geometry": {"type": "Point", "coordinates": [-1.5420770000000001, 47.217490999999995]}}, {"type": "Feature", "properties": {"stop_name": "Saint-\u00c9tienne-de-Montluc", "type": "Gare accessible", "icone": "Icon1"}, "geometry": {"type": "Point", "coordinates": [-1.785654, 47.274784999999994]}}, {"type": "Feature", "properties": {"stop_name": "Cou\u00ebron", "type": "Gare accessible", "icone": "Icon1"}, "geometry": {"type": "Point", "coordinates": [-1.7236049999999998, 47.221916]}}, {"type": "Feature", "properties": {"stop_name": "Cordemais", "type": "Gare accessible", "icone": "Icon1"}, "geometry": {"type": "Point", "coordinates": [-1.8466369999999999, 47.302201000000004]}}, {"type": "Feature", "properties": {"stop_name": "La Basse Indre - Saint-Herblain", "type": "Gare accessible", "icone": "Icon1"}, "geometry": {"type": "Point", "coordinates": [-1.6605310000000002, 47.204116]}}, {"type": "Feature", "properties": {"stop_name": "Chantenay", "type": "Gare accessible", "icone": "Icon1"}, "geometry": {"type": "Point", "coordinates": [-1.5943319999999999, 47.1972]}}]}