{"type": "FeatureCollection", "features": [{"type": "Feature", "properties": {"stop_name": "Pessac", "type": "Gare s\u00e9lectionn\u00e9e", "icone": "Icon2"}, "geometry": {"type": "Point", "coordinates": [-0.631784, 44.804621000000004]}}, {"type": "Feature", "properties": {"stop_name": "Blanquefort", "type": "Gare accessible", "icone": "Icon1"}, "geometry": {"type": "Point", "coordinates": [-0.62389, 44.917584999999995]}}, {"type": "Feature", "properties": {"stop_name": "Bruges", "type": "Gare accessible", "icone": "Icon1"}, "geometry": {"type": "Point", "coordinates": [-0.609445, 44.887012]}}, {"type": "Feature", "properties": {"stop_name": "Caud\u00e9ran-M\u00e9rignac", "type": "Gare accessible", "icone": "Icon1"}, "geometry": {"type": "Point", "coordinates": [-0.627745, 44.842622]}}, {"type": "Feature", "properties": {"stop_name": "M\u00e9rignac Arlac", "type": "Gare accessible", "icone": "Icon1"}, "geometry": {"type": "Point", "coordinates": [-0.6261399999999999, 44.82656]}}, {"type": "Feature", "properties": {"stop_name": "Arcachon", "type": "Gare accessible", "icone": "Icon1"}, "geometry": {"type": "Point", "coordinates": [-1.1653229999999999, 44.658967]}}, {"type": "Feature", "properties": {"stop_name": "La Teste", "type": "Gare accessible", "icone": "Icon1"}, "geometry": {"type": "Point", "coordinates": [-1.14297, 44.636965999999994]}}, {"type": "Feature", "properties": {"stop_name": "La Hume", "type": "Gare accessible", "icone": "Icon1"}, "geometry": {"type": "Point", "coordinates": [-1.1160430000000001, 44.639914000000005]}}, {"type": "Feature", "properties": {"stop_name": "Gujan-Mestras", "type": "Gare accessible", "icone": "Icon1"}, "geometry": {"type": "Point", "coordinates": [-1.069075, 44.640514]}}, {"type": "Feature", "properties": {"stop_name": "Le Teich", "type": "Gare accessible", "icone": "Icon1"}, "geometry": {"type": "Point", "coordinates": [-1.025564, 44.63248]}}, {"type": "Feature", "properties": {"stop_name": "Biganos Facture", "type": "Gare accessible", "icone": "Icon1"}, "geometry": {"type": "Point", "coordinates": [-0.96621, 44.637384000000004]}}, {"type": "Feature", "properties": {"stop_name": "Marcheprime", "type": "Gare accessible", "icone": "Icon1"}, "geometry": {"type": "Point", "coordinates": [-0.853726, 44.690532]}}, {"type": "Feature", "properties": {"stop_name": "Gazinet - Cestas", "type": "Gare accessible", "icone": "Icon1"}, "geometry": {"type": "Point", "coordinates": [-0.699448, 44.772247]}}, {"type": "Feature", "properties": {"stop_name": "Pessac-Alouette", "type": "Gare accessible", "icone": "Icon1"}, "geometry": {"type": "Point", "coordinates": [-0.65946, 44.793462]}}, {"type": "Feature", "properties": {"stop_name": "Bordeaux Saint-Jean", "type": "Gare accessible", "icone": "Icon1"}, "geometry": {"type": "Point", "coordinates": [-0.556697, 44.825873]}}, {"type": "Feature", "properties": {"stop_name": "Mont-de-Marsan", "type": "Gare accessible", "icone": "Icon1"}, "geometry": {"type": "Point", "coordinates": [-0.50466, 43.884898]}}, {"type": "Feature", "properties": {"stop_name": "Ygos", "type": "Gare accessible", "icone": "Icon1"}, "geometry": {"type": "Point", "coordinates": [-0.736143, 43.978228]}}, {"type": "Feature", "properties": {"stop_name": "Morcenx", "type": "Gare accessible", "icone": "Icon1"}, "geometry": {"type": "Point", "coordinates": [-0.90864, 44.033565]}}, {"type": "Feature", "properties": {"stop_name": "Labouheyre", "type": "Gare accessible", "icone": "Icon1"}, "geometry": {"type": "Point", "coordinates": [-0.920974, 44.210613]}}, {"type": "Feature", "properties": {"stop_name": "Ychoux", "type": "Gare accessible", "icone": "Icon1"}, "geometry": {"type": "Point", "coordinates": [-0.946335, 44.32927]}}, {"type": "Feature", "properties": {"stop_name": "Saint-Martin-d'Oney", "type": "Gare accessible", "icone": "Icon1"}, "geometry": {"type": "Point", "coordinates": [-0.651313, 43.930067]}}, {"type": "Feature", "properties": {"stop_name": "Arengosse", "type": "Gare accessible", "icone": "Icon1"}, "geometry": {"type": "Point", "coordinates": [-0.809053, 44.007044]}}, {"type": "Feature", "properties": {"stop_name": "Lesparre", "type": "Gare accessible", "icone": "Icon1"}, "geometry": {"type": "Point", "coordinates": [-0.9453389999999999, 45.303614]}}, {"type": "Feature", "properties": {"stop_name": "Pauillac", "type": "Gare accessible", "icone": "Icon1"}, "geometry": {"type": "Point", "coordinates": [-0.7550279999999999, 45.203795]}}, {"type": "Feature", "properties": {"stop_name": "Moulis - Listrac", "type": "Gare accessible", "icone": "Icon1"}, "geometry": {"type": "Point", "coordinates": [-0.74463, 45.084070000000004]}}, {"type": "Feature", "properties": {"stop_name": "Margaux", "type": "Gare accessible", "icone": "Icon1"}, "geometry": {"type": "Point", "coordinates": [-0.685393, 45.035916]}}, {"type": "Feature", "properties": {"stop_name": "Macau", "type": "Gare accessible", "icone": "Icon1"}, "geometry": {"type": "Point", "coordinates": [-0.619859, 45.004171]}}, {"type": "Feature", "properties": {"stop_name": "Ludon", "type": "Gare accessible", "icone": "Icon1"}, "geometry": {"type": "Point", "coordinates": [-0.611689, 44.974291]}}, {"type": "Feature", "properties": {"stop_name": "Parempuyre", "type": "Gare accessible", "icone": "Icon1"}, "geometry": {"type": "Point", "coordinates": [-0.61934, 44.944703000000004]}}, {"type": "Feature", "properties": {"stop_name": "Cenon", "type": "Gare accessible", "icone": "Icon1"}, "geometry": {"type": "Point", "coordinates": [-0.5336489999999999, 44.856347]}}, {"type": "Feature", "properties": {"stop_name": "Bassens", "type": "Gare accessible", "icone": "Icon1"}, "geometry": {"type": "Point", "coordinates": [-0.522282, 44.901307]}}, {"type": "Feature", "properties": {"stop_name": "La Gorp", "type": "Gare accessible", "icone": "Icon1"}, "geometry": {"type": "Point", "coordinates": [-0.49663199999999996, 44.928740000000005]}}, {"type": "Feature", "properties": {"stop_name": "Saint-Loub\u00e8s", "type": "Gare accessible", "icone": "Icon1"}, "geometry": {"type": "Point", "coordinates": [-0.43319799999999997, 44.922266]}}, {"type": "Feature", "properties": {"stop_name": "Saint-Sulpice - Izon", "type": "Gare accessible", "icone": "Icon1"}, "geometry": {"type": "Point", "coordinates": [-0.392131, 44.914308]}}, {"type": "Feature", "properties": {"stop_name": "Vayres", "type": "Gare accessible", "icone": "Icon1"}, "geometry": {"type": "Point", "coordinates": [-0.317169, 44.897326]}}, {"type": "Feature", "properties": {"stop_name": "Libourne", "type": "Gare accessible", "icone": "Icon1"}, "geometry": {"type": "Point", "coordinates": [-0.236359, 44.915904]}}, {"type": "Feature", "properties": {"stop_name": "Coutras", "type": "Gare accessible", "icone": "Icon1"}, "geometry": {"type": "Point", "coordinates": [-0.13136099999999998, 45.036709]}}, {"type": "Feature", "properties": {"stop_name": "Saint-Denis-de-Pile", "type": "Gare accessible", "icone": "Icon1"}, "geometry": {"type": "Point", "coordinates": [-0.197877, 44.978485]}}, {"type": "Feature", "properties": {"stop_name": "Dax", "type": "Gare accessible", "icone": "Icon1"}, "geometry": {"type": "Point", "coordinates": [-1.050301, 43.720471999999994]}}, {"type": "Feature", "properties": {"stop_name": "Saubusse", "type": "Gare accessible", "icone": "Icon1"}, "geometry": {"type": "Point", "coordinates": [-1.190222, 43.660269]}}, {"type": "Feature", "properties": {"stop_name": "Saint-Geours", "type": "Gare accessible", "icone": "Icon1"}, "geometry": {"type": "Point", "coordinates": [-1.241391, 43.671226000000004]}}, {"type": "Feature", "properties": {"stop_name": "Saint-Vincent-de-Tyrosse", "type": "Gare accessible", "icone": "Icon1"}, "geometry": {"type": "Point", "coordinates": [-1.3064209999999998, 43.657803]}}, {"type": "Feature", "properties": {"stop_name": "B\u00e9nesse-Maremne", "type": "Gare accessible", "icone": "Icon1"}, "geometry": {"type": "Point", "coordinates": [-1.369893, 43.6277]}}, {"type": "Feature", "properties": {"stop_name": "Labenne", "type": "Gare accessible", "icone": "Icon1"}, "geometry": {"type": "Point", "coordinates": [-1.4289530000000001, 43.587212]}}, {"type": "Feature", "properties": {"stop_name": "Ondres", "type": "Gare accessible", "icone": "Icon1"}, "geometry": {"type": "Point", "coordinates": [-1.457179, 43.568581]}}, {"type": "Feature", "properties": {"stop_name": "Boucau", "type": "Gare accessible", "icone": "Icon1"}, "geometry": {"type": "Point", "coordinates": [-1.4904870000000001, 43.523447]}}, {"type": "Feature", "properties": {"stop_name": "Bayonne", "type": "Gare accessible", "icone": "Icon1"}, "geometry": {"type": "Point", "coordinates": [-1.4703680000000001, 43.496793]}}, {"type": "Feature", "properties": {"stop_name": "Biarritz", "type": "Gare accessible", "icone": "Icon1"}, "geometry": {"type": "Point", "coordinates": [-1.5459370000000001, 43.459387]}}, {"type": "Feature", "properties": {"stop_name": "Gu\u00e9thary", "type": "Gare accessible", "icone": "Icon1"}, "geometry": {"type": "Point", "coordinates": [-1.609972, 43.425238]}}, {"type": "Feature", "properties": {"stop_name": "Saint-Jean-de-Luz - Ciboure", "type": "Gare accessible", "icone": "Icon1"}, "geometry": {"type": "Point", "coordinates": [-1.6611810000000002, 43.385862]}}, {"type": "Feature", "properties": {"stop_name": "Les Deux Jumeaux", "type": "Gare accessible", "icone": "Icon1"}, "geometry": {"type": "Point", "coordinates": [-1.764527, 43.370065999999994]}}, {"type": "Feature", "properties": {"stop_name": "Hendaye", "type": "Gare accessible", "icone": "Icon1"}, "geometry": {"type": "Point", "coordinates": [-1.781724, 43.353132]}}, {"type": "Feature", "properties": {"stop_name": "Pau", "type": "Gare accessible", "icone": "Icon1"}, "geometry": {"type": "Point", "coordinates": [-0.369675, 43.291711]}}, {"type": "Feature", "properties": {"stop_name": "Artix", "type": "Gare accessible", "icone": "Icon1"}, "geometry": {"type": "Point", "coordinates": [-0.570082, 43.393195]}}, {"type": "Feature", "properties": {"stop_name": "Orthez", "type": "Gare accessible", "icone": "Icon1"}, "geometry": {"type": "Point", "coordinates": [-0.76776, 43.484242]}}, {"type": "Feature", "properties": {"stop_name": "Puyo\u00f4", "type": "Gare accessible", "icone": "Icon1"}, "geometry": {"type": "Point", "coordinates": [-0.9108120000000001, 43.524682]}}, {"type": "Feature", "properties": {"stop_name": "Tarbes", "type": "Gare accessible", "icone": "Icon1"}, "geometry": {"type": "Point", "coordinates": [0.069442, 43.239863]}}, {"type": "Feature", "properties": {"stop_name": "Lourdes", "type": "Gare accessible", "icone": "Icon1"}, "geometry": {"type": "Point", "coordinates": [-0.042186, 43.100429]}}, {"type": "Feature", "properties": {"stop_name": "Coarraze - Nay", "type": "Gare accessible", "icone": "Icon1"}, "geometry": {"type": "Point", "coordinates": [-0.24169899999999997, 43.18183]}}]}