{"type": "FeatureCollection", "features": [{"type": "Feature", "properties": {"stop_name": "Pontarlier", "type": "Gare s\u00e9lectionn\u00e9e", "icone": "Icon2"}, "geometry": {"type": "Point", "coordinates": [6.353418, 46.900988]}}, {"type": "Feature", "properties": {"stop_name": "Frasne", "type": "Gare accessible", "icone": "Icon1"}, "geometry": {"type": "Point", "coordinates": [6.157767, 46.857596]}}, {"type": "Feature", "properties": {"stop_name": "Labergement-Sainte-Marie", "type": "Gare accessible", "icone": "Icon1"}, "geometry": {"type": "Point", "coordinates": [6.28011, 46.77632]}}, {"type": "Feature", "properties": {"stop_name": "Vallorbe", "type": "Gare accessible", "icone": "Icon1"}, "geometry": {"type": "Point", "coordinates": [6.37057, 46.71242]}}, {"type": "Feature", "properties": {"stop_name": "Neuchatel", "type": "Gare accessible", "icone": "Icon1"}, "geometry": {"type": "Point", "coordinates": [6.93571, 46.99673]}}, {"type": "Feature", "properties": {"stop_name": "Travers", "type": "Gare accessible", "icone": "Icon1"}, "geometry": {"type": "Point", "coordinates": [6.67657, 46.942409999999995]}}, {"type": "Feature", "properties": {"stop_name": "Sainte-Colombe", "type": "Gare accessible", "icone": "Icon1"}, "geometry": {"type": "Point", "coordinates": [6.265825, 46.879016]}}, {"type": "Feature", "properties": {"stop_name": "La Rivi\u00e8re", "type": "Gare accessible", "icone": "Icon1"}, "geometry": {"type": "Point", "coordinates": [6.213448, 46.870007]}}, {"type": "Feature", "properties": {"stop_name": "Andelot", "type": "Gare accessible", "icone": "Icon1"}, "geometry": {"type": "Point", "coordinates": [5.923677, 46.859428]}}, {"type": "Feature", "properties": {"stop_name": "Mouchard", "type": "Gare accessible", "icone": "Icon1"}, "geometry": {"type": "Point", "coordinates": [5.799698, 46.976865000000004]}}, {"type": "Feature", "properties": {"stop_name": "Arc-et-Senans", "type": "Gare accessible", "icone": "Icon1"}, "geometry": {"type": "Point", "coordinates": [5.77683, 47.030473]}}, {"type": "Feature", "properties": {"stop_name": "Montbarrey", "type": "Gare accessible", "icone": "Icon1"}, "geometry": {"type": "Point", "coordinates": [5.63619, 47.036011]}}, {"type": "Feature", "properties": {"stop_name": "Dole", "type": "Gare accessible", "icone": "Icon1"}, "geometry": {"type": "Point", "coordinates": [5.48806, 47.09615]}}, {"type": "Feature", "properties": {"stop_name": "Dijon", "type": "Gare accessible", "icone": "Icon1"}, "geometry": {"type": "Point", "coordinates": [5.027256, 47.323411]}}]}