{"type": "FeatureCollection", "features": [{"type": "Feature", "properties": {"start": "Pont-Saint-Vincent", "stop_name": "Pont-Saint-Vincent", "type": "Gare s\u00e9lectionn\u00e9e", "iconstarte": "Icon2"}, "geometry": {"type": "Point", "coordinates": [6.10224, 48.602974]}}, {"type": "Feature", "properties": {"start": "Pont-Saint-Vincent", "stop_name": "Nancy", "type": "Gare accessible", "icone": "TER"}, "geometry": {"type": "Point", "coordinates": [6.174579, 48.689857]}}, {"type": "Feature", "properties": {"start": "Pont-Saint-Vincent", "stop_name": "Jarville-la-Malgrange", "type": "Gare accessible", "icone": "TER"}, "geometry": {"type": "Point", "coordinates": [6.202401, 48.669712]}}, {"type": "Feature", "properties": {"start": "Pont-Saint-Vincent", "stop_name": "Houdemont", "type": "Gare accessible", "icone": "TER"}, "geometry": {"type": "Point", "coordinates": [6.179726, 48.645525]}}, {"type": "Feature", "properties": {"start": "Pont-Saint-Vincent", "stop_name": "Ludres", "type": "Gare accessible", "icone": "TER"}, "geometry": {"type": "Point", "coordinates": [6.170647, 48.62188]}}, {"type": "Feature", "properties": {"start": "Pont-Saint-Vincent", "stop_name": "Messein", "type": "Gare accessible", "icone": "TER"}, "geometry": {"type": "Point", "coordinates": [6.137836, 48.612879]}}, {"type": "Feature", "properties": {"start": "Pont-Saint-Vincent", "stop_name": "Neuves-Maisons", "type": "Gare accessible", "icone": "TER"}, "geometry": {"type": "Point", "coordinates": [6.107932, 48.614832]}}]}