{"type": "FeatureCollection", "features": [{"type": "Feature", "properties": {"stop_name": "P\u00e9rigueux", "type": "Gare s\u00e9lectionn\u00e9e", "icone": "Icon2"}, "geometry": {"type": "Point", "coordinates": [0.707879, 45.187408000000005]}}, {"type": "Feature", "properties": {"stop_name": "Thenon", "type": "Gare accessible", "icone": "Icon1"}, "geometry": {"type": "Point", "coordinates": [1.068646, 45.16013]}}, {"type": "Feature", "properties": {"stop_name": "Condat - Le Lardin", "type": "Gare accessible", "icone": "Icon1"}, "geometry": {"type": "Point", "coordinates": [1.226727, 45.126732000000004]}}, {"type": "Feature", "properties": {"stop_name": "Terrasson", "type": "Gare accessible", "icone": "Icon1"}, "geometry": {"type": "Point", "coordinates": [1.300501, 45.135602]}}, {"type": "Feature", "properties": {"stop_name": "Brive-la-Gaillarde", "type": "Gare accessible", "icone": "Icon1"}, "geometry": {"type": "Point", "coordinates": [1.528634, 45.152601000000004]}}, {"type": "Feature", "properties": {"stop_name": "Niversac", "type": "Gare accessible", "icone": "Icon1"}, "geometry": {"type": "Point", "coordinates": [0.80827, 45.138259000000005]}}, {"type": "Feature", "properties": {"stop_name": "Boulazac Isle Manoire", "type": "Gare accessible", "icone": "Icon1"}, "geometry": {"type": "Point", "coordinates": [0.772787, 45.172052]}}, {"type": "Feature", "properties": {"stop_name": "Agen", "type": "Gare accessible", "icone": "Icon1"}, "geometry": {"type": "Point", "coordinates": [0.620867, 44.207967]}}, {"type": "Feature", "properties": {"stop_name": "Penne", "type": "Gare accessible", "icone": "Icon1"}, "geometry": {"type": "Point", "coordinates": [0.803115, 44.379825]}}, {"type": "Feature", "properties": {"stop_name": "Monsempron-Libos", "type": "Gare accessible", "icone": "Icon1"}, "geometry": {"type": "Point", "coordinates": [0.94142, 44.486391]}}, {"type": "Feature", "properties": {"stop_name": "Sauveterre-la-L\u00e9mance", "type": "Gare accessible", "icone": "Icon1"}, "geometry": {"type": "Point", "coordinates": [1.011767, 44.589405]}}, {"type": "Feature", "properties": {"stop_name": "Villefranche-du-P\u00e9rigord", "type": "Gare accessible", "icone": "Icon1"}, "geometry": {"type": "Point", "coordinates": [1.049302, 44.627019]}}, {"type": "Feature", "properties": {"stop_name": "Belv\u00e8s", "type": "Gare accessible", "icone": "Icon1"}, "geometry": {"type": "Point", "coordinates": [1.012071, 44.777341]}}, {"type": "Feature", "properties": {"stop_name": "Siorac-en-P\u00e9rigord", "type": "Gare accessible", "icone": "Icon1"}, "geometry": {"type": "Point", "coordinates": [0.984188, 44.819788]}}, {"type": "Feature", "properties": {"stop_name": "Le Buisson", "type": "Gare accessible", "icone": "Icon1"}, "geometry": {"type": "Point", "coordinates": [0.90818, 44.847245]}}, {"type": "Feature", "properties": {"stop_name": "Le Bugue", "type": "Gare accessible", "icone": "Icon1"}, "geometry": {"type": "Point", "coordinates": [0.943004, 44.905726]}}, {"type": "Feature", "properties": {"stop_name": "Les Eyzies", "type": "Gare accessible", "icone": "Icon1"}, "geometry": {"type": "Point", "coordinates": [1.008296, 44.941315]}}, {"type": "Feature", "properties": {"stop_name": "Les Versannes", "type": "Gare accessible", "icone": "Icon1"}, "geometry": {"type": "Point", "coordinates": [0.8573, 45.088825]}}, {"type": "Feature", "properties": {"stop_name": "Saint-Astier", "type": "Gare accessible", "icone": "Icon1"}, "geometry": {"type": "Point", "coordinates": [0.522902, 45.138993]}}, {"type": "Feature", "properties": {"stop_name": "Mussidan", "type": "Gare accessible", "icone": "Icon1"}, "geometry": {"type": "Point", "coordinates": [0.354068, 45.034377]}}, {"type": "Feature", "properties": {"stop_name": "Montpon-M\u00e9nest\u00e9rol", "type": "Gare accessible", "icone": "Icon1"}, "geometry": {"type": "Point", "coordinates": [0.159339, 45.006338]}}, {"type": "Feature", "properties": {"stop_name": "Saint-Seurin-sur-l'Isle", "type": "Gare accessible", "icone": "Icon1"}, "geometry": {"type": "Point", "coordinates": [-0.001996, 45.011464000000004]}}, {"type": "Feature", "properties": {"stop_name": "Saint-M\u00e9dard-de-Guizi\u00e8res", "type": "Gare accessible", "icone": "Icon1"}, "geometry": {"type": "Point", "coordinates": [-0.048811, 45.015558]}}, {"type": "Feature", "properties": {"stop_name": "Coutras", "type": "Gare accessible", "icone": "Icon1"}, "geometry": {"type": "Point", "coordinates": [-0.13136099999999998, 45.036709]}}, {"type": "Feature", "properties": {"stop_name": "Libourne", "type": "Gare accessible", "icone": "Icon1"}, "geometry": {"type": "Point", "coordinates": [-0.236359, 44.915904]}}, {"type": "Feature", "properties": {"stop_name": "Bordeaux Saint-Jean", "type": "Gare accessible", "icone": "Icon1"}, "geometry": {"type": "Point", "coordinates": [-0.556697, 44.825873]}}, {"type": "Feature", "properties": {"stop_name": "Limoges B\u00e9n\u00e9dictins", "type": "Gare accessible", "icone": "Icon1"}, "geometry": {"type": "Point", "coordinates": [1.267419, 45.836207]}}, {"type": "Feature", "properties": {"stop_name": "Nexon", "type": "Gare accessible", "icone": "Icon1"}, "geometry": {"type": "Point", "coordinates": [1.178431, 45.691565000000004]}}, {"type": "Feature", "properties": {"stop_name": "Bussi\u00e8re-Galant", "type": "Gare accessible", "icone": "Icon1"}, "geometry": {"type": "Point", "coordinates": [1.026176, 45.607611]}}, {"type": "Feature", "properties": {"stop_name": "La Coquille", "type": "Gare accessible", "icone": "Icon1"}, "geometry": {"type": "Point", "coordinates": [0.974417, 45.540778]}}, {"type": "Feature", "properties": {"stop_name": "Thiviers", "type": "Gare accessible", "icone": "Icon1"}, "geometry": {"type": "Point", "coordinates": [0.92135, 45.418977000000005]}}, {"type": "Feature", "properties": {"stop_name": "N\u00e9grondes", "type": "Gare accessible", "icone": "Icon1"}, "geometry": {"type": "Point", "coordinates": [0.861515, 45.346113]}}, {"type": "Feature", "properties": {"stop_name": "Agonac", "type": "Gare accessible", "icone": "Icon1"}, "geometry": {"type": "Point", "coordinates": [0.748653, 45.286605]}}, {"type": "Feature", "properties": {"stop_name": "Aubazines - Saint-Hilaire", "type": "Gare accessible", "icone": "Icon1"}, "geometry": {"type": "Point", "coordinates": [1.641235, 45.181678000000005]}}, {"type": "Feature", "properties": {"stop_name": "Cornil", "type": "Gare accessible", "icone": "Icon1"}, "geometry": {"type": "Point", "coordinates": [1.698189, 45.21522]}}, {"type": "Feature", "properties": {"stop_name": "Tulle", "type": "Gare accessible", "icone": "Icon1"}, "geometry": {"type": "Point", "coordinates": [1.756445, 45.258733]}}, {"type": "Feature", "properties": {"stop_name": "Cenon", "type": "Gare accessible", "icone": "Icon1"}, "geometry": {"type": "Point", "coordinates": [-0.5336489999999999, 44.856347]}}, {"type": "Feature", "properties": {"stop_name": "Neuvic", "type": "Gare accessible", "icone": "Icon1"}, "geometry": {"type": "Point", "coordinates": [0.445141, 45.100004]}}, {"type": "Feature", "properties": {"stop_name": "Razac", "type": "Gare accessible", "icone": "Icon1"}, "geometry": {"type": "Point", "coordinates": [0.599464, 45.165959]}}, {"type": "Feature", "properties": {"stop_name": "Saint-L\u00e9on-sur-l'Isle", "type": "Gare accessible", "icone": "Icon1"}, "geometry": {"type": "Point", "coordinates": [0.492142, 45.123194]}}, {"type": "Feature", "properties": {"stop_name": "La Rivi\u00e8re de Mansac", "type": "Gare accessible", "icone": "Icon1"}, "geometry": {"type": "Point", "coordinates": [1.365509, 45.139681]}}, {"type": "Feature", "properties": {"stop_name": "Saint-Pierre-de-Chignac", "type": "Gare accessible", "icone": "Icon1"}, "geometry": {"type": "Point", "coordinates": [0.856753, 45.123542]}}, {"type": "Feature", "properties": {"stop_name": "Corr\u00e8ze", "type": "Gare accessible", "icone": "Icon1"}, "geometry": {"type": "Point", "coordinates": [1.881079, 45.32948]}}, {"type": "Feature", "properties": {"stop_name": "Montaignac", "type": "Gare accessible", "icone": "Icon1"}, "geometry": {"type": "Point", "coordinates": [1.979753, 45.354690000000005]}}, {"type": "Feature", "properties": {"stop_name": "\u00c9gletons", "type": "Gare accessible", "icone": "Icon1"}, "geometry": {"type": "Point", "coordinates": [2.065209, 45.402476]}}, {"type": "Feature", "properties": {"stop_name": "Meymac", "type": "Gare accessible", "icone": "Icon1"}, "geometry": {"type": "Point", "coordinates": [2.163953, 45.530275]}}, {"type": "Feature", "properties": {"stop_name": "Ussel", "type": "Gare accessible", "icone": "Icon1"}, "geometry": {"type": "Point", "coordinates": [2.314403, 45.557382000000004]}}, {"type": "Feature", "properties": {"stop_name": "Laroque", "type": "Gare accessible", "icone": "Icon1"}, "geometry": {"type": "Point", "coordinates": [0.749793, 44.287521000000005]}}, {"type": "Feature", "properties": {"stop_name": "Sarlat", "type": "Gare accessible", "icone": "Icon1"}, "geometry": {"type": "Point", "coordinates": [1.220469, 44.877114]}}, {"type": "Feature", "properties": {"stop_name": "Saint-Cyprien", "type": "Gare accessible", "icone": "Icon1"}, "geometry": {"type": "Point", "coordinates": [1.043574, 44.863407]}}, {"type": "Feature", "properties": {"stop_name": "Ch\u00e2teau-l'\u00c9v\u00eaque", "type": "Gare accessible", "icone": "Icon1"}, "geometry": {"type": "Point", "coordinates": [0.688125, 45.244633]}}, {"type": "Feature", "properties": {"stop_name": "Lafarge", "type": "Gare accessible", "icone": "Icon1"}, "geometry": {"type": "Point", "coordinates": [1.130908, 45.633878]}}]}