{"type": "FeatureCollection", "features": [{"type": "Feature", "properties": {"start": "Ranguin", "stop_name": "Ranguin", "type": "Gare s\u00e9lectionn\u00e9e", "iconstarte": "Icon2"}, "geometry": {"type": "Point", "coordinates": [6.969316, 43.569167]}}, {"type": "Feature", "properties": {"start": "Ranguin", "stop_name": "Menton", "type": "Gare accessible", "icone": "TER"}, "geometry": {"type": "Point", "coordinates": [7.493212, 43.774435]}}, {"type": "Feature", "properties": {"start": "Ranguin", "stop_name": "Carnoles", "type": "Gare accessible", "icone": "TER"}, "geometry": {"type": "Point", "coordinates": [7.481427, 43.76204]}}, {"type": "Feature", "properties": {"start": "Ranguin", "stop_name": "Roquebrune-Cap-Martin", "type": "Gare accessible", "icone": "TER"}, "geometry": {"type": "Point", "coordinates": [7.457343, 43.760618]}}, {"type": "Feature", "properties": {"start": "Ranguin", "stop_name": "Monaco-Monte-Carlo", "type": "Gare accessible", "icone": "TER"}, "geometry": {"type": "Point", "coordinates": [7.419747, 43.738414]}}, {"type": "Feature", "properties": {"start": "Ranguin", "stop_name": "Cap-d'Ail", "type": "Gare accessible", "icone": "TER"}, "geometry": {"type": "Point", "coordinates": [7.394384, 43.7206]}}, {"type": "Feature", "properties": {"start": "Ranguin", "stop_name": "\u00c8ze", "type": "Gare accessible", "icone": "TER"}, "geometry": {"type": "Point", "coordinates": [7.356948, 43.722327]}}, {"type": "Feature", "properties": {"start": "Ranguin", "stop_name": "Beaulieu-sur-Mer", "type": "Gare accessible", "icone": "TER"}, "geometry": {"type": "Point", "coordinates": [7.331631, 43.706692]}}, {"type": "Feature", "properties": {"start": "Ranguin", "stop_name": "Villefranche-sur-Mer", "type": "Gare accessible", "icone": "TER"}, "geometry": {"type": "Point", "coordinates": [7.314245, 43.707047]}}, {"type": "Feature", "properties": {"start": "Ranguin", "stop_name": "Nice Riquier", "type": "Gare accessible", "icone": "TER"}, "geometry": {"type": "Point", "coordinates": [7.290175, 43.705554]}}, {"type": "Feature", "properties": {"start": "Ranguin", "stop_name": "Nice-Ville", "type": "Gare accessible", "icone": "TER"}, "geometry": {"type": "Point", "coordinates": [7.261904, 43.704556]}}, {"type": "Feature", "properties": {"start": "Ranguin", "stop_name": "Nice Saint-Augustin", "type": "Gare accessible", "icone": "TER"}, "geometry": {"type": "Point", "coordinates": [7.216199, 43.670728]}}, {"type": "Feature", "properties": {"start": "Ranguin", "stop_name": "Saint-Laurent-du-Var", "type": "Gare accessible", "icone": "TER"}, "geometry": {"type": "Point", "coordinates": [7.194452, 43.662468]}}, {"type": "Feature", "properties": {"start": "Ranguin", "stop_name": "Cros de Cagnes", "type": "Gare accessible", "icone": "TER"}, "geometry": {"type": "Point", "coordinates": [7.167112, 43.660485]}}, {"type": "Feature", "properties": {"start": "Ranguin", "stop_name": "Cagnes-sur-Mer", "type": "Gare accessible", "icone": "TER"}, "geometry": {"type": "Point", "coordinates": [7.148122, 43.657687]}}, {"type": "Feature", "properties": {"start": "Ranguin", "stop_name": "Villeneuve-Loubet-Plage", "type": "Gare accessible", "icone": "TER"}, "geometry": {"type": "Point", "coordinates": [7.134066, 43.629928]}}, {"type": "Feature", "properties": {"start": "Ranguin", "stop_name": "Biot", "type": "Gare accessible", "icone": "TER"}, "geometry": {"type": "Point", "coordinates": [7.126192, 43.610937]}}, {"type": "Feature", "properties": {"start": "Ranguin", "stop_name": "Antibes", "type": "Gare accessible", "icone": "TER"}, "geometry": {"type": "Point", "coordinates": [7.119913, 43.585971]}}, {"type": "Feature", "properties": {"start": "Ranguin", "stop_name": "Juan les Pins", "type": "Gare accessible", "icone": "TER"}, "geometry": {"type": "Point", "coordinates": [7.111472, 43.570939]}}, {"type": "Feature", "properties": {"start": "Ranguin", "stop_name": "Golfe Juan Vallauris", "type": "Gare accessible", "icone": "TER"}, "geometry": {"type": "Point", "coordinates": [7.073615, 43.566532]}}, {"type": "Feature", "properties": {"start": "Ranguin", "stop_name": "Cannes", "type": "Gare accessible", "icone": "TER"}, "geometry": {"type": "Point", "coordinates": [7.019711, 43.553908]}}, {"type": "Feature", "properties": {"start": "Ranguin", "stop_name": "Le Bosquet", "type": "Gare accessible", "icone": "TER"}, "geometry": {"type": "Point", "coordinates": [6.981618, 43.551608]}}, {"type": "Feature", "properties": {"start": "Ranguin", "stop_name": "La Fray\u00e8re", "type": "Gare accessible", "icone": "TER"}, "geometry": {"type": "Point", "coordinates": [6.972046, 43.558143]}}, {"type": "Feature", "properties": {"start": "Ranguin", "stop_name": "Mouans-Sartoux", "type": "Gare accessible", "icone": "TER"}, "geometry": {"type": "Point", "coordinates": [6.974218, 43.620408]}}, {"type": "Feature", "properties": {"start": "Ranguin", "stop_name": "Grasse", "type": "Gare accessible", "icone": "TER"}, "geometry": {"type": "Point", "coordinates": [6.92555, 43.653344]}}, {"type": "Feature", "properties": {"start": "Ranguin", "stop_name": "VENTIMIGLIA", "type": "Gare accessible", "icone": "TER"}, "geometry": {"type": "Point", "coordinates": [7.610233, 43.792569]}}, {"type": "Feature", "properties": {"start": "Ranguin", "stop_name": "Menton Garavan", "type": "Gare accessible", "icone": "TER"}, "geometry": {"type": "Point", "coordinates": [7.51728, 43.785187]}}]}