{"type": "FeatureCollection", "features": [{"type": "Feature", "properties": {"stop_name": "Rennes", "type": "Gare s\u00e9lectionn\u00e9e", "icone": "Icon2"}, "geometry": {"type": "Point", "coordinates": [-1.6727439999999998, 48.103517]}}, {"type": "Feature", "properties": {"stop_name": "Saint-Brieuc", "type": "Gare accessible", "icone": "Icon1"}, "geometry": {"type": "Point", "coordinates": [-2.765, 48.50758]}}, {"type": "Feature", "properties": {"stop_name": "Lamballe", "type": "Gare accessible", "icone": "Icon1"}, "geometry": {"type": "Point", "coordinates": [-2.511546, 48.46606]}}, {"type": "Feature", "properties": {"stop_name": "Broons", "type": "Gare accessible", "icone": "Icon1"}, "geometry": {"type": "Point", "coordinates": [-2.235746, 48.333397999999995]}}, {"type": "Feature", "properties": {"stop_name": "Caulnes", "type": "Gare accessible", "icone": "Icon1"}, "geometry": {"type": "Point", "coordinates": [-2.155593, 48.284426]}}, {"type": "Feature", "properties": {"stop_name": "Montauban-de-Bretagne", "type": "Gare accessible", "icone": "Icon1"}, "geometry": {"type": "Point", "coordinates": [-2.052675, 48.190241]}}, {"type": "Feature", "properties": {"stop_name": "Montfort-sur-Meu", "type": "Gare accessible", "icone": "Icon1"}, "geometry": {"type": "Point", "coordinates": [-1.949141, 48.138878000000005]}}, {"type": "Feature", "properties": {"stop_name": "Ker Lann", "type": "Gare accessible", "icone": "Icon1"}, "geometry": {"type": "Point", "coordinates": [-1.7398310000000001, 48.042986]}}, {"type": "Feature", "properties": {"stop_name": "Guichen - Bourg-des-Comptes", "type": "Gare accessible", "icone": "Icon1"}, "geometry": {"type": "Point", "coordinates": [-1.760184, 47.935096]}}, {"type": "Feature", "properties": {"stop_name": "Messac - Guipry", "type": "Gare accessible", "icone": "Icon1"}, "geometry": {"type": "Point", "coordinates": [-1.8182200000000002, 47.82225]}}, {"type": "Feature", "properties": {"stop_name": "Bruz", "type": "Gare accessible", "icone": "Icon1"}, "geometry": {"type": "Point", "coordinates": [-1.751587, 48.02858]}}, {"type": "Feature", "properties": {"stop_name": "Nantes", "type": "Gare accessible", "icone": "Icon1"}, "geometry": {"type": "Point", "coordinates": [-1.5420770000000001, 47.217490999999995]}}, {"type": "Feature", "properties": {"stop_name": "Vannes", "type": "Gare accessible", "icone": "Icon1"}, "geometry": {"type": "Point", "coordinates": [-2.75245, 47.665169]}}, {"type": "Feature", "properties": {"stop_name": "Questembert", "type": "Gare accessible", "icone": "Icon1"}, "geometry": {"type": "Point", "coordinates": [-2.449621, 47.683021000000004]}}, {"type": "Feature", "properties": {"stop_name": "Malansac", "type": "Gare accessible", "icone": "Icon1"}, "geometry": {"type": "Point", "coordinates": [-2.2958689999999997, 47.675559]}}, {"type": "Feature", "properties": {"stop_name": "Redon", "type": "Gare accessible", "icone": "Icon1"}, "geometry": {"type": "Point", "coordinates": [-2.08777, 47.652004]}}, {"type": "Feature", "properties": {"stop_name": "Fougeray - Langon", "type": "Gare accessible", "icone": "Icon1"}, "geometry": {"type": "Point", "coordinates": [-1.851315, 47.729865000000004]}}, {"type": "Feature", "properties": {"stop_name": "Caen", "type": "Gare accessible", "icone": "Icon1"}, "geometry": {"type": "Point", "coordinates": [-0.347613, 49.176353999999996]}}, {"type": "Feature", "properties": {"stop_name": "Bayeux", "type": "Gare accessible", "icone": "Icon1"}, "geometry": {"type": "Point", "coordinates": [-0.6981, 49.269729]}}, {"type": "Feature", "properties": {"stop_name": "Lison", "type": "Gare accessible", "icone": "Icon1"}, "geometry": {"type": "Point", "coordinates": [-1.050339, 49.226834000000004]}}, {"type": "Feature", "properties": {"stop_name": "Saint-L\u00f4", "type": "Gare accessible", "icone": "Icon1"}, "geometry": {"type": "Point", "coordinates": [-1.099525, 49.116975]}}, {"type": "Feature", "properties": {"stop_name": "Coutances", "type": "Gare accessible", "icone": "Icon1"}, "geometry": {"type": "Point", "coordinates": [-1.441726, 49.042928]}}, {"type": "Feature", "properties": {"stop_name": "Granville", "type": "Gare accessible", "icone": "Icon1"}, "geometry": {"type": "Point", "coordinates": [-1.587547, 48.838322]}}, {"type": "Feature", "properties": {"stop_name": "Folligny", "type": "Gare accessible", "icone": "Icon1"}, "geometry": {"type": "Point", "coordinates": [-1.407223, 48.829946]}}, {"type": "Feature", "properties": {"stop_name": "Avranches", "type": "Gare accessible", "icone": "Icon1"}, "geometry": {"type": "Point", "coordinates": [-1.369612, 48.690041]}}, {"type": "Feature", "properties": {"stop_name": "Pontorson - Mont-Saint-Michel", "type": "Gare accessible", "icone": "Icon1"}, "geometry": {"type": "Point", "coordinates": [-1.504931, 48.552729]}}, {"type": "Feature", "properties": {"stop_name": "Dol-de-Bretagne", "type": "Gare accessible", "icone": "Icon1"}, "geometry": {"type": "Point", "coordinates": [-1.750536, 48.54425]}}, {"type": "Feature", "properties": {"stop_name": "Pontchaillou", "type": "Gare accessible", "icone": "Icon1"}, "geometry": {"type": "Point", "coordinates": [-1.6911180000000001, 48.118641]}}, {"type": "Feature", "properties": {"stop_name": "Bretteville - Norrey", "type": "Gare accessible", "icone": "Icon1"}, "geometry": {"type": "Point", "coordinates": [-0.51274, 49.203410999999996]}}, {"type": "Feature", "properties": {"stop_name": "Audrieu", "type": "Gare accessible", "icone": "Icon1"}, "geometry": {"type": "Point", "coordinates": [-0.596014, 49.216132]}}, {"type": "Feature", "properties": {"stop_name": "Le Molay-Littry", "type": "Gare accessible", "icone": "Icon1"}, "geometry": {"type": "Point", "coordinates": [-0.8809739999999999, 49.249326]}}, {"type": "Feature", "properties": {"stop_name": "Ch\u00e2teaubriant", "type": "Gare accessible", "icone": "Icon1"}, "geometry": {"type": "Point", "coordinates": [-1.371515, 47.717521000000005]}}, {"type": "Feature", "properties": {"stop_name": "Martign\u00e9-Ferchaud", "type": "Gare accessible", "icone": "Icon1"}, "geometry": {"type": "Point", "coordinates": [-1.313808, 47.832044]}}, {"type": "Feature", "properties": {"stop_name": "Retiers", "type": "Gare accessible", "icone": "Icon1"}, "geometry": {"type": "Point", "coordinates": [-1.389626, 47.913257]}}, {"type": "Feature", "properties": {"stop_name": "Le Theil-de-Bretagne", "type": "Gare accessible", "icone": "Icon1"}, "geometry": {"type": "Point", "coordinates": [-1.431993, 47.918742]}}, {"type": "Feature", "properties": {"stop_name": "Janz\u00e9", "type": "Gare accessible", "icone": "Icon1"}, "geometry": {"type": "Point", "coordinates": [-1.497627, 47.955308]}}, {"type": "Feature", "properties": {"stop_name": "Corps-Nuds", "type": "Gare accessible", "icone": "Icon1"}, "geometry": {"type": "Point", "coordinates": [-1.575472, 47.985167]}}, {"type": "Feature", "properties": {"stop_name": "Saint-Armel", "type": "Gare accessible", "icone": "Icon1"}, "geometry": {"type": "Point", "coordinates": [-1.594774, 48.014340000000004]}}, {"type": "Feature", "properties": {"stop_name": "Vern", "type": "Gare accessible", "icone": "Icon1"}, "geometry": {"type": "Point", "coordinates": [-1.596529, 48.046849]}}, {"type": "Feature", "properties": {"stop_name": "La Poterie", "type": "Gare accessible", "icone": "Icon1"}, "geometry": {"type": "Point", "coordinates": [-1.630773, 48.092345]}}, {"type": "Feature", "properties": {"stop_name": "Dinan", "type": "Gare accessible", "icone": "Icon1"}, "geometry": {"type": "Point", "coordinates": [-2.053425, 48.456715]}}, {"type": "Feature", "properties": {"stop_name": "Betton", "type": "Gare accessible", "icone": "Icon1"}, "geometry": {"type": "Point", "coordinates": [-1.634475, 48.18148]}}, {"type": "Feature", "properties": {"stop_name": "Chevaign\u00e9", "type": "Gare accessible", "icone": "Icon1"}, "geometry": {"type": "Point", "coordinates": [-1.63036, 48.208582]}}, {"type": "Feature", "properties": {"stop_name": "Saint-Germain-sur-Ille", "type": "Gare accessible", "icone": "Icon1"}, "geometry": {"type": "Point", "coordinates": [-1.6538849999999998, 48.239662]}}, {"type": "Feature", "properties": {"stop_name": "Saint-M\u00e9dard-sur-Ille", "type": "Gare accessible", "icone": "Icon1"}, "geometry": {"type": "Point", "coordinates": [-1.667489, 48.274221999999995]}}, {"type": "Feature", "properties": {"stop_name": "Montreuil-sur-Ille", "type": "Gare accessible", "icone": "Icon1"}, "geometry": {"type": "Point", "coordinates": [-1.6741549999999998, 48.307292]}}, {"type": "Feature", "properties": {"stop_name": "Saint-Malo", "type": "Gare accessible", "icone": "Icon1"}, "geometry": {"type": "Point", "coordinates": [-2.0041580000000003, 48.646859]}}, {"type": "Feature", "properties": {"stop_name": "La Gouesni\u00e8re - Cancale", "type": "Gare accessible", "icone": "Icon1"}, "geometry": {"type": "Point", "coordinates": [-1.905688, 48.614456]}}, {"type": "Feature", "properties": {"stop_name": "Combourg", "type": "Gare accessible", "icone": "Icon1"}, "geometry": {"type": "Point", "coordinates": [-1.7279200000000001, 48.416090000000004]}}, {"type": "Feature", "properties": {"stop_name": "La Fresnais", "type": "Gare accessible", "icone": "Icon1"}, "geometry": {"type": "Point", "coordinates": [-1.843107, 48.593647]}}, {"type": "Feature", "properties": {"stop_name": "Ding\u00e9", "type": "Gare accessible", "icone": "Icon1"}, "geometry": {"type": "Point", "coordinates": [-1.685973, 48.350738]}}, {"type": "Feature", "properties": {"stop_name": "Bonnemain", "type": "Gare accessible", "icone": "Icon1"}, "geometry": {"type": "Point", "coordinates": [-1.7654130000000001, 48.476405]}}, {"type": "Feature", "properties": {"stop_name": "Cesson-S\u00e9vign\u00e9", "type": "Gare accessible", "icone": "Icon1"}, "geometry": {"type": "Point", "coordinates": [-1.6021100000000001, 48.112809999999996]}}, {"type": "Feature", "properties": {"stop_name": "Noyal - Acign\u00e9", "type": "Gare accessible", "icone": "Icon1"}, "geometry": {"type": "Point", "coordinates": [-1.527765, 48.118792]}}, {"type": "Feature", "properties": {"stop_name": "Servon", "type": "Gare accessible", "icone": "Icon1"}, "geometry": {"type": "Point", "coordinates": [-1.4652100000000001, 48.112213]}}, {"type": "Feature", "properties": {"stop_name": "Ch\u00e2teaubourg", "type": "Gare accessible", "icone": "Icon1"}, "geometry": {"type": "Point", "coordinates": [-1.405159, 48.106361]}}, {"type": "Feature", "properties": {"stop_name": "Les Lacs", "type": "Gare accessible", "icone": "Icon1"}, "geometry": {"type": "Point", "coordinates": [-1.322266, 48.108891]}}, {"type": "Feature", "properties": {"stop_name": "Vitr\u00e9", "type": "Gare accessible", "icone": "Icon1"}, "geometry": {"type": "Point", "coordinates": [-1.211754, 48.122671000000004]}}, {"type": "Feature", "properties": {"stop_name": "La Brohini\u00e8re", "type": "Gare accessible", "icone": "Icon1"}, "geometry": {"type": "Point", "coordinates": [-2.110452, 48.213471999999996]}}, {"type": "Feature", "properties": {"stop_name": "Breteil", "type": "Gare accessible", "icone": "Icon1"}, "geometry": {"type": "Point", "coordinates": [-1.897545, 48.140539000000004]}}, {"type": "Feature", "properties": {"stop_name": "L'Hermitage - Mordelles", "type": "Gare accessible", "icone": "Icon1"}, "geometry": {"type": "Point", "coordinates": [-1.8192099999999998, 48.123282]}}, {"type": "Feature", "properties": {"stop_name": "Qu\u00e9dillac", "type": "Gare accessible", "icone": "Icon1"}, "geometry": {"type": "Point", "coordinates": [-2.14522, 48.24848]}}, {"type": "Feature", "properties": {"stop_name": "Pl\u00e9n\u00e9e-Jugon", "type": "Gare accessible", "icone": "Icon1"}, "geometry": {"type": "Point", "coordinates": [-2.3546110000000002, 48.376656]}}, {"type": "Feature", "properties": {"stop_name": "Plestan", "type": "Gare accessible", "icone": "Icon1"}, "geometry": {"type": "Point", "coordinates": [-2.442484, 48.425712]}}, {"type": "Feature", "properties": {"stop_name": "Yffiniac", "type": "Gare accessible", "icone": "Icon1"}, "geometry": {"type": "Point", "coordinates": [-2.652447, 48.470083]}}, {"type": "Feature", "properties": {"stop_name": "Brest", "type": "Gare accessible", "icone": "Icon1"}, "geometry": {"type": "Point", "coordinates": [-4.480306, 48.38762]}}, {"type": "Feature", "properties": {"stop_name": "Landerneau", "type": "Gare accessible", "icone": "Icon1"}, "geometry": {"type": "Point", "coordinates": [-4.256528, 48.453571999999994]}}, {"type": "Feature", "properties": {"stop_name": "Landivisiau", "type": "Gare accessible", "icone": "Icon1"}, "geometry": {"type": "Point", "coordinates": [-4.082180999999999, 48.496002000000004]}}, {"type": "Feature", "properties": {"stop_name": "Morlaix", "type": "Gare accessible", "icone": "Icon1"}, "geometry": {"type": "Point", "coordinates": [-3.8325139999999998, 48.57797]}}, {"type": "Feature", "properties": {"stop_name": "Plouaret Tr\u00e9gor", "type": "Gare accessible", "icone": "Icon1"}, "geometry": {"type": "Point", "coordinates": [-3.4669790000000003, 48.606421999999995]}}, {"type": "Feature", "properties": {"stop_name": "Guingamp", "type": "Gare accessible", "icone": "Icon1"}, "geometry": {"type": "Point", "coordinates": [-3.143343, 48.555659000000006]}}, {"type": "Feature", "properties": {"stop_name": "Pl\u00e9ch\u00e2tel", "type": "Gare accessible", "icone": "Icon1"}, "geometry": {"type": "Point", "coordinates": [-1.7763520000000002, 47.871860999999996]}}, {"type": "Feature", "properties": {"stop_name": "Saint-Senoux - Pl\u00e9ch\u00e2tel", "type": "Gare accessible", "icone": "Icon1"}, "geometry": {"type": "Point", "coordinates": [-1.7661380000000002, 47.897837]}}, {"type": "Feature", "properties": {"stop_name": "Laill\u00e9", "type": "Gare accessible", "icone": "Icon1"}, "geometry": {"type": "Point", "coordinates": [-1.749252, 47.971069]}}, {"type": "Feature", "properties": {"stop_name": "Saint-Jacques-de-la-Lande", "type": "Gare accessible", "icone": "Icon1"}, "geometry": {"type": "Point", "coordinates": [-1.7142369999999998, 48.067098]}}, {"type": "Feature", "properties": {"stop_name": "Besl\u00e9", "type": "Gare accessible", "icone": "Icon1"}, "geometry": {"type": "Point", "coordinates": [-1.8706369999999999, 47.698879]}}, {"type": "Feature", "properties": {"stop_name": "Mass\u00e9rac", "type": "Gare accessible", "icone": "Icon1"}, "geometry": {"type": "Point", "coordinates": [-1.9143700000000001, 47.674599]}}, {"type": "Feature", "properties": {"stop_name": "Quimper", "type": "Gare accessible", "icone": "Icon1"}, "geometry": {"type": "Point", "coordinates": [-4.092103, 47.994455]}}, {"type": "Feature", "properties": {"stop_name": "Rosporden", "type": "Gare accessible", "icone": "Icon1"}, "geometry": {"type": "Point", "coordinates": [-3.832702, 47.960224]}}, {"type": "Feature", "properties": {"stop_name": "Quimperl\u00e9", "type": "Gare accessible", "icone": "Icon1"}, "geometry": {"type": "Point", "coordinates": [-3.552693, 47.869375]}}, {"type": "Feature", "properties": {"stop_name": "Lorient", "type": "Gare accessible", "icone": "Icon1"}, "geometry": {"type": "Point", "coordinates": [-3.366221, 47.755596999999995]}}, {"type": "Feature", "properties": {"stop_name": "Hennebont", "type": "Gare accessible", "icone": "Icon1"}, "geometry": {"type": "Point", "coordinates": [-3.285796, 47.79913]}}, {"type": "Feature", "properties": {"stop_name": "Auray", "type": "Gare accessible", "icone": "Icon1"}, "geometry": {"type": "Point", "coordinates": [-2.9993630000000002, 47.680085]}}, {"type": "Feature", "properties": {"stop_name": "Laval", "type": "Gare accessible", "icone": "Icon1"}, "geometry": {"type": "Point", "coordinates": [-0.760929, 48.076254999999996]}}, {"type": "Feature", "properties": {"stop_name": "Le Genest", "type": "Gare accessible", "icone": "Icon1"}, "geometry": {"type": "Point", "coordinates": [-0.8856209999999999, 48.096740999999994]}}, {"type": "Feature", "properties": {"stop_name": "Port-Brillet", "type": "Gare accessible", "icone": "Icon1"}, "geometry": {"type": "Point", "coordinates": [-0.9740469999999999, 48.110707]}}, {"type": "Feature", "properties": {"stop_name": "Saint-Pierre-la-Cour", "type": "Gare accessible", "icone": "Icon1"}, "geometry": {"type": "Point", "coordinates": [-1.02558, 48.113651000000004]}}, {"type": "Feature", "properties": {"stop_name": "\u00c9vron", "type": "Gare accessible", "icone": "Icon1"}, "geometry": {"type": "Point", "coordinates": [-0.39715500000000004, 48.155516999999996]}}, {"type": "Feature", "properties": {"stop_name": "Sill\u00e9-le-Guillaume", "type": "Gare accessible", "icone": "Icon1"}, "geometry": {"type": "Point", "coordinates": [-0.128891, 48.181795]}}, {"type": "Feature", "properties": {"stop_name": "Conlie", "type": "Gare accessible", "icone": "Icon1"}, "geometry": {"type": "Point", "coordinates": [-0.01162, 48.127221]}}, {"type": "Feature", "properties": {"stop_name": "Le Mans", "type": "Gare accessible", "icone": "Icon1"}, "geometry": {"type": "Point", "coordinates": [0.192614, 47.995615]}}, {"type": "Feature", "properties": {"stop_name": "Neau", "type": "Gare accessible", "icone": "Icon1"}, "geometry": {"type": "Point", "coordinates": [-0.47657, 48.157526000000004]}}, {"type": "Feature", "properties": {"stop_name": "Monts\u00fbrs", "type": "Gare accessible", "icone": "Icon1"}, "geometry": {"type": "Point", "coordinates": [-0.550642, 48.141490000000005]}}, {"type": "Feature", "properties": {"stop_name": "Ancenis", "type": "Gare accessible", "icone": "Icon1"}, "geometry": {"type": "Point", "coordinates": [-1.177763, 47.369334]}}, {"type": "Feature", "properties": {"stop_name": "Angers Saint-Laud", "type": "Gare accessible", "icone": "Icon1"}, "geometry": {"type": "Point", "coordinates": [-0.55677, 47.464649]}}, {"type": "Feature", "properties": {"stop_name": "Sabl\u00e9-sur-Sarthe", "type": "Gare accessible", "icone": "Icon1"}, "geometry": {"type": "Point", "coordinates": [-0.342, 47.841759]}}, {"type": "Feature", "properties": {"stop_name": "Savenay", "type": "Gare accessible", "icone": "Icon1"}, "geometry": {"type": "Point", "coordinates": [-1.951007, 47.358602000000005]}}, {"type": "Feature", "properties": {"stop_name": "Saint-Nazaire", "type": "Gare accessible", "icone": "Icon1"}, "geometry": {"type": "Point", "coordinates": [-2.2110790000000002, 47.286489]}}, {"type": "Feature", "properties": {"stop_name": "Pornichet", "type": "Gare accessible", "icone": "Icon1"}, "geometry": {"type": "Point", "coordinates": [-2.344865, 47.27043]}}, {"type": "Feature", "properties": {"stop_name": "La Baule les Pins", "type": "Gare accessible", "icone": "Icon1"}, "geometry": {"type": "Point", "coordinates": [-2.3648849999999997, 47.28345]}}, {"type": "Feature", "properties": {"stop_name": "La Baule-Escoublac", "type": "Gare accessible", "icone": "Icon1"}, "geometry": {"type": "Point", "coordinates": [-2.38921, 47.288459]}}, {"type": "Feature", "properties": {"stop_name": "Le Pouliguen", "type": "Gare accessible", "icone": "Icon1"}, "geometry": {"type": "Point", "coordinates": [-2.4331259999999997, 47.282503999999996]}}, {"type": "Feature", "properties": {"stop_name": "Batz-sur-Mer", "type": "Gare accessible", "icone": "Icon1"}, "geometry": {"type": "Point", "coordinates": [-2.478869, 47.280854999999995]}}, {"type": "Feature", "properties": {"stop_name": "Le Croisic", "type": "Gare accessible", "icone": "Icon1"}, "geometry": {"type": "Point", "coordinates": [-2.50734, 47.289889]}}]}