{"type": "FeatureCollection", "features": [{"type": "Feature", "properties": {"stop_name": "Romilly-la-Puthenaye", "type": "Gare s\u00e9lectionn\u00e9e", "icone": "Icon2"}, "geometry": {"type": "Point", "coordinates": [0.854862, 49.003921000000005]}}, {"type": "Feature", "properties": {"stop_name": "Serquigny", "type": "Gare accessible", "icone": "Icon1"}, "geometry": {"type": "Point", "coordinates": [0.719289, 49.107753]}}, {"type": "Feature", "properties": {"stop_name": "Beaumont-le-Roger", "type": "Gare accessible", "icone": "Icon1"}, "geometry": {"type": "Point", "coordinates": [0.772699, 49.0742]}}, {"type": "Feature", "properties": {"stop_name": "Conches", "type": "Gare accessible", "icone": "Icon1"}, "geometry": {"type": "Point", "coordinates": [0.937889, 48.96236]}}, {"type": "Feature", "properties": {"stop_name": "La Bonneville-sur-Iton", "type": "Gare accessible", "icone": "Icon1"}, "geometry": {"type": "Point", "coordinates": [1.035073, 48.988464]}}, {"type": "Feature", "properties": {"stop_name": "\u00c9vreux Normandie", "type": "Gare accessible", "icone": "Icon1"}, "geometry": {"type": "Point", "coordinates": [1.149629, 49.018747999999995]}}, {"type": "Feature", "properties": {"stop_name": "Bueil", "type": "Gare accessible", "icone": "Icon1"}, "geometry": {"type": "Point", "coordinates": [1.443436, 48.925365]}}, {"type": "Feature", "properties": {"stop_name": "Br\u00e9val", "type": "Gare accessible", "icone": "Icon1"}, "geometry": {"type": "Point", "coordinates": [1.54191, 48.94336]}}, {"type": "Feature", "properties": {"stop_name": "Mantes-la-Jolie", "type": "Gare accessible", "icone": "Icon1"}, "geometry": {"type": "Point", "coordinates": [1.70337, 48.98984]}}, {"type": "Feature", "properties": {"stop_name": "Paris Saint-Lazare", "type": "Gare accessible", "icone": "Icon1"}, "geometry": {"type": "Point", "coordinates": [2.325331, 48.876242]}}, {"type": "Feature", "properties": {"stop_name": "Caen", "type": "Gare accessible", "icone": "Icon1"}, "geometry": {"type": "Point", "coordinates": [-0.347613, 49.176353999999996]}}, {"type": "Feature", "properties": {"stop_name": "Fr\u00e9nouville - Cagny", "type": "Gare accessible", "icone": "Icon1"}, "geometry": {"type": "Point", "coordinates": [-0.26041, 49.141155]}}, {"type": "Feature", "properties": {"stop_name": "Moult - Argences", "type": "Gare accessible", "icone": "Icon1"}, "geometry": {"type": "Point", "coordinates": [-0.186436, 49.111185]}}, {"type": "Feature", "properties": {"stop_name": "M\u00e9zidon - Canon", "type": "Gare accessible", "icone": "Icon1"}, "geometry": {"type": "Point", "coordinates": [-0.074914, 49.070914]}}, {"type": "Feature", "properties": {"stop_name": "Lisieux", "type": "Gare accessible", "icone": "Icon1"}, "geometry": {"type": "Point", "coordinates": [0.231143, 49.138298999999996]}}, {"type": "Feature", "properties": {"stop_name": "Bernay", "type": "Gare accessible", "icone": "Icon1"}, "geometry": {"type": "Point", "coordinates": [0.595688, 49.087115999999995]}}]}