{"type": "FeatureCollection", "features": [{"type": "Feature", "properties": {"stop_name": "Saint-Gervais - Ch\u00e2teau-Neuf", "type": "Gare s\u00e9lectionn\u00e9e"}, "geometry": {"type": "Point", "coordinates": [2.808136, 46.030316]}}, {"type": "Feature", "properties": {"stop_name": "Clermont-Ferrand", "type": "Gare accessible"}, "geometry": {"type": "Point", "coordinates": [3.100543, 45.778945]}}, {"type": "Feature", "properties": {"stop_name": "Volvic", "type": "Gare accessible"}, "geometry": {"type": "Point", "coordinates": [3.003083, 45.864649]}}, {"type": "Feature", "properties": {"stop_name": "Moulet-Marcenat", "type": "Gare accessible"}, "geometry": {"type": "Point", "coordinates": [2.999034, 45.880693]}}, {"type": "Feature", "properties": {"stop_name": "Paugnat Eglise", "type": "Gare accessible"}, "geometry": {"type": "Point", "coordinates": [2.983502, 45.885835]}}, {"type": "Feature", "properties": {"stop_name": "Saint-Georges-De-Mons R \u00c9coles", "type": "Gare accessible"}, "geometry": {"type": "Point", "coordinates": [2.840699, 45.937554999999996]}}, {"type": "Feature", "properties": {"stop_name": "Les Ancizes St Georges Usine", "type": "Gare accessible"}, "geometry": {"type": "Point", "coordinates": [2.810006, 45.921765]}}, {"type": "Feature", "properties": {"stop_name": "Les Ancizes St Georges Bourg", "type": "Gare accessible"}, "geometry": {"type": "Point", "coordinates": [2.810416, 45.924694]}}, {"type": "Feature", "properties": {"stop_name": "Saint-Gervais Chateauneuf LPA", "type": "Gare accessible"}, "geometry": {"type": "Point", "coordinates": [2.808423, 46.030506]}}, {"type": "Feature", "properties": {"stop_name": "Saint-\u00c9loy-les-Mines", "type": "Gare accessible"}, "geometry": {"type": "Point", "coordinates": [2.834344, 46.169523999999996]}}, {"type": "Feature", "properties": {"stop_name": "Saint-\u00c9loy-les-Mines Lyc\u00e9e", "type": "Gare accessible"}, "geometry": {"type": "Point", "coordinates": [2.832855, 46.159641]}}, {"type": "Feature", "properties": {"stop_name": "Ch\u00e2teauneuf-les-Bains Lamontgie", "type": "Gare accessible"}, "geometry": {"type": "Point", "coordinates": [2.896332, 46.025605999999996]}}, {"type": "Feature", "properties": {"stop_name": "Manzat", "type": "Gare accessible"}, "geometry": {"type": "Point", "coordinates": [2.942202, 45.962471]}}, {"type": "Feature", "properties": {"stop_name": "Ch\u00e2tel-Guyon Office de Tourisme", "type": "Gare accessible"}, "geometry": {"type": "Point", "coordinates": [3.074753, 45.918419]}}, {"type": "Feature", "properties": {"stop_name": "Riom - Ch\u00e2tel-Guyon", "type": "Gare accessible"}, "geometry": {"type": "Point", "coordinates": [3.120498, 45.889965000000004]}}, {"type": "Feature", "properties": {"stop_name": "Montlu\u00e7on", "type": "Gare accessible"}, "geometry": {"type": "Point", "coordinates": [2.596159, 46.338101]}}]}