{"type": "FeatureCollection", "features": [{"type": "Feature", "properties": {"start": "Saint-Aigulin - La Roche-Chalais", "stop_name": "Saint-Aigulin - La Roche-Chalais", "type": "Gare s\u00e9lectionn\u00e9e", "iconstarte": "Icon2"}, "geometry": {"type": "Point", "coordinates": [-0.018977, 45.157316]}}, {"type": "Feature", "properties": {"start": "Saint-Aigulin - La Roche-Chalais", "stop_name": "Libourne", "type": "Gare accessible", "icone": "TER"}, "geometry": {"type": "Point", "coordinates": [-0.236359, 44.915904]}}, {"type": "Feature", "properties": {"start": "Saint-Aigulin - La Roche-Chalais", "stop_name": "Saint-Denis-de-Pile", "type": "Gare accessible", "icone": "TER"}, "geometry": {"type": "Point", "coordinates": [-0.197877, 44.978485]}}, {"type": "Feature", "properties": {"start": "Saint-Aigulin - La Roche-Chalais", "stop_name": "Coutras", "type": "Gare accessible", "icone": "TER"}, "geometry": {"type": "Point", "coordinates": [-0.131361, 45.036709]}}, {"type": "Feature", "properties": {"start": "Saint-Aigulin - La Roche-Chalais", "stop_name": "Les \u00c9glisottes", "type": "Gare accessible", "icone": "TER"}, "geometry": {"type": "Point", "coordinates": [-0.043522, 45.094305]}}, {"type": "Feature", "properties": {"start": "Saint-Aigulin - La Roche-Chalais", "stop_name": "Chalais", "type": "Gare accessible", "icone": "TER"}, "geometry": {"type": "Point", "coordinates": [0.043448, 45.270875]}}, {"type": "Feature", "properties": {"start": "Saint-Aigulin - La Roche-Chalais", "stop_name": "Montmoreau", "type": "Gare accessible", "icone": "TER"}, "geometry": {"type": "Point", "coordinates": [0.13823, 45.398367]}}, {"type": "Feature", "properties": {"start": "Saint-Aigulin - La Roche-Chalais", "stop_name": "Angoul\u00eame", "type": "Gare accessible", "icone": "TER"}, "geometry": {"type": "Point", "coordinates": [0.164608, 45.653572]}}, {"type": "Feature", "properties": {"start": "Saint-Aigulin - La Roche-Chalais", "stop_name": "Bordeaux Saint-Jean", "type": "Gare accessible", "icone": "TER"}, "geometry": {"type": "Point", "coordinates": [-0.556697, 44.825873]}}, {"type": "Feature", "properties": {"start": "Saint-Aigulin - La Roche-Chalais", "stop_name": "Cenon", "type": "Gare accessible", "icone": "TER"}, "geometry": {"type": "Point", "coordinates": [-0.533649, 44.856347]}}]}