{"type": "FeatureCollection", "features": [{"type": "Feature", "properties": {"stop_name": "Saint-Paulien", "type": "Gare s\u00e9lectionn\u00e9e"}, "geometry": {"type": "Point", "coordinates": [3.814269, 45.137465999999996]}}, {"type": "Feature", "properties": {"stop_name": "Le Puy-en-Velay", "type": "Gare accessible"}, "geometry": {"type": "Point", "coordinates": [3.892421, 45.042866]}}, {"type": "Feature", "properties": {"stop_name": "Le Puy-en-Velay Lafayette", "type": "Gare accessible"}, "geometry": {"type": "Point", "coordinates": [3.879959, 45.043962]}}, {"type": "Feature", "properties": {"stop_name": "Le Puy En Velay H\u00f4pital E.Roux", "type": "Gare accessible"}, "geometry": {"type": "Point", "coordinates": [3.8772, 45.049219]}}, {"type": "Feature", "properties": {"stop_name": "La Chaise-Dieu", "type": "Gare accessible"}, "geometry": {"type": "Point", "coordinates": [3.697009, 45.316443]}}, {"type": "Feature", "properties": {"stop_name": "Le Puy-en-Velay Fayolle", "type": "Gare accessible"}, "geometry": {"type": "Point", "coordinates": [3.88614, 45.041686]}}]}