{"type": "FeatureCollection", "features": [{"type": "Feature", "properties": {"stop_name": "Saint-Romain-le-Puy", "type": "Gare s\u00e9lectionn\u00e9e", "icone": "Icon2"}, "geometry": {"type": "Point", "coordinates": [4.120989, 45.554576000000004]}}, {"type": "Feature", "properties": {"stop_name": "Saint-\u00c9tienne Ch\u00e2teaucreux", "type": "Gare accessible", "icone": "Icon1"}, "geometry": {"type": "Point", "coordinates": [4.399722, 45.443366]}}, {"type": "Feature", "properties": {"stop_name": "Saint-\u00c9tienne La Terrasse", "type": "Gare accessible", "icone": "Icon1"}, "geometry": {"type": "Point", "coordinates": [4.379554, 45.464868]}}, {"type": "Feature", "properties": {"stop_name": "La Fouillouse", "type": "Gare accessible", "icone": "Icon1"}, "geometry": {"type": "Point", "coordinates": [4.317084, 45.497768]}}, {"type": "Feature", "properties": {"stop_name": "Andr\u00e9zieux", "type": "Gare accessible", "icone": "Icon1"}, "geometry": {"type": "Point", "coordinates": [4.255418, 45.521736]}}, {"type": "Feature", "properties": {"stop_name": "Bonson", "type": "Gare accessible", "icone": "Icon1"}, "geometry": {"type": "Point", "coordinates": [4.21625, 45.522197]}}, {"type": "Feature", "properties": {"stop_name": "Sury-le-Comtal", "type": "Gare accessible", "icone": "Icon1"}, "geometry": {"type": "Point", "coordinates": [4.182497, 45.52912]}}, {"type": "Feature", "properties": {"stop_name": "Montbrison", "type": "Gare accessible", "icone": "Icon1"}, "geometry": {"type": "Point", "coordinates": [4.07824, 45.604481]}}, {"type": "Feature", "properties": {"stop_name": "Bo\u00ebn", "type": "Gare accessible", "icone": "Icon1"}, "geometry": {"type": "Point", "coordinates": [4.005061, 45.741386]}}]}