{"type": "FeatureCollection", "features": [{"type": "Feature", "properties": {"start": "Saint-Seurin-sur-l'Isle", "stop_name": "Saint-Seurin-sur-l'Isle", "type": "Gare s\u00e9lectionn\u00e9e", "iconstarte": "Icon2"}, "geometry": {"type": "Point", "coordinates": [-0.001996, 45.011464]}}, {"type": "Feature", "properties": {"start": "Saint-Seurin-sur-l'Isle", "stop_name": "Bordeaux Saint-Jean", "type": "Gare accessible", "icone": "TER"}, "geometry": {"type": "Point", "coordinates": [-0.556697, 44.825873]}}, {"type": "Feature", "properties": {"start": "Saint-Seurin-sur-l'Isle", "stop_name": "Cenon", "type": "Gare accessible", "icone": "TER"}, "geometry": {"type": "Point", "coordinates": [-0.533649, 44.856347]}}, {"type": "Feature", "properties": {"start": "Saint-Seurin-sur-l'Isle", "stop_name": "Libourne", "type": "Gare accessible", "icone": "TER"}, "geometry": {"type": "Point", "coordinates": [-0.236359, 44.915904]}}, {"type": "Feature", "properties": {"start": "Saint-Seurin-sur-l'Isle", "stop_name": "Coutras", "type": "Gare accessible", "icone": "TER"}, "geometry": {"type": "Point", "coordinates": [-0.131361, 45.036709]}}, {"type": "Feature", "properties": {"start": "Saint-Seurin-sur-l'Isle", "stop_name": "Saint-M\u00e9dard-de-Guizi\u00e8res", "type": "Gare accessible", "icone": "TER"}, "geometry": {"type": "Point", "coordinates": [-0.048811, 45.015558]}}, {"type": "Feature", "properties": {"start": "Saint-Seurin-sur-l'Isle", "stop_name": "Montpon-M\u00e9nest\u00e9rol", "type": "Gare accessible", "icone": "TER"}, "geometry": {"type": "Point", "coordinates": [0.159339, 45.006338]}}, {"type": "Feature", "properties": {"start": "Saint-Seurin-sur-l'Isle", "stop_name": "Mussidan", "type": "Gare accessible", "icone": "TER"}, "geometry": {"type": "Point", "coordinates": [0.354068, 45.034377]}}, {"type": "Feature", "properties": {"start": "Saint-Seurin-sur-l'Isle", "stop_name": "Neuvic", "type": "Gare accessible", "icone": "TER"}, "geometry": {"type": "Point", "coordinates": [0.445141, 45.100004]}}, {"type": "Feature", "properties": {"start": "Saint-Seurin-sur-l'Isle", "stop_name": "Saint-Astier", "type": "Gare accessible", "icone": "TER"}, "geometry": {"type": "Point", "coordinates": [0.522902, 45.138993]}}, {"type": "Feature", "properties": {"start": "Saint-Seurin-sur-l'Isle", "stop_name": "Razac", "type": "Gare accessible", "icone": "TER"}, "geometry": {"type": "Point", "coordinates": [0.599464, 45.165959]}}, {"type": "Feature", "properties": {"start": "Saint-Seurin-sur-l'Isle", "stop_name": "P\u00e9rigueux", "type": "Gare accessible", "icone": "TER"}, "geometry": {"type": "Point", "coordinates": [0.707879, 45.187408]}}, {"type": "Feature", "properties": {"start": "Saint-Seurin-sur-l'Isle", "stop_name": "Thenon", "type": "Gare accessible", "icone": "TER"}, "geometry": {"type": "Point", "coordinates": [1.068646, 45.16013]}}, {"type": "Feature", "properties": {"start": "Saint-Seurin-sur-l'Isle", "stop_name": "Condat - Le Lardin", "type": "Gare accessible", "icone": "TER"}, "geometry": {"type": "Point", "coordinates": [1.226727, 45.126732]}}, {"type": "Feature", "properties": {"start": "Saint-Seurin-sur-l'Isle", "stop_name": "Terrasson", "type": "Gare accessible", "icone": "TER"}, "geometry": {"type": "Point", "coordinates": [1.300501, 45.135602]}}, {"type": "Feature", "properties": {"start": "Saint-Seurin-sur-l'Isle", "stop_name": "Brive-la-Gaillarde", "type": "Gare accessible", "icone": "TER"}, "geometry": {"type": "Point", "coordinates": [1.528634, 45.152601]}}, {"type": "Feature", "properties": {"start": "Saint-Seurin-sur-l'Isle", "stop_name": "Aubazines - Saint-Hilaire", "type": "Gare accessible", "icone": "TER"}, "geometry": {"type": "Point", "coordinates": [1.641235, 45.181678]}}, {"type": "Feature", "properties": {"start": "Saint-Seurin-sur-l'Isle", "stop_name": "Cornil", "type": "Gare accessible", "icone": "TER"}, "geometry": {"type": "Point", "coordinates": [1.698189, 45.21522]}}, {"type": "Feature", "properties": {"start": "Saint-Seurin-sur-l'Isle", "stop_name": "Tulle", "type": "Gare accessible", "icone": "TER"}, "geometry": {"type": "Point", "coordinates": [1.756445, 45.258733]}}, {"type": "Feature", "properties": {"start": "Saint-Seurin-sur-l'Isle", "stop_name": "Saint-L\u00e9on-sur-l'Isle", "type": "Gare accessible", "icone": "TER"}, "geometry": {"type": "Point", "coordinates": [0.492142, 45.123194]}}, {"type": "Feature", "properties": {"start": "Saint-Seurin-sur-l'Isle", "stop_name": "Boulazac Isle Manoire", "type": "Gare accessible", "icone": "TER"}, "geometry": {"type": "Point", "coordinates": [0.772787, 45.172052]}}, {"type": "Feature", "properties": {"start": "Saint-Seurin-sur-l'Isle", "stop_name": "Niversac", "type": "Gare accessible", "icone": "TER"}, "geometry": {"type": "Point", "coordinates": [0.80827, 45.138259]}}, {"type": "Feature", "properties": {"start": "Saint-Seurin-sur-l'Isle", "stop_name": "Limoges B\u00e9n\u00e9dictins", "type": "Gare accessible", "icone": "TER"}, "geometry": {"type": "Point", "coordinates": [1.267419, 45.836207]}}, {"type": "Feature", "properties": {"start": "Saint-Seurin-sur-l'Isle", "stop_name": "Nexon", "type": "Gare accessible", "icone": "TER"}, "geometry": {"type": "Point", "coordinates": [1.178431, 45.691565]}}, {"type": "Feature", "properties": {"start": "Saint-Seurin-sur-l'Isle", "stop_name": "Thiviers", "type": "Gare accessible", "icone": "TER"}, "geometry": {"type": "Point", "coordinates": [0.92135, 45.418977]}}]}