{"type": "FeatureCollection", "features": [{"type": "Feature", "properties": {"stop_name": "Saint-\u00c9loy-les-Mines", "type": "Gare s\u00e9lectionn\u00e9e"}, "geometry": {"type": "Point", "coordinates": [2.834344, 46.169523999999996]}}, {"type": "Feature", "properties": {"stop_name": "Montaigut en Combraille", "type": "Gare accessible"}, "geometry": {"type": "Point", "coordinates": [2.808141, 46.180395000000004]}}, {"type": "Feature", "properties": {"stop_name": "Neris les Bains Place", "type": "Gare accessible"}, "geometry": {"type": "Point", "coordinates": [2.661615, 46.287584]}}, {"type": "Feature", "properties": {"stop_name": "Montlu\u00e7on", "type": "Gare accessible"}, "geometry": {"type": "Point", "coordinates": [2.596159, 46.338101]}}, {"type": "Feature", "properties": {"stop_name": "Commentry", "type": "Gare accessible"}, "geometry": {"type": "Point", "coordinates": [2.739938, 46.295105]}}, {"type": "Feature", "properties": {"stop_name": "Saint-\u00c9loy-les-Mines Lyc\u00e9e", "type": "Gare accessible"}, "geometry": {"type": "Point", "coordinates": [2.832855, 46.159641]}}, {"type": "Feature", "properties": {"stop_name": "Durdat-Larequille", "type": "Gare accessible"}, "geometry": {"type": "Point", "coordinates": [2.702154, 46.250854]}}, {"type": "Feature", "properties": {"stop_name": "Lapeyrouse", "type": "Gare accessible"}, "geometry": {"type": "Point", "coordinates": [2.893315, 46.226759]}}, {"type": "Feature", "properties": {"stop_name": "Saint-Gervais - Ch\u00e2teau-Neuf", "type": "Gare accessible"}, "geometry": {"type": "Point", "coordinates": [2.808136, 46.030316]}}, {"type": "Feature", "properties": {"stop_name": "Les Ancizes St Georges Bourg", "type": "Gare accessible"}, "geometry": {"type": "Point", "coordinates": [2.810416, 45.924694]}}, {"type": "Feature", "properties": {"stop_name": "Les Ancizes St Georges Usine", "type": "Gare accessible"}, "geometry": {"type": "Point", "coordinates": [2.810006, 45.921765]}}, {"type": "Feature", "properties": {"stop_name": "Saint-Georges-De-Mons R \u00c9coles", "type": "Gare accessible"}, "geometry": {"type": "Point", "coordinates": [2.840699, 45.937554999999996]}}, {"type": "Feature", "properties": {"stop_name": "Paugnat Eglise", "type": "Gare accessible"}, "geometry": {"type": "Point", "coordinates": [2.983502, 45.885835]}}, {"type": "Feature", "properties": {"stop_name": "Moulet-Marcenat", "type": "Gare accessible"}, "geometry": {"type": "Point", "coordinates": [2.999034, 45.880693]}}, {"type": "Feature", "properties": {"stop_name": "Volvic", "type": "Gare accessible"}, "geometry": {"type": "Point", "coordinates": [3.003083, 45.864649]}}]}