{"type": "FeatureCollection", "features": [{"type": "Feature", "properties": {"start": "Saint-\u00c9tienne Ch\u00e2teaucreux", "stop_name": "Saint-\u00c9tienne Ch\u00e2teaucreux", "type": "Gare s\u00e9lectionn\u00e9e", "iconstarte": "Icon2"}, "geometry": {"type": "Point", "coordinates": [4.399722, 45.443366]}}, {"type": "Feature", "properties": {"start": "Saint-\u00c9tienne Ch\u00e2teaucreux", "stop_name": "Lyon Perrache", "type": "Gare accessible", "icone": "TER"}, "geometry": {"type": "Point", "coordinates": [4.825777, 45.748508]}}, {"type": "Feature", "properties": {"start": "Saint-\u00c9tienne Ch\u00e2teaucreux", "stop_name": "Oullins", "type": "Gare accessible", "icone": "TER"}, "geometry": {"type": "Point", "coordinates": [4.813503, 45.7166]}}, {"type": "Feature", "properties": {"start": "Saint-\u00c9tienne Ch\u00e2teaucreux", "stop_name": "Pierre-B\u00e9nite", "type": "Gare accessible", "icone": "TER"}, "geometry": {"type": "Point", "coordinates": [4.824506, 45.706677]}}, {"type": "Feature", "properties": {"start": "Saint-\u00c9tienne Ch\u00e2teaucreux", "stop_name": "Irigny - Yvours", "type": "Gare accessible", "icone": "TER"}, "geometry": {"type": "Point", "coordinates": [4.832305, 45.690023]}}, {"type": "Feature", "properties": {"start": "Saint-\u00c9tienne Ch\u00e2teaucreux", "stop_name": "Vernaison", "type": "Gare accessible", "icone": "TER"}, "geometry": {"type": "Point", "coordinates": [4.81328, 45.645663]}}, {"type": "Feature", "properties": {"start": "Saint-\u00c9tienne Ch\u00e2teaucreux", "stop_name": "Grigny le Sablon", "type": "Gare accessible", "icone": "TER"}, "geometry": {"type": "Point", "coordinates": [4.795878, 45.607139]}}, {"type": "Feature", "properties": {"start": "Saint-\u00c9tienne Ch\u00e2teaucreux", "stop_name": "Givors Canal", "type": "Gare accessible", "icone": "TER"}, "geometry": {"type": "Point", "coordinates": [4.772522, 45.595742]}}, {"type": "Feature", "properties": {"start": "Saint-\u00c9tienne Ch\u00e2teaucreux", "stop_name": "Givors Ville", "type": "Gare accessible", "icone": "TER"}, "geometry": {"type": "Point", "coordinates": [4.766086, 45.584948]}}, {"type": "Feature", "properties": {"start": "Saint-\u00c9tienne Ch\u00e2teaucreux", "stop_name": "Rive-de-Gier", "type": "Gare accessible", "icone": "TER"}, "geometry": {"type": "Point", "coordinates": [4.606648, 45.524324]}}, {"type": "Feature", "properties": {"start": "Saint-\u00c9tienne Ch\u00e2teaucreux", "stop_name": "Saint-Chamond", "type": "Gare accessible", "icone": "TER"}, "geometry": {"type": "Point", "coordinates": [4.516971, 45.472557]}}, {"type": "Feature", "properties": {"start": "Saint-\u00c9tienne Ch\u00e2teaucreux", "stop_name": "Saint-\u00c9tienne Carnot", "type": "Gare accessible", "icone": "TER"}, "geometry": {"type": "Point", "coordinates": [4.385317, 45.446976]}}, {"type": "Feature", "properties": {"start": "Saint-\u00c9tienne Ch\u00e2teaucreux", "stop_name": "Saint-\u00c9tienne Le Clapier", "type": "Gare accessible", "icone": "TER"}, "geometry": {"type": "Point", "coordinates": [4.378384, 45.437125]}}, {"type": "Feature", "properties": {"start": "Saint-\u00c9tienne Ch\u00e2teaucreux", "stop_name": "Saint-\u00c9tienne Bellevue", "type": "Gare accessible", "icone": "TER"}, "geometry": {"type": "Point", "coordinates": [4.392683, 45.417198]}}, {"type": "Feature", "properties": {"start": "Saint-\u00c9tienne Ch\u00e2teaucreux", "stop_name": "La Ricamarie", "type": "Gare accessible", "icone": "TER"}, "geometry": {"type": "Point", "coordinates": [4.360686, 45.404152]}}, {"type": "Feature", "properties": {"start": "Saint-\u00c9tienne Ch\u00e2teaucreux", "stop_name": "Le Chambon-Feugerolles", "type": "Gare accessible", "icone": "TER"}, "geometry": {"type": "Point", "coordinates": [4.322484, 45.394777]}}, {"type": "Feature", "properties": {"start": "Saint-\u00c9tienne Ch\u00e2teaucreux", "stop_name": "Firminy", "type": "Gare accessible", "icone": "TER"}, "geometry": {"type": "Point", "coordinates": [4.28643, 45.391656]}}, {"type": "Feature", "properties": {"start": "Saint-\u00c9tienne Ch\u00e2teaucreux", "stop_name": "Amb\u00e9rieu-en-Bugey", "type": "Gare accessible", "icone": "TER"}, "geometry": {"type": "Point", "coordinates": [5.342402, 45.954014]}}, {"type": "Feature", "properties": {"start": "Saint-\u00c9tienne Ch\u00e2teaucreux", "stop_name": "Meximieux - P\u00e9rouges", "type": "Gare accessible", "icone": "TER"}, "geometry": {"type": "Point", "coordinates": [5.193296, 45.901783]}}, {"type": "Feature", "properties": {"start": "Saint-\u00c9tienne Ch\u00e2teaucreux", "stop_name": "La Valbonne", "type": "Gare accessible", "icone": "TER"}, "geometry": {"type": "Point", "coordinates": [5.124964, 45.849268]}}, {"type": "Feature", "properties": {"start": "Saint-\u00c9tienne Ch\u00e2teaucreux", "stop_name": "Montluel", "type": "Gare accessible", "icone": "TER"}, "geometry": {"type": "Point", "coordinates": [5.05753, 45.847783]}}, {"type": "Feature", "properties": {"start": "Saint-\u00c9tienne Ch\u00e2teaucreux", "stop_name": "Beynost", "type": "Gare accessible", "icone": "TER"}, "geometry": {"type": "Point", "coordinates": [5.006947, 45.833898]}}, {"type": "Feature", "properties": {"start": "Saint-\u00c9tienne Ch\u00e2teaucreux", "stop_name": "Saint-Maurice-de-Beynost", "type": "Gare accessible", "icone": "TER"}, "geometry": {"type": "Point", "coordinates": [4.976986, 45.827421]}}, {"type": "Feature", "properties": {"start": "Saint-\u00c9tienne Ch\u00e2teaucreux", "stop_name": "Miribel", "type": "Gare accessible", "icone": "TER"}, "geometry": {"type": "Point", "coordinates": [4.953922, 45.822091]}}, {"type": "Feature", "properties": {"start": "Saint-\u00c9tienne Ch\u00e2teaucreux", "stop_name": "Cr\u00e9pieux la Pape", "type": "Gare accessible", "icone": "TER"}, "geometry": {"type": "Point", "coordinates": [4.892701, 45.803918]}}, {"type": "Feature", "properties": {"start": "Saint-\u00c9tienne Ch\u00e2teaucreux", "stop_name": "Lyon Part Dieu", "type": "Gare accessible", "icone": "TER"}, "geometry": {"type": "Point", "coordinates": [4.859409, 45.760596]}}, {"type": "Feature", "properties": {"start": "Saint-\u00c9tienne Ch\u00e2teaucreux", "stop_name": "Saint-\u00c9tienne La Terrasse", "type": "Gare accessible", "icone": "TER"}, "geometry": {"type": "Point", "coordinates": [4.379554, 45.464868]}}, {"type": "Feature", "properties": {"start": "Saint-\u00c9tienne Ch\u00e2teaucreux", "stop_name": "Bouth\u00e9on", "type": "Gare accessible", "icone": "TER"}, "geometry": {"type": "Point", "coordinates": [4.278182, 45.525002]}}, {"type": "Feature", "properties": {"start": "Saint-\u00c9tienne Ch\u00e2teaucreux", "stop_name": "Veauche - Saint-Galmier", "type": "Gare accessible", "icone": "TER"}, "geometry": {"type": "Point", "coordinates": [4.293438, 45.565928]}}, {"type": "Feature", "properties": {"start": "Saint-\u00c9tienne Ch\u00e2teaucreux", "stop_name": "Montrond-les-Bains", "type": "Gare accessible", "icone": "TER"}, "geometry": {"type": "Point", "coordinates": [4.248826, 45.644431]}}, {"type": "Feature", "properties": {"start": "Saint-\u00c9tienne Ch\u00e2teaucreux", "stop_name": "Feurs", "type": "Gare accessible", "icone": "TER"}, "geometry": {"type": "Point", "coordinates": [4.230487, 45.744145]}}, {"type": "Feature", "properties": {"start": "Saint-\u00c9tienne Ch\u00e2teaucreux", "stop_name": "Balbigny", "type": "Gare accessible", "icone": "TER"}, "geometry": {"type": "Point", "coordinates": [4.187427, 45.817868]}}, {"type": "Feature", "properties": {"start": "Saint-\u00c9tienne Ch\u00e2teaucreux", "stop_name": "Saint-Jodard", "type": "Gare accessible", "icone": "TER"}, "geometry": {"type": "Point", "coordinates": [4.125243, 45.88568]}}, {"type": "Feature", "properties": {"start": "Saint-\u00c9tienne Ch\u00e2teaucreux", "stop_name": "Le Coteau", "type": "Gare accessible", "icone": "TER"}, "geometry": {"type": "Point", "coordinates": [4.086281, 46.023988]}}, {"type": "Feature", "properties": {"start": "Saint-\u00c9tienne Ch\u00e2teaucreux", "stop_name": "Roanne", "type": "Gare accessible", "icone": "TER"}, "geometry": {"type": "Point", "coordinates": [4.063207, 46.039383]}}, {"type": "Feature", "properties": {"start": "Saint-\u00c9tienne Ch\u00e2teaucreux", "stop_name": "La Fouillouse", "type": "Gare accessible", "icone": "TER"}, "geometry": {"type": "Point", "coordinates": [4.317084, 45.497768]}}, {"type": "Feature", "properties": {"start": "Saint-\u00c9tienne Ch\u00e2teaucreux", "stop_name": "Andr\u00e9zieux", "type": "Gare accessible", "icone": "TER"}, "geometry": {"type": "Point", "coordinates": [4.255418, 45.521736]}}, {"type": "Feature", "properties": {"start": "Saint-\u00c9tienne Ch\u00e2teaucreux", "stop_name": "Bonson", "type": "Gare accessible", "icone": "TER"}, "geometry": {"type": "Point", "coordinates": [4.21625, 45.522197]}}, {"type": "Feature", "properties": {"start": "Saint-\u00c9tienne Ch\u00e2teaucreux", "stop_name": "Sury-le-Comtal", "type": "Gare accessible", "icone": "TER"}, "geometry": {"type": "Point", "coordinates": [4.182497, 45.52912]}}, {"type": "Feature", "properties": {"start": "Saint-\u00c9tienne Ch\u00e2teaucreux", "stop_name": "Saint-Romain-le-Puy", "type": "Gare accessible", "icone": "TER"}, "geometry": {"type": "Point", "coordinates": [4.120989, 45.554576]}}, {"type": "Feature", "properties": {"start": "Saint-\u00c9tienne Ch\u00e2teaucreux", "stop_name": "Montbrison", "type": "Gare accessible", "icone": "TER"}, "geometry": {"type": "Point", "coordinates": [4.07824, 45.604481]}}, {"type": "Feature", "properties": {"start": "Saint-\u00c9tienne Ch\u00e2teaucreux", "stop_name": "Bo\u00ebn", "type": "Gare accessible", "icone": "TER"}, "geometry": {"type": "Point", "coordinates": [4.005061, 45.741386]}}, {"type": "Feature", "properties": {"start": "Saint-\u00c9tienne Ch\u00e2teaucreux", "stop_name": "Aurec", "type": "Gare accessible", "icone": "TER"}, "geometry": {"type": "Point", "coordinates": [4.198432, 45.37118]}}, {"type": "Feature", "properties": {"start": "Saint-\u00c9tienne Ch\u00e2teaucreux", "stop_name": "Bas - Monistrol", "type": "Gare accessible", "icone": "TER"}, "geometry": {"type": "Point", "coordinates": [4.139678, 45.297683]}}, {"type": "Feature", "properties": {"start": "Saint-\u00c9tienne Ch\u00e2teaucreux", "stop_name": "Pont de Lignon", "type": "Gare accessible", "icone": "TER"}, "geometry": {"type": "Point", "coordinates": [4.137082, 45.259769]}}, {"type": "Feature", "properties": {"start": "Saint-\u00c9tienne Ch\u00e2teaucreux", "stop_name": "Retournac", "type": "Gare accessible", "icone": "TER"}, "geometry": {"type": "Point", "coordinates": [4.036062, 45.201342]}}, {"type": "Feature", "properties": {"start": "Saint-\u00c9tienne Ch\u00e2teaucreux", "stop_name": "Chamali\u00e8res-sur-Loire", "type": "Gare accessible", "icone": "TER"}, "geometry": {"type": "Point", "coordinates": [3.991894, 45.20591]}}, {"type": "Feature", "properties": {"start": "Saint-\u00c9tienne Ch\u00e2teaucreux", "stop_name": "Vorey", "type": "Gare accessible", "icone": "TER"}, "geometry": {"type": "Point", "coordinates": [3.91138, 45.182925]}}, {"type": "Feature", "properties": {"start": "Saint-\u00c9tienne Ch\u00e2teaucreux", "stop_name": "Saint-Vincent le Ch\u00e2teau", "type": "Gare accessible", "icone": "TER"}, "geometry": {"type": "Point", "coordinates": [3.918576, 45.148827]}}, {"type": "Feature", "properties": {"start": "Saint-\u00c9tienne Ch\u00e2teaucreux", "stop_name": "Lavo\u00fbte-sur-Loire", "type": "Gare accessible", "icone": "TER"}, "geometry": {"type": "Point", "coordinates": [3.90541, 45.12145]}}, {"type": "Feature", "properties": {"start": "Saint-\u00c9tienne Ch\u00e2teaucreux", "stop_name": "Le Puy-en-Velay", "type": "Gare accessible", "icone": "TER"}, "geometry": {"type": "Point", "coordinates": [3.892421, 45.042866]}}, {"type": "Feature", "properties": {"start": "Saint-\u00c9tienne Ch\u00e2teaucreux", "stop_name": "Fraisses - Unieux", "type": "Gare accessible", "icone": "TER"}, "geometry": {"type": "Point", "coordinates": [4.261037, 45.394823]}}]}