{"type": "FeatureCollection", "features": [{"type": "Feature", "properties": {"stop_name": "Sainte-Florine Place Fran\u00e7ois", "type": "Gare s\u00e9lectionn\u00e9e"}, "geometry": {"type": "Point", "coordinates": [3.319408, 45.405478]}}, {"type": "Feature", "properties": {"stop_name": "Issoire", "type": "Gare accessible"}, "geometry": {"type": "Point", "coordinates": [3.25404, 45.543949]}}, {"type": "Feature", "properties": {"stop_name": "Jumeaux", "type": "Gare accessible"}, "geometry": {"type": "Point", "coordinates": [3.339211, 45.430201000000004]}}, {"type": "Feature", "properties": {"stop_name": "Brassac-les-Mines Lyc\u00e9e Rabelais", "type": "Gare accessible"}, "geometry": {"type": "Point", "coordinates": [3.32142, 45.413632]}}, {"type": "Feature", "properties": {"stop_name": "Brassac-les-Mines - Sainte-Florine", "type": "Gare accessible"}, "geometry": {"type": "Point", "coordinates": [3.330167, 45.414246]}}, {"type": "Feature", "properties": {"stop_name": "Sainte-Florine Lyc\u00e9e Claude Favard", "type": "Gare accessible"}, "geometry": {"type": "Point", "coordinates": [3.321074, 45.401579999999996]}}, {"type": "Feature", "properties": {"stop_name": "Arrest Usine Melius", "type": "Gare accessible"}, "geometry": {"type": "Point", "coordinates": [3.326379, 45.396438]}}, {"type": "Feature", "properties": {"stop_name": "Arvant", "type": "Gare accessible"}, "geometry": {"type": "Point", "coordinates": [3.310554, 45.365459]}}, {"type": "Feature", "properties": {"stop_name": "Brioude", "type": "Gare accessible"}, "geometry": {"type": "Point", "coordinates": [3.37856, 45.300561]}}, {"type": "Feature", "properties": {"stop_name": "Le Breuil-sur-C Salle des F.", "type": "Gare accessible"}, "geometry": {"type": "Point", "coordinates": [3.261952, 45.472347]}}]}