{"type": "FeatureCollection", "features": [{"type": "Feature", "properties": {"start": "Saint-Roch (Somme)", "stop_name": "Saint-Roch (Somme)", "type": "Gare s\u00e9lectionn\u00e9e", "iconstarte": "Icon2"}, "geometry": {"type": "Point", "coordinates": [2.28377, 49.893454]}}, {"type": "Feature", "properties": {"start": "Saint-Roch (Somme)", "stop_name": "Rouen Rive Droite", "type": "Gare accessible", "icone": "TER"}, "geometry": {"type": "Point", "coordinates": [1.094103, 49.448663]}}, {"type": "Feature", "properties": {"start": "Saint-Roch (Somme)", "stop_name": "Morgny", "type": "Gare accessible", "icone": "TER"}, "geometry": {"type": "Point", "coordinates": [1.247359, 49.522874]}}, {"type": "Feature", "properties": {"start": "Saint-Roch (Somme)", "stop_name": "Mont\u00e9rolier - Buchy", "type": "Gare accessible", "icone": "TER"}, "geometry": {"type": "Point", "coordinates": [1.334721, 49.603166]}}, {"type": "Feature", "properties": {"start": "Saint-Roch (Somme)", "stop_name": "Serqueux", "type": "Gare accessible", "icone": "TER"}, "geometry": {"type": "Point", "coordinates": [1.539403, 49.631551]}}, {"type": "Feature", "properties": {"start": "Saint-Roch (Somme)", "stop_name": "Formerie", "type": "Gare accessible", "icone": "TER"}, "geometry": {"type": "Point", "coordinates": [1.723582, 49.654606]}}, {"type": "Feature", "properties": {"start": "Saint-Roch (Somme)", "stop_name": "Abancourt", "type": "Gare accessible", "icone": "TER"}, "geometry": {"type": "Point", "coordinates": [1.774297, 49.685621]}}, {"type": "Feature", "properties": {"start": "Saint-Roch (Somme)", "stop_name": "Poix-de-Picardie", "type": "Gare accessible", "icone": "TER"}, "geometry": {"type": "Point", "coordinates": [1.989899, 49.777788]}}, {"type": "Feature", "properties": {"start": "Saint-Roch (Somme)", "stop_name": "Amiens", "type": "Gare accessible", "icone": "TER"}, "geometry": {"type": "Point", "coordinates": [2.308277, 49.890584]}}, {"type": "Feature", "properties": {"start": "Saint-Roch (Somme)", "stop_name": "Abbeville", "type": "Gare accessible", "icone": "TER"}, "geometry": {"type": "Point", "coordinates": [1.824538, 50.102175]}}, {"type": "Feature", "properties": {"start": "Saint-Roch (Somme)", "stop_name": "Longpr\u00e9-les-Corps-Saints", "type": "Gare accessible", "icone": "TER"}, "geometry": {"type": "Point", "coordinates": [2.0025, 50.011564]}}, {"type": "Feature", "properties": {"start": "Saint-Roch (Somme)", "stop_name": "Ailly-sur-Somme", "type": "Gare accessible", "icone": "TER"}, "geometry": {"type": "Point", "coordinates": [2.200476, 49.928515]}}, {"type": "Feature", "properties": {"start": "Saint-Roch (Somme)", "stop_name": "Dreuil-l\u00e8s-Amiens", "type": "Gare accessible", "icone": "TER"}, "geometry": {"type": "Point", "coordinates": [2.231126, 49.91449]}}, {"type": "Feature", "properties": {"start": "Saint-Roch (Somme)", "stop_name": "Picquigny", "type": "Gare accessible", "icone": "TER"}, "geometry": {"type": "Point", "coordinates": [2.143139, 49.945998]}}, {"type": "Feature", "properties": {"start": "Saint-Roch (Somme)", "stop_name": "Hangest-sur-Somme", "type": "Gare accessible", "icone": "TER"}, "geometry": {"type": "Point", "coordinates": [2.065996, 49.982239]}}, {"type": "Feature", "properties": {"start": "Saint-Roch (Somme)", "stop_name": "Pont-Remy", "type": "Gare accessible", "icone": "TER"}, "geometry": {"type": "Point", "coordinates": [1.898937, 50.04715]}}, {"type": "Feature", "properties": {"start": "Saint-Roch (Somme)", "stop_name": "Albert", "type": "Gare accessible", "icone": "TER"}, "geometry": {"type": "Point", "coordinates": [2.644481, 50.005395]}}, {"type": "Feature", "properties": {"start": "Saint-Roch (Somme)", "stop_name": "Buire-sur-l'Ancre", "type": "Gare accessible", "icone": "TER"}, "geometry": {"type": "Point", "coordinates": [2.598159, 49.964797]}}, {"type": "Feature", "properties": {"start": "Saint-Roch (Somme)", "stop_name": "M\u00e9ricourt - Ribemont", "type": "Gare accessible", "icone": "TER"}, "geometry": {"type": "Point", "coordinates": [2.571807, 49.955465]}}, {"type": "Feature", "properties": {"start": "Saint-Roch (Somme)", "stop_name": "Heilly", "type": "Gare accessible", "icone": "TER"}, "geometry": {"type": "Point", "coordinates": [2.539521, 49.943356]}}, {"type": "Feature", "properties": {"start": "Saint-Roch (Somme)", "stop_name": "Corbie", "type": "Gare accessible", "icone": "TER"}, "geometry": {"type": "Point", "coordinates": [2.499953, 49.91163]}}, {"type": "Feature", "properties": {"start": "Saint-Roch (Somme)", "stop_name": "Daours", "type": "Gare accessible", "icone": "TER"}, "geometry": {"type": "Point", "coordinates": [2.458792, 49.899115]}}, {"type": "Feature", "properties": {"start": "Saint-Roch (Somme)", "stop_name": "Noyelles-sur-Mer", "type": "Gare accessible", "icone": "TER"}, "geometry": {"type": "Point", "coordinates": [1.70453, 50.187305]}}, {"type": "Feature", "properties": {"start": "Saint-Roch (Somme)", "stop_name": "Rue", "type": "Gare accessible", "icone": "TER"}, "geometry": {"type": "Point", "coordinates": [1.675697, 50.273147]}}, {"type": "Feature", "properties": {"start": "Saint-Roch (Somme)", "stop_name": "Rang-du-Fliers - Verton - Berck", "type": "Gare accessible", "icone": "TER"}, "geometry": {"type": "Point", "coordinates": [1.648048, 50.415845]}}, {"type": "Feature", "properties": {"start": "Saint-Roch (Somme)", "stop_name": "\u00c9taples - Le Touquet", "type": "Gare accessible", "icone": "TER"}, "geometry": {"type": "Point", "coordinates": [1.642582, 50.516544]}}, {"type": "Feature", "properties": {"start": "Saint-Roch (Somme)", "stop_name": "Neufch\u00e2tel-Hardelot", "type": "Gare accessible", "icone": "TER"}, "geometry": {"type": "Point", "coordinates": [1.643352, 50.623564]}}, {"type": "Feature", "properties": {"start": "Saint-Roch (Somme)", "stop_name": "Hesdigneul", "type": "Gare accessible", "icone": "TER"}, "geometry": {"type": "Point", "coordinates": [1.666998, 50.661095]}}, {"type": "Feature", "properties": {"start": "Saint-Roch (Somme)", "stop_name": "Boulogne sur Mer", "type": "Gare accessible", "icone": "TER"}, "geometry": {"type": "Point", "coordinates": [1.609714, 50.715613]}}, {"type": "Feature", "properties": {"start": "Saint-Roch (Somme)", "stop_name": "Boulogne - Tintelleries", "type": "Gare accessible", "icone": "TER"}, "geometry": {"type": "Point", "coordinates": [1.609036, 50.727284]}}, {"type": "Feature", "properties": {"start": "Saint-Roch (Somme)", "stop_name": "Wimille - Wimereux", "type": "Gare accessible", "icone": "TER"}, "geometry": {"type": "Point", "coordinates": [1.613609, 50.763642]}}, {"type": "Feature", "properties": {"start": "Saint-Roch (Somme)", "stop_name": "Marquise - Rinxent", "type": "Gare accessible", "icone": "TER"}, "geometry": {"type": "Point", "coordinates": [1.729786, 50.805686]}}, {"type": "Feature", "properties": {"start": "Saint-Roch (Somme)", "stop_name": "Calais - Fr\u00e9thun", "type": "Gare accessible", "icone": "TER"}, "geometry": {"type": "Point", "coordinates": [1.811178, 50.901247]}}, {"type": "Feature", "properties": {"start": "Saint-Roch (Somme)", "stop_name": "Les Fontinettes", "type": "Gare accessible", "icone": "TER"}, "geometry": {"type": "Point", "coordinates": [1.849858, 50.941002]}}, {"type": "Feature", "properties": {"start": "Saint-Roch (Somme)", "stop_name": "Calais Ville", "type": "Gare accessible", "icone": "TER"}, "geometry": {"type": "Point", "coordinates": [1.850885, 50.953466]}}, {"type": "Feature", "properties": {"start": "Saint-Roch (Somme)", "stop_name": "Lille Flandres", "type": "Gare accessible", "icone": "TER"}, "geometry": {"type": "Point", "coordinates": [3.06987, 50.636577]}}, {"type": "Feature", "properties": {"start": "Saint-Roch (Somme)", "stop_name": "Douai", "type": "Gare accessible", "icone": "TER"}, "geometry": {"type": "Point", "coordinates": [3.089958, 50.371673]}}, {"type": "Feature", "properties": {"start": "Saint-Roch (Somme)", "stop_name": "Arras", "type": "Gare accessible", "icone": "TER"}, "geometry": {"type": "Point", "coordinates": [2.781314, 50.286971]}}, {"type": "Feature", "properties": {"start": "Saint-Roch (Somme)", "stop_name": "Achiet", "type": "Gare accessible", "icone": "TER"}, "geometry": {"type": "Point", "coordinates": [2.780112, 50.131919]}}, {"type": "Feature", "properties": {"start": "Saint-Roch (Somme)", "stop_name": "Longuerue - Vieux-Manoir", "type": "Gare accessible", "icone": "TER"}, "geometry": {"type": "Point", "coordinates": [1.276228, 49.556678]}}, {"type": "Feature", "properties": {"start": "Saint-Roch (Somme)", "stop_name": "Sommery", "type": "Gare accessible", "icone": "TER"}, "geometry": {"type": "Point", "coordinates": [1.435304, 49.629664]}}, {"type": "Feature", "properties": {"start": "Saint-Roch (Somme)", "stop_name": "Namps - Quevauvillers", "type": "Gare accessible", "icone": "TER"}, "geometry": {"type": "Point", "coordinates": [2.105376, 49.8083]}}, {"type": "Feature", "properties": {"start": "Saint-Roch (Somme)", "stop_name": "Fouilloy", "type": "Gare accessible", "icone": "TER"}, "geometry": {"type": "Point", "coordinates": [1.825774, 49.736315]}}]}