{"type": "FeatureCollection", "features": [{"type": "Feature", "properties": {"stop_name": "Sarraltroff Rue de la For\u00eat", "type": "Gare s\u00e9lectionn\u00e9e"}, "geometry": {"type": "Point", "coordinates": [7.056887, 48.778587]}}, {"type": "Feature", "properties": {"stop_name": "Loudrefing Rue Principale", "type": "Gare accessible"}, "geometry": {"type": "Point", "coordinates": [6.876969, 48.851275]}}, {"type": "Feature", "properties": {"stop_name": "Mittersheim l'Escale", "type": "Gare accessible"}, "geometry": {"type": "Point", "coordinates": [6.933793, 48.860358000000005]}}, {"type": "Feature", "properties": {"stop_name": "Mittersheim Centre", "type": "Gare accessible"}, "geometry": {"type": "Point", "coordinates": [6.941723, 48.861886]}}, {"type": "Feature", "properties": {"stop_name": "F\u00e9n\u00e9trange Carrefour des \u00c9tangs", "type": "Gare accessible"}, "geometry": {"type": "Point", "coordinates": [7.014465, 48.845572]}}, {"type": "Feature", "properties": {"stop_name": "F\u00e9n\u00e9trange Gendarmerie", "type": "Gare accessible"}, "geometry": {"type": "Point", "coordinates": [7.019818, 48.844289]}}, {"type": "Feature", "properties": {"stop_name": "Romelfling Rue de l'Europe", "type": "Gare accessible"}, "geometry": {"type": "Point", "coordinates": [7.020692, 48.831943]}}, {"type": "Feature", "properties": {"stop_name": "Berthelming Mairie", "type": "Gare accessible"}, "geometry": {"type": "Point", "coordinates": [7.007105, 48.816176]}}, {"type": "Feature", "properties": {"stop_name": "Berthelming Principale", "type": "Gare accessible"}, "geometry": {"type": "Point", "coordinates": [7.00887, 48.818607]}}, {"type": "Feature", "properties": {"stop_name": "Bettborn Grand Rue", "type": "Gare accessible"}, "geometry": {"type": "Point", "coordinates": [7.020655, 48.801309]}}, {"type": "Feature", "properties": {"stop_name": "Oberstinzel Rue Principale", "type": "Gare accessible"}, "geometry": {"type": "Point", "coordinates": [7.034662, 48.792843]}}, {"type": "Feature", "properties": {"stop_name": "Sarraltroff Mairie", "type": "Gare accessible"}, "geometry": {"type": "Point", "coordinates": [7.060816, 48.774013000000004]}}, {"type": "Feature", "properties": {"stop_name": "Sarraltroff Gare", "type": "Gare accessible"}, "geometry": {"type": "Point", "coordinates": [7.065614, 48.77005]}}, {"type": "Feature", "properties": {"stop_name": "Sarrebourg LP Messmer", "type": "Gare accessible"}, "geometry": {"type": "Point", "coordinates": [7.072717, 48.737334999999995]}}, {"type": "Feature", "properties": {"stop_name": "Sarrebourg Mairie", "type": "Gare accessible"}, "geometry": {"type": "Point", "coordinates": [7.053491, 48.732884000000006]}}, {"type": "Feature", "properties": {"stop_name": "Sarrebourg Place Mathey", "type": "Gare accessible"}, "geometry": {"type": "Point", "coordinates": [7.057152, 48.736878999999995]}}, {"type": "Feature", "properties": {"stop_name": "Sarrebourg Route de Phalsbourg", "type": "Gare accessible"}, "geometry": {"type": "Point", "coordinates": [7.066387, 48.73875]}}]}