{"type": "FeatureCollection", "features": [{"type": "Feature", "properties": {"start": "Sarreguemines", "stop_name": "Sarreguemines", "type": "Gare s\u00e9lectionn\u00e9e", "iconstarte": "Icon2"}, "geometry": {"type": "Point", "coordinates": [7.068576, 49.10738]}}, {"type": "Feature", "properties": {"start": "Sarreguemines", "stop_name": "Farschviller", "type": "Gare accessible", "icone": "TER"}, "geometry": {"type": "Point", "coordinates": [6.908082, 49.087877]}}, {"type": "Feature", "properties": {"start": "Sarreguemines", "stop_name": "B\u00e9ning-l\u00e8s-Saint-Avold", "type": "Gare accessible", "icone": "TER"}, "geometry": {"type": "Point", "coordinates": [6.82848, 49.138056]}}, {"type": "Feature", "properties": {"start": "Sarreguemines", "stop_name": "Far\u00e9bersviller", "type": "Gare accessible", "icone": "TER"}, "geometry": {"type": "Point", "coordinates": [6.861893, 49.11816]}}, {"type": "Feature", "properties": {"start": "Sarreguemines", "stop_name": "Hundling H\u00f4tel de Ville", "type": "Gare accessible", "icone": "TER"}, "geometry": {"type": "Point", "coordinates": [6.981629, 49.107534]}}, {"type": "Feature", "properties": {"start": "Sarreguemines", "stop_name": "Strasbourg", "type": "Gare accessible", "icone": "TER"}, "geometry": {"type": "Point", "coordinates": [7.734793, 48.584532]}}, {"type": "Feature", "properties": {"start": "Sarreguemines", "stop_name": "Mommenheim", "type": "Gare accessible", "icone": "TER"}, "geometry": {"type": "Point", "coordinates": [7.642303, 48.755951]}}, {"type": "Feature", "properties": {"start": "Sarreguemines", "stop_name": "Obermodern", "type": "Gare accessible", "icone": "TER"}, "geometry": {"type": "Point", "coordinates": [7.547135, 48.842587]}}, {"type": "Feature", "properties": {"start": "Sarreguemines", "stop_name": "Ingwiller", "type": "Gare accessible", "icone": "TER"}, "geometry": {"type": "Point", "coordinates": [7.477162, 48.872407]}}, {"type": "Feature", "properties": {"start": "Sarreguemines", "stop_name": "Wingen-sur-Moder", "type": "Gare accessible", "icone": "TER"}, "geometry": {"type": "Point", "coordinates": [7.380538, 48.920092]}}, {"type": "Feature", "properties": {"start": "Sarreguemines", "stop_name": "Tieffenbach - Struth", "type": "Gare accessible", "icone": "TER"}, "geometry": {"type": "Point", "coordinates": [7.255418, 48.90636]}}, {"type": "Feature", "properties": {"start": "Sarreguemines", "stop_name": "Diemeringen", "type": "Gare accessible", "icone": "TER"}, "geometry": {"type": "Point", "coordinates": [7.185252, 48.940533]}}, {"type": "Feature", "properties": {"start": "Sarreguemines", "stop_name": "Oermingen", "type": "Gare accessible", "icone": "TER"}, "geometry": {"type": "Point", "coordinates": [7.131732, 49.000372]}}, {"type": "Feature", "properties": {"start": "Sarreguemines", "stop_name": "Kalhausen Gare", "type": "Gare accessible", "icone": "TER"}, "geometry": {"type": "Point", "coordinates": [7.125438, 49.035033]}}, {"type": "Feature", "properties": {"start": "Sarreguemines", "stop_name": "Krimmeri Meinau", "type": "Gare accessible", "icone": "TER"}, "geometry": {"type": "Point", "coordinates": [7.752614, 48.563644]}}, {"type": "Feature", "properties": {"start": "Sarreguemines", "stop_name": "Saint-Avold", "type": "Gare accessible", "icone": "TER"}, "geometry": {"type": "Point", "coordinates": [6.720614, 49.085873]}}, {"type": "Feature", "properties": {"start": "Sarreguemines", "stop_name": "Faulquemont", "type": "Gare accessible", "icone": "TER"}, "geometry": {"type": "Point", "coordinates": [6.603751, 49.045386]}}, {"type": "Feature", "properties": {"start": "Sarreguemines", "stop_name": "R\u00e9milly", "type": "Gare accessible", "icone": "TER"}, "geometry": {"type": "Point", "coordinates": [6.395097, 49.014025]}}, {"type": "Feature", "properties": {"start": "Sarreguemines", "stop_name": "Metz", "type": "Gare accessible", "icone": "TER"}, "geometry": {"type": "Point", "coordinates": [6.177052, 49.109466]}}, {"type": "Feature", "properties": {"start": "Sarreguemines", "stop_name": "Hombourg-Haut", "type": "Gare accessible", "icone": "TER"}, "geometry": {"type": "Point", "coordinates": [6.77427, 49.126109]}}, {"type": "Feature", "properties": {"start": "Sarreguemines", "stop_name": "Sarrebruck", "type": "Gare accessible", "icone": "TER"}, "geometry": {"type": "Point", "coordinates": [6.991, 49.241]}}]}