{"type": "FeatureCollection", "features": [{"type": "Feature", "properties": {"start": "Strazeele", "stop_name": "Strazeele", "type": "Gare s\u00e9lectionn\u00e9e", "iconstarte": "Icon2"}, "geometry": {"type": "Point", "coordinates": [2.630928, 50.713419]}}, {"type": "Feature", "properties": {"start": "Strazeele", "stop_name": "Dunkerque", "type": "Gare accessible", "icone": "TER"}, "geometry": {"type": "Point", "coordinates": [2.368991, 51.03041]}}, {"type": "Feature", "properties": {"start": "Strazeele", "stop_name": "Bergues", "type": "Gare accessible", "icone": "TER"}, "geometry": {"type": "Point", "coordinates": [2.425787, 50.968997]}}, {"type": "Feature", "properties": {"start": "Strazeele", "stop_name": "Esquelbecq", "type": "Gare accessible", "icone": "TER"}, "geometry": {"type": "Point", "coordinates": [2.412368, 50.889751]}}, {"type": "Feature", "properties": {"start": "Strazeele", "stop_name": "Arn\u00e8ke", "type": "Gare accessible", "icone": "TER"}, "geometry": {"type": "Point", "coordinates": [2.408468, 50.831509]}}, {"type": "Feature", "properties": {"start": "Strazeele", "stop_name": "Cassel", "type": "Gare accessible", "icone": "TER"}, "geometry": {"type": "Point", "coordinates": [2.460361, 50.78753]}}, {"type": "Feature", "properties": {"start": "Strazeele", "stop_name": "Hazebrouck", "type": "Gare accessible", "icone": "TER"}, "geometry": {"type": "Point", "coordinates": [2.541463, 50.724924]}}, {"type": "Feature", "properties": {"start": "Strazeele", "stop_name": "Bailleul", "type": "Gare accessible", "icone": "TER"}, "geometry": {"type": "Point", "coordinates": [2.734485, 50.729167]}}, {"type": "Feature", "properties": {"start": "Strazeele", "stop_name": "Steenwerck", "type": "Gare accessible", "icone": "TER"}, "geometry": {"type": "Point", "coordinates": [2.786562, 50.712787]}}, {"type": "Feature", "properties": {"start": "Strazeele", "stop_name": "Nieppe", "type": "Gare accessible", "icone": "TER"}, "geometry": {"type": "Point", "coordinates": [2.829106, 50.696864]}}, {"type": "Feature", "properties": {"start": "Strazeele", "stop_name": "Armenti\u00e8res", "type": "Gare accessible", "icone": "TER"}, "geometry": {"type": "Point", "coordinates": [2.87768, 50.680848]}}, {"type": "Feature", "properties": {"start": "Strazeele", "stop_name": "P\u00e9renchies", "type": "Gare accessible", "icone": "TER"}, "geometry": {"type": "Point", "coordinates": [2.977239, 50.667044]}}, {"type": "Feature", "properties": {"start": "Strazeele", "stop_name": "Lille Porte de Douai", "type": "Gare accessible", "icone": "TER"}, "geometry": {"type": "Point", "coordinates": [3.075075, 50.612114]}}, {"type": "Feature", "properties": {"start": "Strazeele", "stop_name": "Lille Centre Hospitalier R\u00e9gional", "type": "Gare accessible", "icone": "TER"}, "geometry": {"type": "Point", "coordinates": [3.034278, 50.614297]}}, {"type": "Feature", "properties": {"start": "Strazeele", "stop_name": "Loos lez Lille", "type": "Gare accessible", "icone": "TER"}, "geometry": {"type": "Point", "coordinates": [3.016976, 50.612936]}}, {"type": "Feature", "properties": {"start": "Strazeele", "stop_name": "Haubourdin", "type": "Gare accessible", "icone": "TER"}, "geometry": {"type": "Point", "coordinates": [2.990145, 50.60707]}}, {"type": "Feature", "properties": {"start": "Strazeele", "stop_name": "Santes", "type": "Gare accessible", "icone": "TER"}, "geometry": {"type": "Point", "coordinates": [2.961977, 50.592063]}}, {"type": "Feature", "properties": {"start": "Strazeele", "stop_name": "Wavrin", "type": "Gare accessible", "icone": "TER"}, "geometry": {"type": "Point", "coordinates": [2.936654, 50.574424]}}, {"type": "Feature", "properties": {"start": "Strazeele", "stop_name": "Don - Sainghin", "type": "Gare accessible", "icone": "TER"}, "geometry": {"type": "Point", "coordinates": [2.914402, 50.551726]}}, {"type": "Feature", "properties": {"start": "Strazeele", "stop_name": "Marquillies", "type": "Gare accessible", "icone": "TER"}, "geometry": {"type": "Point", "coordinates": [2.867373, 50.548145]}}, {"type": "Feature", "properties": {"start": "Strazeele", "stop_name": "Salom\u00e9", "type": "Gare accessible", "icone": "TER"}, "geometry": {"type": "Point", "coordinates": [2.838268, 50.541881]}}, {"type": "Feature", "properties": {"start": "Strazeele", "stop_name": "La Bass\u00e9e", "type": "Gare accessible", "icone": "TER"}, "geometry": {"type": "Point", "coordinates": [2.80477, 50.527937]}}, {"type": "Feature", "properties": {"start": "Strazeele", "stop_name": "Cuinchy", "type": "Gare accessible", "icone": "TER"}, "geometry": {"type": "Point", "coordinates": [2.74743, 50.521851]}}, {"type": "Feature", "properties": {"start": "Strazeele", "stop_name": "B\u00e9thune", "type": "Gare accessible", "icone": "TER"}, "geometry": {"type": "Point", "coordinates": [2.640509, 50.521454]}}, {"type": "Feature", "properties": {"start": "Strazeele", "stop_name": "Saint-Andr\u00e9", "type": "Gare accessible", "icone": "TER"}, "geometry": {"type": "Point", "coordinates": [3.04766, 50.654307]}}, {"type": "Feature", "properties": {"start": "Strazeele", "stop_name": "La Madeleine", "type": "Gare accessible", "icone": "TER"}, "geometry": {"type": "Point", "coordinates": [3.072631, 50.660628]}}, {"type": "Feature", "properties": {"start": "Strazeele", "stop_name": "Lille Flandres", "type": "Gare accessible", "icone": "TER"}, "geometry": {"type": "Point", "coordinates": [3.06987, 50.636577]}}]}