{"type": "FeatureCollection", "features": [{"type": "Feature", "properties": {"stop_name": "S\u00e9lestat", "type": "Gare s\u00e9lectionn\u00e9e", "icone": "Icon2"}, "geometry": {"type": "Point", "coordinates": [7.443157, 48.259824]}}, {"type": "Feature", "properties": {"stop_name": "Ebersheim", "type": "Gare accessible", "icone": "Icon1"}, "geometry": {"type": "Point", "coordinates": [7.494537, 48.310047999999995]}}, {"type": "Feature", "properties": {"stop_name": "Kogenheim", "type": "Gare accessible", "icone": "Icon1"}, "geometry": {"type": "Point", "coordinates": [7.535288, 48.33879]}}, {"type": "Feature", "properties": {"stop_name": "Benfeld", "type": "Gare accessible", "icone": "Icon1"}, "geometry": {"type": "Point", "coordinates": [7.583866, 48.374069]}}, {"type": "Feature", "properties": {"stop_name": "Matzenheim", "type": "Gare accessible", "icone": "Icon1"}, "geometry": {"type": "Point", "coordinates": [7.619595, 48.398722]}}, {"type": "Feature", "properties": {"stop_name": "Erstein", "type": "Gare accessible", "icone": "Icon1"}, "geometry": {"type": "Point", "coordinates": [7.638701, 48.422982]}}, {"type": "Feature", "properties": {"stop_name": "Limersheim", "type": "Gare accessible", "icone": "Icon1"}, "geometry": {"type": "Point", "coordinates": [7.660306, 48.461591999999996]}}, {"type": "Feature", "properties": {"stop_name": "Fegersheim - Lipsheim", "type": "Gare accessible", "icone": "Icon1"}, "geometry": {"type": "Point", "coordinates": [7.672481, 48.490589]}}, {"type": "Feature", "properties": {"stop_name": "Geispolsheim", "type": "Gare accessible", "icone": "Icon1"}, "geometry": {"type": "Point", "coordinates": [7.684358, 48.519052]}}, {"type": "Feature", "properties": {"stop_name": "Graffenstaden", "type": "Gare accessible", "icone": "Icon1"}, "geometry": {"type": "Point", "coordinates": [7.689236, 48.532788000000004]}}, {"type": "Feature", "properties": {"stop_name": "Strasbourg", "type": "Gare accessible", "icone": "Icon1"}, "geometry": {"type": "Point", "coordinates": [7.734793, 48.584532]}}, {"type": "Feature", "properties": {"stop_name": "Colmar", "type": "Gare accessible", "icone": "Icon1"}, "geometry": {"type": "Point", "coordinates": [7.347756, 48.073527]}}, {"type": "Feature", "properties": {"stop_name": "Barr", "type": "Gare accessible", "icone": "Icon1"}, "geometry": {"type": "Point", "coordinates": [7.456713, 48.40348]}}, {"type": "Feature", "properties": {"stop_name": "Gertwiller", "type": "Gare accessible", "icone": "Icon1"}, "geometry": {"type": "Point", "coordinates": [7.466819, 48.413314]}}, {"type": "Feature", "properties": {"stop_name": "Goxwiller", "type": "Gare accessible", "icone": "Icon1"}, "geometry": {"type": "Point", "coordinates": [7.47873, 48.432755]}}, {"type": "Feature", "properties": {"stop_name": "Obernai", "type": "Gare accessible", "icone": "Icon1"}, "geometry": {"type": "Point", "coordinates": [7.48881, 48.46219]}}, {"type": "Feature", "properties": {"stop_name": "Bischoffsheim", "type": "Gare accessible", "icone": "Icon1"}, "geometry": {"type": "Point", "coordinates": [7.49772, 48.48701]}}, {"type": "Feature", "properties": {"stop_name": "Rosheim", "type": "Gare accessible", "icone": "Icon1"}, "geometry": {"type": "Point", "coordinates": [7.491065, 48.505196000000005]}}, {"type": "Feature", "properties": {"stop_name": "Dorlisheim", "type": "Gare accessible", "icone": "Icon1"}, "geometry": {"type": "Point", "coordinates": [7.493055, 48.524992]}}, {"type": "Feature", "properties": {"stop_name": "Molsheim", "type": "Gare accessible", "icone": "Icon1"}, "geometry": {"type": "Point", "coordinates": [7.500284, 48.537151]}}, {"type": "Feature", "properties": {"stop_name": "Entzheim A\u00e9roport", "type": "Gare accessible", "icone": "Icon1"}, "geometry": {"type": "Point", "coordinates": [7.62794, 48.54699]}}, {"type": "Feature", "properties": {"stop_name": "Eichhoffen", "type": "Gare accessible", "icone": "Icon1"}, "geometry": {"type": "Point", "coordinates": [7.449552, 48.382483]}}, {"type": "Feature", "properties": {"stop_name": "Epfig", "type": "Gare accessible", "icone": "Icon1"}, "geometry": {"type": "Point", "coordinates": [7.450345, 48.363593]}}, {"type": "Feature", "properties": {"stop_name": "Dambach-la-Ville", "type": "Gare accessible", "icone": "Icon1"}, "geometry": {"type": "Point", "coordinates": [7.435557, 48.321635]}}, {"type": "Feature", "properties": {"stop_name": "Scherwiller", "type": "Gare accessible", "icone": "Icon1"}, "geometry": {"type": "Point", "coordinates": [7.430187, 48.286934]}}, {"type": "Feature", "properties": {"stop_name": "Dachstein", "type": "Gare accessible", "icone": "Icon1"}, "geometry": {"type": "Point", "coordinates": [7.533004, 48.542854999999996]}}, {"type": "Feature", "properties": {"stop_name": "Duttlenheim", "type": "Gare accessible", "icone": "Icon1"}, "geometry": {"type": "Point", "coordinates": [7.566289, 48.545379]}}, {"type": "Feature", "properties": {"stop_name": "Duppigheim", "type": "Gare accessible", "icone": "Icon1"}, "geometry": {"type": "Point", "coordinates": [7.586809, 48.543966999999995]}}, {"type": "Feature", "properties": {"stop_name": "Lingolsheim", "type": "Gare accessible", "icone": "Icon1"}, "geometry": {"type": "Point", "coordinates": [7.678569, 48.559408000000005]}}, {"type": "Feature", "properties": {"stop_name": "Strasbourg Roethig", "type": "Gare accessible", "icone": "Icon1"}, "geometry": {"type": "Point", "coordinates": [7.69485, 48.563303000000005]}}, {"type": "Feature", "properties": {"stop_name": "Mulhouse", "type": "Gare accessible", "icone": "Icon1"}, "geometry": {"type": "Point", "coordinates": [7.34316, 47.742691]}}, {"type": "Feature", "properties": {"stop_name": "Rouffach", "type": "Gare accessible", "icone": "Icon1"}, "geometry": {"type": "Point", "coordinates": [7.312529, 47.960188]}}, {"type": "Feature", "properties": {"stop_name": "Bollwiller", "type": "Gare accessible", "icone": "Icon1"}, "geometry": {"type": "Point", "coordinates": [7.26718, 47.856969]}}, {"type": "Feature", "properties": {"stop_name": "Mulhouse Dornach", "type": "Gare accessible", "icone": "Icon1"}, "geometry": {"type": "Point", "coordinates": [7.308543, 47.746987]}}, {"type": "Feature", "properties": {"stop_name": "Merxheim", "type": "Gare accessible", "icone": "Icon1"}, "geometry": {"type": "Point", "coordinates": [7.302333, 47.913189]}}, {"type": "Feature", "properties": {"stop_name": "Raedersheim", "type": "Gare accessible", "icone": "Icon1"}, "geometry": {"type": "Point", "coordinates": [7.284047, 47.886906]}}, {"type": "Feature", "properties": {"stop_name": "Staffelfelden", "type": "Gare accessible", "icone": "Icon1"}, "geometry": {"type": "Point", "coordinates": [7.265018, 47.827618]}}, {"type": "Feature", "properties": {"stop_name": "Rixheim", "type": "Gare accessible", "icone": "Icon1"}, "geometry": {"type": "Point", "coordinates": [7.406144, 47.748695]}}, {"type": "Feature", "properties": {"stop_name": "Habsheim", "type": "Gare accessible", "icone": "Icon1"}, "geometry": {"type": "Point", "coordinates": [7.418008, 47.737689]}}, {"type": "Feature", "properties": {"stop_name": "Sierentz", "type": "Gare accessible", "icone": "Icon1"}, "geometry": {"type": "Point", "coordinates": [7.459332, 47.65589]}}, {"type": "Feature", "properties": {"stop_name": "Bartenheim", "type": "Gare accessible", "icone": "Icon1"}, "geometry": {"type": "Point", "coordinates": [7.487256, 47.634931]}}, {"type": "Feature", "properties": {"stop_name": "Saint-Louis la Chauss\u00e9e", "type": "Gare accessible", "icone": "Icon1"}, "geometry": {"type": "Point", "coordinates": [7.531278, 47.60951]}}, {"type": "Feature", "properties": {"stop_name": "Saint-Louis", "type": "Gare accessible", "icone": "Icon1"}, "geometry": {"type": "Point", "coordinates": [7.555988, 47.590609]}}, {"type": "Feature", "properties": {"stop_name": "B\u00e2le Saint-Jean", "type": "Gare accessible", "icone": "Icon1"}, "geometry": {"type": "Point", "coordinates": [7.572745, 47.57031]}}, {"type": "Feature", "properties": {"stop_name": "Basel SBB", "type": "Gare accessible", "icone": "Icon1"}, "geometry": {"type": "Point", "coordinates": [7.58956, 47.5474]}}]}