{"type": "FeatureCollection", "features": [{"type": "Feature", "properties": {"stop_name": "Ternay Barbi\u00e8res", "type": "Gare s\u00e9lectionn\u00e9e"}, "geometry": {"type": "Point", "coordinates": [4.799659, 45.596952]}}, {"type": "Feature", "properties": {"stop_name": "S\u00e9r\u00e9zin", "type": "Gare accessible"}, "geometry": {"type": "Point", "coordinates": [4.81812, 45.627264000000004]}}, {"type": "Feature", "properties": {"stop_name": "Ternay Chemin de la Gare", "type": "Gare accessible"}, "geometry": {"type": "Point", "coordinates": [4.809855, 45.611681]}}, {"type": "Feature", "properties": {"stop_name": "Ternay Centre", "type": "Gare accessible"}, "geometry": {"type": "Point", "coordinates": [4.8111, 45.605421]}}, {"type": "Feature", "properties": {"stop_name": "Ternay Boucherattes", "type": "Gare accessible"}, "geometry": {"type": "Point", "coordinates": [4.81913, 45.60311]}}, {"type": "Feature", "properties": {"stop_name": "Ternay Croix du Morze", "type": "Gare accessible"}, "geometry": {"type": "Point", "coordinates": [4.8083, 45.602096]}}, {"type": "Feature", "properties": {"stop_name": "Ternay Chassagne Grandes Combes", "type": "Gare accessible"}, "geometry": {"type": "Point", "coordinates": [4.807667, 45.598005]}}]}