{"type": "FeatureCollection", "features": [{"type": "Feature", "properties": {"stop_name": "Thouars", "type": "Gare s\u00e9lectionn\u00e9e", "icone": "Icon2"}, "geometry": {"type": "Point", "coordinates": [-0.21001999999999998, 46.985039]}}, {"type": "Feature", "properties": {"stop_name": "Montreuil-Bellay", "type": "Gare accessible", "icone": "Icon1"}, "geometry": {"type": "Point", "coordinates": [-0.148283, 47.125417999999996]}}, {"type": "Feature", "properties": {"stop_name": "Saumur", "type": "Gare accessible", "icone": "Icon1"}, "geometry": {"type": "Point", "coordinates": [-0.071403, 47.268994]}}, {"type": "Feature", "properties": {"stop_name": "Port Boulet", "type": "Gare accessible", "icone": "Icon1"}, "geometry": {"type": "Point", "coordinates": [0.155648, 47.248836]}}, {"type": "Feature", "properties": {"stop_name": "Langeais", "type": "Gare accessible", "icone": "Icon1"}, "geometry": {"type": "Point", "coordinates": [0.410104, 47.324058]}}, {"type": "Feature", "properties": {"stop_name": "Cinq-Mars-la-Pile", "type": "Gare accessible", "icone": "Icon1"}, "geometry": {"type": "Point", "coordinates": [0.459387, 47.345112]}}, {"type": "Feature", "properties": {"stop_name": "Tours", "type": "Gare accessible", "icone": "Icon1"}, "geometry": {"type": "Point", "coordinates": [0.692831, 47.389866]}}, {"type": "Feature", "properties": {"stop_name": "Savonni\u00e8res", "type": "Gare accessible", "icone": "Icon1"}, "geometry": {"type": "Point", "coordinates": [0.544182, 47.36058]}}, {"type": "Feature", "properties": {"stop_name": "Bressuire", "type": "Gare accessible", "icone": "Icon1"}, "geometry": {"type": "Point", "coordinates": [-0.49613999999999997, 46.838403]}}, {"type": "Feature", "properties": {"stop_name": "Angers Saint-Laud", "type": "Gare accessible", "icone": "Icon1"}, "geometry": {"type": "Point", "coordinates": [-0.55677, 47.464649]}}, {"type": "Feature", "properties": {"stop_name": "Tr\u00e9laz\u00e9", "type": "Gare accessible", "icone": "Icon1"}, "geometry": {"type": "Point", "coordinates": [-0.469666, 47.452845]}}, {"type": "Feature", "properties": {"stop_name": "La Bohalle", "type": "Gare accessible", "icone": "Icon1"}, "geometry": {"type": "Point", "coordinates": [-0.400124, 47.434228999999995]}}, {"type": "Feature", "properties": {"stop_name": "Saint-Mathurin", "type": "Gare accessible", "icone": "Icon1"}, "geometry": {"type": "Point", "coordinates": [-0.31809899999999997, 47.412073]}}, {"type": "Feature", "properties": {"stop_name": "La M\u00e9nitr\u00e9", "type": "Gare accessible", "icone": "Icon1"}, "geometry": {"type": "Point", "coordinates": [-0.275838, 47.397383000000005]}}, {"type": "Feature", "properties": {"stop_name": "Les Rosiers-sur-Loire", "type": "Gare accessible", "icone": "Icon1"}, "geometry": {"type": "Point", "coordinates": [-0.219373, 47.361859]}}, {"type": "Feature", "properties": {"stop_name": "La Roche-sur-Yon", "type": "Gare accessible", "icone": "Icon1"}, "geometry": {"type": "Point", "coordinates": [-1.43566, 46.672075]}}, {"type": "Feature", "properties": {"stop_name": "La Chaize-le-Vicomte", "type": "Gare accessible", "icone": "Icon1"}, "geometry": {"type": "Point", "coordinates": [-1.283601, 46.676840000000006]}}, {"type": "Feature", "properties": {"stop_name": "Fouger\u00e9", "type": "Gare accessible", "icone": "Icon1"}, "geometry": {"type": "Point", "coordinates": [-1.2321030000000002, 46.665362]}}, {"type": "Feature", "properties": {"stop_name": "Bournezeau", "type": "Gare accessible", "icone": "Icon1"}, "geometry": {"type": "Point", "coordinates": [-1.178402, 46.651524]}}, {"type": "Feature", "properties": {"stop_name": "Chantonnay", "type": "Gare accessible", "icone": "Icon1"}, "geometry": {"type": "Point", "coordinates": [-1.054325, 46.690068]}}, {"type": "Feature", "properties": {"stop_name": "Pouzauges", "type": "Gare accessible", "icone": "Icon1"}, "geometry": {"type": "Point", "coordinates": [-0.8394459999999999, 46.78031]}}, {"type": "Feature", "properties": {"stop_name": "Cerizay", "type": "Gare accessible", "icone": "Icon1"}, "geometry": {"type": "Point", "coordinates": [-0.667313, 46.817551]}}]}