{"type": "FeatureCollection", "features": [{"type": "Feature", "properties": {"stop_name": "Valence Gare Routi\u00e8re", "type": "Gare s\u00e9lectionn\u00e9e"}, "geometry": {"type": "Point", "coordinates": [4.892222, 44.927222]}}, {"type": "Feature", "properties": {"stop_name": "Valence TGV Rh\u00f4ne-Alpes Sud", "type": "Gare accessible"}, "geometry": {"type": "Point", "coordinates": [4.978652, 44.991907]}}, {"type": "Feature", "properties": {"stop_name": "Grenoble", "type": "Gare accessible"}, "geometry": {"type": "Point", "coordinates": [5.714366, 45.192693]}}, {"type": "Feature", "properties": {"stop_name": "Saint-Marcellin", "type": "Gare accessible"}, "geometry": {"type": "Point", "coordinates": [5.323654, 45.150884999999995]}}, {"type": "Feature", "properties": {"stop_name": "Die", "type": "Gare accessible"}, "geometry": {"type": "Point", "coordinates": [5.363219, 44.758238]}}, {"type": "Feature", "properties": {"stop_name": "Saillans", "type": "Gare accessible"}, "geometry": {"type": "Point", "coordinates": [5.19413, 44.694416]}}, {"type": "Feature", "properties": {"stop_name": "Crest", "type": "Gare accessible"}, "geometry": {"type": "Point", "coordinates": [5.016106, 44.730196]}}, {"type": "Feature", "properties": {"stop_name": "Luc-en-Diois", "type": "Gare accessible"}, "geometry": {"type": "Point", "coordinates": [5.454618, 44.613696999999995]}}, {"type": "Feature", "properties": {"stop_name": "Veynes D\u00e9voluy", "type": "Gare accessible"}, "geometry": {"type": "Point", "coordinates": [5.815807, 44.532019]}}, {"type": "Feature", "properties": {"stop_name": "Romans-Gare-Routi\u00e8re", "type": "Gare accessible"}, "geometry": {"type": "Point", "coordinates": [5.051394, 45.048390999999995]}}, {"type": "Feature", "properties": {"stop_name": "St-Etienne-Ch\u00e2tcrx. G Routi\u00e8re", "type": "Gare accessible"}, "geometry": {"type": "Point", "coordinates": [4.401156, 45.442658]}}, {"type": "Feature", "properties": {"stop_name": "Vienne-Gare-Routi\u00e8re", "type": "Gare accessible"}, "geometry": {"type": "Point", "coordinates": [4.873992, 45.521263]}}, {"type": "Feature", "properties": {"stop_name": "Tournon-Centre", "type": "Gare accessible"}, "geometry": {"type": "Point", "coordinates": [4.83421, 45.062979999999996]}}, {"type": "Feature", "properties": {"stop_name": "Annonay-Gare Routi\u00e8re", "type": "Gare accessible"}, "geometry": {"type": "Point", "coordinates": [4.66863, 45.24373]}}, {"type": "Feature", "properties": {"stop_name": "Charmes-sur-Rh\u00f4ne-centre", "type": "Gare accessible"}, "geometry": {"type": "Point", "coordinates": [4.834876, 44.862645]}}, {"type": "Feature", "properties": {"stop_name": "La Voulte-sur-Rh\u00f4ne Mairie", "type": "Gare accessible"}, "geometry": {"type": "Point", "coordinates": [4.781381, 44.799428999999996]}}, {"type": "Feature", "properties": {"stop_name": "Le Pouzin Place Mar\u00e9chal Leclerc", "type": "Gare accessible"}, "geometry": {"type": "Point", "coordinates": [4.747765, 44.756135]}}, {"type": "Feature", "properties": {"stop_name": "Saint-Julien-en-Saint-Alban Centre", "type": "Gare accessible"}, "geometry": {"type": "Point", "coordinates": [4.69801, 44.754225]}}, {"type": "Feature", "properties": {"stop_name": "FLAVIAC Ren\u00e9 Cassin", "type": "Gare accessible"}, "geometry": {"type": "Point", "coordinates": [4.674194, 44.746402]}}, {"type": "Feature", "properties": {"stop_name": "COUX Centre", "type": "Gare accessible"}, "geometry": {"type": "Point", "coordinates": [4.623871, 44.736095]}}, {"type": "Feature", "properties": {"stop_name": "Privas-Cours-du-Palais", "type": "Gare accessible"}, "geometry": {"type": "Point", "coordinates": [4.600045, 44.734577]}}, {"type": "Feature", "properties": {"stop_name": "Gap", "type": "Gare accessible"}, "geometry": {"type": "Point", "coordinates": [6.085669, 44.563714000000004]}}, {"type": "Feature", "properties": {"stop_name": "Chorges", "type": "Gare accessible"}, "geometry": {"type": "Point", "coordinates": [6.271889, 44.545842]}}, {"type": "Feature", "properties": {"stop_name": "Embrun", "type": "Gare accessible"}, "geometry": {"type": "Point", "coordinates": [6.496753, 44.567012]}}, {"type": "Feature", "properties": {"stop_name": "Mont-Dauphin - Guillestre", "type": "Gare accessible"}, "geometry": {"type": "Point", "coordinates": [6.61561, 44.674625]}}, {"type": "Feature", "properties": {"stop_name": "L'Argenti\u00e8re les \u00c9crins", "type": "Gare accessible"}, "geometry": {"type": "Point", "coordinates": [6.556408, 44.791013]}}, {"type": "Feature", "properties": {"stop_name": "Brian\u00e7on", "type": "Gare accessible"}, "geometry": {"type": "Point", "coordinates": [6.632966, 44.889842]}}, {"type": "Feature", "properties": {"stop_name": "Lyon-Part-Dieu Gare Routi\u00e8re", "type": "Gare accessible"}, "geometry": {"type": "Point", "coordinates": [4.862984, 45.761064000000005]}}, {"type": "Feature", "properties": {"stop_name": "Le P\u00e9age-de-Roussillon", "type": "Gare accessible"}, "geometry": {"type": "Point", "coordinates": [4.795406, 45.371724]}}, {"type": "Feature", "properties": {"stop_name": "Pierrelatte", "type": "Gare accessible"}, "geometry": {"type": "Point", "coordinates": [4.703798, 44.374634]}}, {"type": "Feature", "properties": {"stop_name": "Montelimar Gare Routi\u00e8re", "type": "Gare accessible"}, "geometry": {"type": "Point", "coordinates": [4.745107, 44.559439000000005]}}, {"type": "Feature", "properties": {"stop_name": "Saint-Clair - Les Roches", "type": "Gare accessible"}, "geometry": {"type": "Point", "coordinates": [4.769669, 45.450303000000005]}}, {"type": "Feature", "properties": {"stop_name": "Saint-Rambert-d'Albon", "type": "Gare accessible"}, "geometry": {"type": "Point", "coordinates": [4.810739, 45.29776]}}, {"type": "Feature", "properties": {"stop_name": "Saint-Vallier sur Rh\u00f4ne", "type": "Gare accessible"}, "geometry": {"type": "Point", "coordinates": [4.814302, 45.185678]}}, {"type": "Feature", "properties": {"stop_name": "Tain-l'Hermitage - Tournon", "type": "Gare accessible"}, "geometry": {"type": "Point", "coordinates": [4.839708, 45.072178]}}, {"type": "Feature", "properties": {"stop_name": "Pontaix", "type": "Gare accessible"}, "geometry": {"type": "Point", "coordinates": [5.264015, 44.749339]}}, {"type": "Feature", "properties": {"stop_name": "Vercheny", "type": "Gare accessible"}, "geometry": {"type": "Point", "coordinates": [5.259098, 44.705133000000004]}}, {"type": "Feature", "properties": {"stop_name": "Saillans-Pont-Algoud", "type": "Gare accessible"}, "geometry": {"type": "Point", "coordinates": [5.193872, 44.693934000000006]}}, {"type": "Feature", "properties": {"stop_name": "Blacons", "type": "Gare accessible"}, "geometry": {"type": "Point", "coordinates": [5.090696, 44.710423999999996]}}, {"type": "Feature", "properties": {"stop_name": "Aouste-sur-Sye", "type": "Gare accessible"}, "geometry": {"type": "Point", "coordinates": [5.057115, 44.716784999999994]}}, {"type": "Feature", "properties": {"stop_name": "Montoison", "type": "Gare accessible"}, "geometry": {"type": "Point", "coordinates": [4.941699, 44.796949]}}, {"type": "Feature", "properties": {"stop_name": "\u00c9toile", "type": "Gare accessible"}, "geometry": {"type": "Point", "coordinates": [4.868038, 44.8463]}}, {"type": "Feature", "properties": {"stop_name": "Beauvallon", "type": "Gare accessible"}, "geometry": {"type": "Point", "coordinates": [4.900911, 44.858303]}}, {"type": "Feature", "properties": {"stop_name": "Allex", "type": "Gare accessible"}, "geometry": {"type": "Point", "coordinates": [4.913496, 44.764001]}}, {"type": "Feature", "properties": {"stop_name": "Grane", "type": "Gare accessible"}, "geometry": {"type": "Point", "coordinates": [4.924482, 44.732115]}}]}