{"type": "FeatureCollection", "features": [{"type": "Feature", "properties": {"stop_name": "Vallorbe", "type": "Gare s\u00e9lectionn\u00e9e", "icone": "Icon2"}, "geometry": {"type": "Point", "coordinates": [6.37057, 46.71242]}}, {"type": "Feature", "properties": {"stop_name": "Pontarlier", "type": "Gare accessible", "icone": "Icon1"}, "geometry": {"type": "Point", "coordinates": [6.353418, 46.900988]}}, {"type": "Feature", "properties": {"stop_name": "Frasne", "type": "Gare accessible", "icone": "Icon1"}, "geometry": {"type": "Point", "coordinates": [6.157767, 46.857596]}}, {"type": "Feature", "properties": {"stop_name": "Labergement-Sainte-Marie", "type": "Gare accessible", "icone": "Icon1"}, "geometry": {"type": "Point", "coordinates": [6.28011, 46.77632]}}, {"type": "Feature", "properties": {"stop_name": "Mouchard", "type": "Gare accessible", "icone": "Icon1"}, "geometry": {"type": "Point", "coordinates": [5.799698, 46.976865000000004]}}, {"type": "Feature", "properties": {"stop_name": "Dole", "type": "Gare accessible", "icone": "Icon1"}, "geometry": {"type": "Point", "coordinates": [5.48806, 47.09615]}}]}