{"type": "FeatureCollection", "features": [{"type": "Feature", "properties": {"stop_name": "Vieilleville", "type": "Gare s\u00e9lectionn\u00e9e", "icone": "Icon2"}, "geometry": {"type": "Point", "coordinates": [1.673622, 46.091317]}}, {"type": "Feature", "properties": {"stop_name": "Montlu\u00e7on", "type": "Gare accessible", "icone": "Icon1"}, "geometry": {"type": "Point", "coordinates": [2.596159, 46.338101]}}, {"type": "Feature", "properties": {"stop_name": "Gu\u00e9ret", "type": "Gare accessible", "icone": "Icon1"}, "geometry": {"type": "Point", "coordinates": [1.879131, 46.174141999999996]}}, {"type": "Feature", "properties": {"stop_name": "Montaigut", "type": "Gare accessible", "icone": "Icon1"}, "geometry": {"type": "Point", "coordinates": [1.734106, 46.136742]}}, {"type": "Feature", "properties": {"stop_name": "Marsac", "type": "Gare accessible", "icone": "Icon1"}, "geometry": {"type": "Point", "coordinates": [1.585591, 46.094192]}}, {"type": "Feature", "properties": {"stop_name": "Saint-Sulpice-Lauri\u00e8re", "type": "Gare accessible", "icone": "Icon1"}, "geometry": {"type": "Point", "coordinates": [1.476261, 46.046902]}}, {"type": "Feature", "properties": {"stop_name": "Ambazac", "type": "Gare accessible", "icone": "Icon1"}, "geometry": {"type": "Point", "coordinates": [1.406583, 45.952901000000004]}}, {"type": "Feature", "properties": {"stop_name": "Limoges B\u00e9n\u00e9dictins", "type": "Gare accessible", "icone": "Icon1"}, "geometry": {"type": "Point", "coordinates": [1.267419, 45.836207]}}, {"type": "Feature", "properties": {"stop_name": "Huriel", "type": "Gare accessible", "icone": "Icon1"}, "geometry": {"type": "Point", "coordinates": [2.476249, 46.371340999999994]}}, {"type": "Feature", "properties": {"stop_name": "Lavaufranche", "type": "Gare accessible", "icone": "Icon1"}, "geometry": {"type": "Point", "coordinates": [2.270097, 46.321287]}}, {"type": "Feature", "properties": {"stop_name": "Parsac - Gouzon", "type": "Gare accessible", "icone": "Icon1"}, "geometry": {"type": "Point", "coordinates": [2.174641, 46.198389]}}, {"type": "Feature", "properties": {"stop_name": "Busseau sur Creuse", "type": "Gare accessible", "icone": "Icon1"}, "geometry": {"type": "Point", "coordinates": [2.023156, 46.122771]}}]}