{"type": "FeatureCollection", "features": [{"type": "Feature", "properties": {"stop_name": "Villefranque", "type": "Gare s\u00e9lectionn\u00e9e", "icone": "Icon2"}, "geometry": {"type": "Point", "coordinates": [-1.456289, 43.431489]}}, {"type": "Feature", "properties": {"stop_name": "Bayonne", "type": "Gare accessible", "icone": "Icon1"}, "geometry": {"type": "Point", "coordinates": [-1.4703680000000001, 43.496793]}}, {"type": "Feature", "properties": {"stop_name": "Ustaritz", "type": "Gare accessible", "icone": "Icon1"}, "geometry": {"type": "Point", "coordinates": [-1.449071, 43.404533]}}, {"type": "Feature", "properties": {"stop_name": "Halsou - Larressore", "type": "Gare accessible", "icone": "Icon1"}, "geometry": {"type": "Point", "coordinates": [-1.4279, 43.37813]}}, {"type": "Feature", "properties": {"stop_name": "Cambo-les-Bains", "type": "Gare accessible", "icone": "Icon1"}, "geometry": {"type": "Point", "coordinates": [-1.3968120000000002, 43.365431]}}, {"type": "Feature", "properties": {"stop_name": "Bidarray Pont Noblia", "type": "Gare accessible", "icone": "Icon1"}, "geometry": {"type": "Point", "coordinates": [-1.345104, 43.26812]}}, {"type": "Feature", "properties": {"stop_name": "Oss\u00e8s - Saint-Martin-d'Arrossa", "type": "Gare accessible", "icone": "Icon1"}, "geometry": {"type": "Point", "coordinates": [-1.305048, 43.235132]}}, {"type": "Feature", "properties": {"stop_name": "Saint-Jean-Pied-de-Port", "type": "Gare accessible", "icone": "Icon1"}, "geometry": {"type": "Point", "coordinates": [-1.237725, 43.167726]}}]}