{"type": "FeatureCollection", "features": [{"type": "Feature", "properties": {"start": "Virieu sur Bourbre", "stop_name": "Virieu sur Bourbre", "type": "Gare s\u00e9lectionn\u00e9e", "iconstarte": "Icon2"}, "geometry": {"type": "Point", "coordinates": [5.47213, 45.491758]}}, {"type": "Feature", "properties": {"start": "Virieu sur Bourbre", "stop_name": "Saint-Andr\u00e9-le-Gaz", "type": "Gare accessible", "icone": "TER"}, "geometry": {"type": "Point", "coordinates": [5.524254, 45.544529]}}, {"type": "Feature", "properties": {"start": "Virieu sur Bourbre", "stop_name": "Ch\u00e2bons", "type": "Gare accessible", "icone": "TER"}, "geometry": {"type": "Point", "coordinates": [5.428099, 45.438407]}}, {"type": "Feature", "properties": {"start": "Virieu sur Bourbre", "stop_name": "Le Grand-Lemps", "type": "Gare accessible", "icone": "TER"}, "geometry": {"type": "Point", "coordinates": [5.42314, 45.396676]}}, {"type": "Feature", "properties": {"start": "Virieu sur Bourbre", "stop_name": "Rives", "type": "Gare accessible", "icone": "TER"}, "geometry": {"type": "Point", "coordinates": [5.491895, 45.357594]}}, {"type": "Feature", "properties": {"start": "Virieu sur Bourbre", "stop_name": "R\u00e9aumont - Saint-Cassien", "type": "Gare accessible", "icone": "TER"}, "geometry": {"type": "Point", "coordinates": [5.534859, 45.368821]}}, {"type": "Feature", "properties": {"start": "Virieu sur Bourbre", "stop_name": "Voiron", "type": "Gare accessible", "icone": "TER"}, "geometry": {"type": "Point", "coordinates": [5.594959, 45.364034]}}, {"type": "Feature", "properties": {"start": "Virieu sur Bourbre", "stop_name": "Moirans", "type": "Gare accessible", "icone": "TER"}, "geometry": {"type": "Point", "coordinates": [5.581934, 45.32216]}}, {"type": "Feature", "properties": {"start": "Virieu sur Bourbre", "stop_name": "Voreppe", "type": "Gare accessible", "icone": "TER"}, "geometry": {"type": "Point", "coordinates": [5.632119, 45.290415]}}, {"type": "Feature", "properties": {"start": "Virieu sur Bourbre", "stop_name": "Grenoble", "type": "Gare accessible", "icone": "TER"}, "geometry": {"type": "Point", "coordinates": [5.714366, 45.192693]}}, {"type": "Feature", "properties": {"start": "Virieu sur Bourbre", "stop_name": "\u00c9chirolles", "type": "Gare accessible", "icone": "TER"}, "geometry": {"type": "Point", "coordinates": [5.718943, 45.153022]}}, {"type": "Feature", "properties": {"start": "Virieu sur Bourbre", "stop_name": "Grenoble Universit\u00e9s - Gi\u00e8res", "type": "Gare accessible", "icone": "TER"}, "geometry": {"type": "Point", "coordinates": [5.784731, 45.184971]}}, {"type": "Feature", "properties": {"start": "Virieu sur Bourbre", "stop_name": "Chamb\u00e9ry - Challes-les-Eaux", "type": "Gare accessible", "icone": "TER"}, "geometry": {"type": "Point", "coordinates": [5.919547, 45.571302]}}, {"type": "Feature", "properties": {"start": "Virieu sur Bourbre", "stop_name": "Montm\u00e9lian", "type": "Gare accessible", "icone": "TER"}, "geometry": {"type": "Point", "coordinates": [6.043175, 45.503082]}}, {"type": "Feature", "properties": {"start": "Virieu sur Bourbre", "stop_name": "Pontcharra sur Br\u00e9da", "type": "Gare accessible", "icone": "TER"}, "geometry": {"type": "Point", "coordinates": [6.007859, 45.434091]}}, {"type": "Feature", "properties": {"start": "Virieu sur Bourbre", "stop_name": "Goncelin", "type": "Gare accessible", "icone": "TER"}, "geometry": {"type": "Point", "coordinates": [5.974103, 45.341962]}}, {"type": "Feature", "properties": {"start": "Virieu sur Bourbre", "stop_name": "Brignoud", "type": "Gare accessible", "icone": "TER"}, "geometry": {"type": "Point", "coordinates": [5.90145, 45.262494]}}, {"type": "Feature", "properties": {"start": "Virieu sur Bourbre", "stop_name": "Lancey", "type": "Gare accessible", "icone": "TER"}, "geometry": {"type": "Point", "coordinates": [5.880963, 45.234497]}}]}