{"type": "FeatureCollection", "features": [{"type": "Feature", "properties": {"stop_name": "Walbourg", "type": "Gare s\u00e9lectionn\u00e9e", "icone": "Icon2"}, "geometry": {"type": "Point", "coordinates": [7.80923, 48.886249]}}, {"type": "Feature", "properties": {"stop_name": "Strasbourg", "type": "Gare accessible", "icone": "Icon1"}, "geometry": {"type": "Point", "coordinates": [7.734793, 48.584532]}}, {"type": "Feature", "properties": {"stop_name": "Bischwiller", "type": "Gare accessible", "icone": "Icon1"}, "geometry": {"type": "Point", "coordinates": [7.851654, 48.765753000000004]}}, {"type": "Feature", "properties": {"stop_name": "Haguenau", "type": "Gare accessible", "icone": "Icon1"}, "geometry": {"type": "Point", "coordinates": [7.782757, 48.813486]}}, {"type": "Feature", "properties": {"stop_name": "Hoelschloch", "type": "Gare accessible", "icone": "Icon1"}, "geometry": {"type": "Point", "coordinates": [7.831509, 48.916318]}}, {"type": "Feature", "properties": {"stop_name": "Soultz-sous-For\u00eats", "type": "Gare accessible", "icone": "Icon1"}, "geometry": {"type": "Point", "coordinates": [7.882664, 48.934775]}}, {"type": "Feature", "properties": {"stop_name": "Hoffen", "type": "Gare accessible", "icone": "Icon1"}, "geometry": {"type": "Point", "coordinates": [7.933532, 48.931235]}}, {"type": "Feature", "properties": {"stop_name": "Riedseltz", "type": "Gare accessible", "icone": "Icon1"}, "geometry": {"type": "Point", "coordinates": [7.962985, 48.991144]}}, {"type": "Feature", "properties": {"stop_name": "Wissembourg", "type": "Gare accessible", "icone": "Icon1"}, "geometry": {"type": "Point", "coordinates": [7.95018, 49.031931]}}, {"type": "Feature", "properties": {"stop_name": "Hunspach", "type": "Gare accessible", "icone": "Icon1"}, "geometry": {"type": "Point", "coordinates": [7.953774, 48.961673]}}, {"type": "Feature", "properties": {"stop_name": "Vendenheim", "type": "Gare accessible", "icone": "Icon1"}, "geometry": {"type": "Point", "coordinates": [7.717777, 48.665921999999995]}}]}