{"type": "FeatureCollection", "features": [{"type": "Feature", "properties": {"start": "Yffiniac", "stop_name": "Yffiniac", "type": "Gare s\u00e9lectionn\u00e9e", "iconstarte": "Icon2"}, "geometry": {"type": "Point", "coordinates": [-2.652447, 48.470083]}}, {"type": "Feature", "properties": {"start": "Yffiniac", "stop_name": "Dinan", "type": "Gare accessible", "icone": "TER"}, "geometry": {"type": "Point", "coordinates": [-2.053425, 48.456715]}}, {"type": "Feature", "properties": {"start": "Yffiniac", "stop_name": "Corseul - Languenan", "type": "Gare accessible", "icone": "TER"}, "geometry": {"type": "Point", "coordinates": [-2.141728, 48.496186]}}, {"type": "Feature", "properties": {"start": "Yffiniac", "stop_name": "Planco\u00ebt", "type": "Gare accessible", "icone": "TER"}, "geometry": {"type": "Point", "coordinates": [-2.228921, 48.521679]}}, {"type": "Feature", "properties": {"start": "Yffiniac", "stop_name": "Land\u00e9bia", "type": "Gare accessible", "icone": "TER"}, "geometry": {"type": "Point", "coordinates": [-2.331372, 48.507421]}}, {"type": "Feature", "properties": {"start": "Yffiniac", "stop_name": "Lamballe", "type": "Gare accessible", "icone": "TER"}, "geometry": {"type": "Point", "coordinates": [-2.511546, 48.46606]}}, {"type": "Feature", "properties": {"start": "Yffiniac", "stop_name": "Saint-Brieuc", "type": "Gare accessible", "icone": "TER"}, "geometry": {"type": "Point", "coordinates": [-2.765, 48.50758]}}, {"type": "Feature", "properties": {"start": "Yffiniac", "stop_name": "Rennes", "type": "Gare accessible", "icone": "TER"}, "geometry": {"type": "Point", "coordinates": [-1.672744, 48.103517]}}, {"type": "Feature", "properties": {"start": "Yffiniac", "stop_name": "Montauban-de-Bretagne", "type": "Gare accessible", "icone": "TER"}, "geometry": {"type": "Point", "coordinates": [-2.052675, 48.190241]}}, {"type": "Feature", "properties": {"start": "Yffiniac", "stop_name": "Caulnes", "type": "Gare accessible", "icone": "TER"}, "geometry": {"type": "Point", "coordinates": [-2.155593, 48.284426]}}, {"type": "Feature", "properties": {"start": "Yffiniac", "stop_name": "Broons", "type": "Gare accessible", "icone": "TER"}, "geometry": {"type": "Point", "coordinates": [-2.235746, 48.333398]}}, {"type": "Feature", "properties": {"start": "Yffiniac", "stop_name": "Pl\u00e9n\u00e9e-Jugon", "type": "Gare accessible", "icone": "TER"}, "geometry": {"type": "Point", "coordinates": [-2.354611, 48.376656]}}, {"type": "Feature", "properties": {"start": "Yffiniac", "stop_name": "Plestan", "type": "Gare accessible", "icone": "TER"}, "geometry": {"type": "Point", "coordinates": [-2.442484, 48.425712]}}, {"type": "Feature", "properties": {"start": "Yffiniac", "stop_name": "Montfort-sur-Meu", "type": "Gare accessible", "icone": "TER"}, "geometry": {"type": "Point", "coordinates": [-1.949141, 48.138878]}}, {"type": "Feature", "properties": {"start": "Yffiniac", "stop_name": "Qu\u00e9dillac", "type": "Gare accessible", "icone": "TER"}, "geometry": {"type": "Point", "coordinates": [-2.14522, 48.24848]}}, {"type": "Feature", "properties": {"start": "Yffiniac", "stop_name": "Breteil", "type": "Gare accessible", "icone": "TER"}, "geometry": {"type": "Point", "coordinates": [-1.897545, 48.140539]}}]}