{"type": "FeatureCollection", "features": [{"type": "Feature", "properties": {"start": "Ailly-sur-Noye", "stop_name": "Ailly-sur-Noye", "type": "Gare s\u00e9lectionn\u00e9e", "transport": "TER", "nombre_trajet_moyen": 4.55, "transport_legende": "\ud83d\udeb2 \u2764\ufe0f Train TER \ud83d\ude86"}, "geometry": {"type": "Point", "coordinates": [2.364147, 49.754206]}}, {"type": "Feature", "properties": {"start": "Ailly-sur-Noye", "stop_name": "Amiens", "type": "Gare accessible", "transport": "TER", "nombre_trajet_moyen": 4.55, "transport_legende": "\ud83d\udeb2 \u2764\ufe0f Train TER \ud83d\ude86"}, "geometry": {"type": "Point", "coordinates": [2.308277, 49.890584]}}, {"type": "Feature", "properties": {"start": "Ailly-sur-Noye", "stop_name": "Longueau", "type": "Gare accessible", "transport": "TER", "nombre_trajet_moyen": 4.55, "transport_legende": "\ud83d\udeb2 \u2764\ufe0f Train TER \ud83d\ude86"}, "geometry": {"type": "Point", "coordinates": [2.352233, 49.863407]}}, {"type": "Feature", "properties": {"start": "Ailly-sur-Noye", "stop_name": "Breteuil-Embranchement", "type": "Gare accessible", "transport": "TER", "nombre_trajet_moyen": 4.55, "transport_legende": "\ud83d\udeb2 \u2764\ufe0f Train TER \ud83d\ude86"}, "geometry": {"type": "Point", "coordinates": [2.384714, 49.626499]}}, {"type": "Feature", "properties": {"start": "Ailly-sur-Noye", "stop_name": "Saint-Just-en-Chauss\u00e9e", "type": "Gare accessible", "transport": "TER", "nombre_trajet_moyen": 4.55, "transport_legende": "\ud83d\udeb2 \u2764\ufe0f Train TER \ud83d\ude86"}, "geometry": {"type": "Point", "coordinates": [2.42949, 49.50364]}}, {"type": "Feature", "properties": {"start": "Ailly-sur-Noye", "stop_name": "Avrechy", "type": "Gare accessible", "transport": "TER", "nombre_trajet_moyen": 3.47, "transport_legende": "\ud83d\udeb2 \u2764\ufe0f Train TER \ud83d\ude86"}, "geometry": {"type": "Point", "coordinates": [2.418194, 49.444637]}}, {"type": "Feature", "properties": {"start": "Ailly-sur-Noye", "stop_name": "Clermont de l'Oise", "type": "Gare accessible", "transport": "TER", "nombre_trajet_moyen": 4.55, "transport_legende": "\ud83d\udeb2 \u2764\ufe0f Train TER \ud83d\ude86"}, "geometry": {"type": "Point", "coordinates": [2.417663, 49.385278]}}, {"type": "Feature", "properties": {"start": "Ailly-sur-Noye", "stop_name": "Liancourt - Rantigny", "type": "Gare accessible", "transport": "TER", "nombre_trajet_moyen": 4.55, "transport_legende": "\ud83d\udeb2 \u2764\ufe0f Train TER \ud83d\ude86"}, "geometry": {"type": "Point", "coordinates": [2.445255, 49.324818]}}, {"type": "Feature", "properties": {"start": "Ailly-sur-Noye", "stop_name": "Laigneville", "type": "Gare accessible", "transport": "TER", "nombre_trajet_moyen": 4.55, "transport_legende": "\ud83d\udeb2 \u2764\ufe0f Train TER \ud83d\ude86"}, "geometry": {"type": "Point", "coordinates": [2.449251, 49.29291]}}, {"type": "Feature", "properties": {"start": "Ailly-sur-Noye", "stop_name": "Creil", "type": "Gare accessible", "transport": "TER", "nombre_trajet_moyen": 4.55, "transport_legende": "\ud83d\udeb2 \u2764\ufe0f Train TER \ud83d\ude86"}, "geometry": {"type": "Point", "coordinates": [2.469293, 49.263775]}}, {"type": "Feature", "properties": {"start": "Ailly-sur-Noye", "stop_name": "Chantilly - Gouvieux", "type": "Gare accessible", "transport": "TER", "nombre_trajet_moyen": 3.35, "transport_legende": "\ud83d\udeb2 \u2764\ufe0f Train TER \ud83d\ude86"}, "geometry": {"type": "Point", "coordinates": [2.459771, 49.187219]}}, {"type": "Feature", "properties": {"start": "Ailly-sur-Noye", "stop_name": "Orry-la-Ville - Coye", "type": "Gare accessible", "transport": "TER", "nombre_trajet_moyen": 3.35, "transport_legende": "\ud83d\udeb2 \u2764\ufe0f Train TER \ud83d\ude86"}, "geometry": {"type": "Point", "coordinates": [2.489997, 49.13893]}}, {"type": "Feature", "properties": {"start": "Ailly-sur-Noye", "stop_name": "Paris Gare du Nord", "type": "Gare accessible", "transport": "TER", "nombre_trajet_moyen": 3.35, "transport_legende": "\ud83d\udeb2 \u2764\ufe0f Train TER \ud83d\ude86"}, "geometry": {"type": "Point", "coordinates": [2.354851, 48.880136]}}, {"type": "Feature", "properties": {"start": "Ailly-sur-Noye", "stop_name": "La Faloise", "type": "Gare accessible", "transport": "TER", "nombre_trajet_moyen": 3.1, "transport_legende": "\ud83d\udeb2 \u2764\ufe0f Train TER \ud83d\ude86"}, "geometry": {"type": "Point", "coordinates": [2.348668, 49.696476]}}, {"type": "Feature", "properties": {"start": "Ailly-sur-Noye", "stop_name": "Dommartin - Remiencourt", "type": "Gare accessible", "transport": "TER", "nombre_trajet_moyen": 3.1, "transport_legende": "\ud83d\udeb2 \u2764\ufe0f Train TER \ud83d\ude86"}, "geometry": {"type": "Point", "coordinates": [2.392512, 49.799287]}}, {"type": "Feature", "properties": {"start": "Ailly-sur-Noye", "stop_name": "Boves", "type": "Gare accessible", "transport": "TER", "nombre_trajet_moyen": 3.1, "transport_legende": "\ud83d\udeb2 \u2764\ufe0f Train TER \ud83d\ude86"}, "geometry": {"type": "Point", "coordinates": [2.397793, 49.846337]}}, {"type": "Feature", "properties": {"start": "Ailly-sur-Noye", "stop_name": "Gannes", "type": "Gare accessible", "transport": "TER", "nombre_trajet_moyen": 2.56, "transport_legende": "\ud83d\udeb2 \u2764\ufe0f Train TER \ud83d\ude86"}, "geometry": {"type": "Point", "coordinates": [2.437055, 49.572092]}}, {"type": "Feature", "properties": {"start": "Ailly-sur-Noye", "stop_name": "Saint-Remy-en-l'Eau", "type": "Gare accessible", "transport": "TER", "nombre_trajet_moyen": 1.81, "transport_legende": "\ud83d\udeb2 \u2764\ufe0f Train TER \ud83d\ude86"}, "geometry": {"type": "Point", "coordinates": [2.425975, 49.468447]}}]}