{"type": "FeatureCollection", "features": [{"type": "Feature", "properties": {"start": "Baroncourt", "stop_name": "Baroncourt", "type": "Gare s\u00e9lectionn\u00e9e", "transport": "TER", "nombre_trajet_moyen": 3.64, "transport_legende": "\ud83d\udeb2 \u2764\ufe0f Train TER \ud83d\ude86"}, "geometry": {"type": "Point", "coordinates": [5.699708, 49.284534]}}, {"type": "Feature", "properties": {"start": "Baroncourt", "stop_name": "Nancy", "type": "Gare accessible", "transport": "TER", "nombre_trajet_moyen": 3.53, "transport_legende": "\ud83d\udeb2 \u2764\ufe0f Train TER \ud83d\ude86"}, "geometry": {"type": "Point", "coordinates": [6.174579, 48.689857]}}, {"type": "Feature", "properties": {"start": "Baroncourt", "stop_name": "Pont-\u00e0-Mousson", "type": "Gare accessible", "transport": "TER", "nombre_trajet_moyen": 3.49, "transport_legende": "\ud83d\udeb2 \u2764\ufe0f Train TER \ud83d\ude86"}, "geometry": {"type": "Point", "coordinates": [6.051021, 48.900348]}}, {"type": "Feature", "properties": {"start": "Baroncourt", "stop_name": "Onville", "type": "Gare accessible", "transport": "TER", "nombre_trajet_moyen": 3.49, "transport_legende": "\ud83d\udeb2 \u2764\ufe0f Train TER \ud83d\ude86"}, "geometry": {"type": "Point", "coordinates": [5.979092, 49.013667]}}, {"type": "Feature", "properties": {"start": "Baroncourt", "stop_name": "Conflans - Jarny", "type": "Gare accessible", "transport": "TER", "nombre_trajet_moyen": 3.64, "transport_legende": "\ud83d\udeb2 \u2764\ufe0f Train TER \ud83d\ude86"}, "geometry": {"type": "Point", "coordinates": [5.867933, 49.166118]}}, {"type": "Feature", "properties": {"start": "Baroncourt", "stop_name": "Longuyon", "type": "Gare accessible", "transport": "TER", "nombre_trajet_moyen": 3.6, "transport_legende": "\ud83d\udeb2 \u2764\ufe0f Train TER \ud83d\ude86"}, "geometry": {"type": "Point", "coordinates": [5.604551, 49.444412]}}, {"type": "Feature", "properties": {"start": "Baroncourt", "stop_name": "Longwy", "type": "Gare accessible", "transport": "TER", "nombre_trajet_moyen": 3.6, "transport_legende": "\ud83d\udeb2 \u2764\ufe0f Train TER \ud83d\ude86"}, "geometry": {"type": "Point", "coordinates": [5.76956, 49.513004]}}]}