{"type": "FeatureCollection", "features": [{"type": "Feature", "properties": {"start": "Baule", "stop_name": "Baule", "type": "Gare s\u00e9lectionn\u00e9e", "transport": "TER", "transport_legende": "\ud83d\udeb2 \u2764\ufe0f Train TER \ud83d\ude86"}, "geometry": {"type": "Point", "coordinates": [1.668274, 47.811886]}}, {"type": "Feature", "properties": {"start": "Baule", "stop_name": "Orl\u00e9ans", "type": "Gare accessible", "transport": "TER", "transport_legende": "\ud83d\udeb2 \u2764\ufe0f Train TER \ud83d\ude86"}, "geometry": {"type": "Point", "coordinates": [1.904242, 47.907891]}}, {"type": "Feature", "properties": {"start": "Baule", "stop_name": "Meung-sur-Loire", "type": "Gare accessible", "transport": "TER", "transport_legende": "\ud83d\udeb2 \u2764\ufe0f Train TER \ud83d\ude86"}, "geometry": {"type": "Point", "coordinates": [1.691921, 47.829954]}}, {"type": "Feature", "properties": {"start": "Baule", "stop_name": "Beaugency", "type": "Gare accessible", "transport": "TER", "transport_legende": "\ud83d\udeb2 \u2764\ufe0f Train TER \ud83d\ude86"}, "geometry": {"type": "Point", "coordinates": [1.625944, 47.778404]}}, {"type": "Feature", "properties": {"start": "Baule", "stop_name": "Mer", "type": "Gare accessible", "transport": "TER", "transport_legende": "\ud83d\udeb2 \u2764\ufe0f Train TER \ud83d\ude86"}, "geometry": {"type": "Point", "coordinates": [1.506363, 47.705894]}}, {"type": "Feature", "properties": {"start": "Baule", "stop_name": "Blois - Chambord", "type": "Gare accessible", "transport": "TER", "transport_legende": "\ud83d\udeb2 \u2764\ufe0f Train TER \ud83d\ude86"}, "geometry": {"type": "Point", "coordinates": [1.323759, 47.585449]}}, {"type": "Feature", "properties": {"start": "Baule", "stop_name": "Onzain - Chaumont-sur-Loire", "type": "Gare accessible", "transport": "TER", "transport_legende": "\ud83d\udeb2 \u2764\ufe0f Train TER \ud83d\ude86"}, "geometry": {"type": "Point", "coordinates": [1.18595, 47.492]}}, {"type": "Feature", "properties": {"start": "Baule", "stop_name": "Amboise", "type": "Gare accessible", "transport": "TER", "transport_legende": "\ud83d\udeb2 \u2764\ufe0f Train TER \ud83d\ude86"}, "geometry": {"type": "Point", "coordinates": [0.981267, 47.421469]}}, {"type": "Feature", "properties": {"start": "Baule", "stop_name": "Montlouis", "type": "Gare accessible", "transport": "TER", "transport_legende": "\ud83d\udeb2 \u2764\ufe0f Train TER \ud83d\ude86"}, "geometry": {"type": "Point", "coordinates": [0.817476, 47.391564]}}, {"type": "Feature", "properties": {"start": "Baule", "stop_name": "Saint-Pierre-des-Corps", "type": "Gare accessible", "transport": "TER", "transport_legende": "\ud83d\udeb2 \u2764\ufe0f Train TER \ud83d\ude86"}, "geometry": {"type": "Point", "coordinates": [0.723539, 47.38614]}}, {"type": "Feature", "properties": {"start": "Baule", "stop_name": "Tours", "type": "Gare accessible", "transport": "TER", "transport_legende": "\ud83d\udeb2 \u2764\ufe0f Train TER \ud83d\ude86"}, "geometry": {"type": "Point", "coordinates": [0.692831, 47.389866]}}, {"type": "Feature", "properties": {"start": "Baule", "stop_name": "Saint-Ay", "type": "Gare accessible", "transport": "TER", "transport_legende": "\ud83d\udeb2 \u2764\ufe0f Train TER \ud83d\ude86"}, "geometry": {"type": "Point", "coordinates": [1.750163, 47.863162]}}, {"type": "Feature", "properties": {"start": "Baule", "stop_name": "Chaingy Fourneaux Plage", "type": "Gare accessible", "transport": "TER", "transport_legende": "\ud83d\udeb2 \u2764\ufe0f Train TER \ud83d\ude86"}, "geometry": {"type": "Point", "coordinates": [1.782365, 47.877178]}}, {"type": "Feature", "properties": {"start": "Baule", "stop_name": "La Chapelle-Saint-Mesmin", "type": "Gare accessible", "transport": "TER", "transport_legende": "\ud83d\udeb2 \u2764\ufe0f Train TER \ud83d\ude86"}, "geometry": {"type": "Point", "coordinates": [1.826981, 47.892935]}}, {"type": "Feature", "properties": {"start": "Baule", "stop_name": "Su\u00e8vres", "type": "Gare accessible", "transport": "TER", "transport_legende": "\ud83d\udeb2 \u2764\ufe0f Train TER \ud83d\ude86"}, "geometry": {"type": "Point", "coordinates": [1.454098, 47.680225]}}, {"type": "Feature", "properties": {"start": "Baule", "stop_name": "Menars", "type": "Gare accessible", "transport": "TER", "transport_legende": "\ud83d\udeb2 \u2764\ufe0f Train TER \ud83d\ude86"}, "geometry": {"type": "Point", "coordinates": [1.405653, 47.644928]}}, {"type": "Feature", "properties": {"start": "Baule", "stop_name": "La Chauss\u00e9e-Saint-Victor", "type": "Gare accessible", "transport": "TER", "transport_legende": "\ud83d\udeb2 \u2764\ufe0f Train TER \ud83d\ude86"}, "geometry": {"type": "Point", "coordinates": [1.353372, 47.612517]}}]}