{"type": "FeatureCollection", "features": [{"type": "Feature", "properties": {"start": "Bertrichamps", "stop_name": "Bertrichamps", "type": "Gare s\u00e9lectionn\u00e9e", "transport": "TER", "transport_legende": "\ud83d\udeb2 \u2764\ufe0f Train TER \ud83d\ude86"}, "geometry": {"type": "Point", "coordinates": [6.791125, 48.428401]}}, {"type": "Feature", "properties": {"start": "Bertrichamps", "stop_name": "Nancy", "type": "Gare accessible", "transport": "TER", "transport_legende": "\ud83d\udeb2 \u2764\ufe0f Train TER \ud83d\ude86"}, "geometry": {"type": "Point", "coordinates": [6.174579, 48.689857]}}, {"type": "Feature", "properties": {"start": "Bertrichamps", "stop_name": "Lun\u00e9ville", "type": "Gare accessible", "transport": "TER", "transport_legende": "\ud83d\udeb2 \u2764\ufe0f Train TER \ud83d\ude86"}, "geometry": {"type": "Point", "coordinates": [6.496997, 48.58799]}}, {"type": "Feature", "properties": {"start": "Bertrichamps", "stop_name": "Saint-Cl\u00e9ment - Laronxe", "type": "Gare accessible", "transport": "TER", "transport_legende": "\ud83d\udeb2 \u2764\ufe0f Train TER \ud83d\ude86"}, "geometry": {"type": "Point", "coordinates": [6.608166, 48.531216]}}, {"type": "Feature", "properties": {"start": "Bertrichamps", "stop_name": "Chenevi\u00e8res", "type": "Gare accessible", "transport": "TER", "transport_legende": "\ud83d\udeb2 \u2764\ufe0f Train TER \ud83d\ude86"}, "geometry": {"type": "Point", "coordinates": [6.63247, 48.519404]}}, {"type": "Feature", "properties": {"start": "Bertrichamps", "stop_name": "Azerailles", "type": "Gare accessible", "transport": "TER", "transport_legende": "\ud83d\udeb2 \u2764\ufe0f Train TER \ud83d\ude86"}, "geometry": {"type": "Point", "coordinates": [6.696164, 48.491252]}}, {"type": "Feature", "properties": {"start": "Bertrichamps", "stop_name": "Baccarat", "type": "Gare accessible", "transport": "TER", "transport_legende": "\ud83d\udeb2 \u2764\ufe0f Train TER \ud83d\ude86"}, "geometry": {"type": "Point", "coordinates": [6.743921, 48.452092]}}, {"type": "Feature", "properties": {"start": "Bertrichamps", "stop_name": "Raon-l'\u00c9tape", "type": "Gare accessible", "transport": "TER", "transport_legende": "\ud83d\udeb2 \u2764\ufe0f Train TER \ud83d\ude86"}, "geometry": {"type": "Point", "coordinates": [6.837042, 48.403947]}}, {"type": "Feature", "properties": {"start": "Bertrichamps", "stop_name": "\u00c9tival-Clairefontaine", "type": "Gare accessible", "transport": "TER", "transport_legende": "\ud83d\udeb2 \u2764\ufe0f Train TER \ud83d\ude86"}, "geometry": {"type": "Point", "coordinates": [6.877124, 48.367171]}}, {"type": "Feature", "properties": {"start": "Bertrichamps", "stop_name": "Saint-Michel-sur-Meurthe", "type": "Gare accessible", "transport": "TER", "transport_legende": "\ud83d\udeb2 \u2764\ufe0f Train TER \ud83d\ude86"}, "geometry": {"type": "Point", "coordinates": [6.888278, 48.326984]}}, {"type": "Feature", "properties": {"start": "Bertrichamps", "stop_name": "Saint-Di\u00e9-des-Vosges", "type": "Gare accessible", "transport": "TER", "transport_legende": "\ud83d\udeb2 \u2764\ufe0f Train TER \ud83d\ude86"}, "geometry": {"type": "Point", "coordinates": [6.948516, 48.282043]}}, {"type": "Feature", "properties": {"start": "Bertrichamps", "stop_name": "Dombasle-sur-Meurthe", "type": "Gare accessible", "transport": "TER", "transport_legende": "\ud83d\udeb2 \u2764\ufe0f Train TER \ud83d\ude86"}, "geometry": {"type": "Point", "coordinates": [6.343566, 48.623332]}}, {"type": "Feature", "properties": {"start": "Bertrichamps", "stop_name": "Thiaville", "type": "Gare accessible", "transport": "TER", "transport_legende": "\ud83d\udeb2 \u2764\ufe0f Train TER \ud83d\ude86"}, "geometry": {"type": "Point", "coordinates": [6.810241, 48.413914]}}, {"type": "Feature", "properties": {"start": "Bertrichamps", "stop_name": "M\u00e9nil - Flin", "type": "Gare accessible", "transport": "TER", "transport_legende": "\ud83d\udeb2 \u2764\ufe0f Train TER \ud83d\ude86"}, "geometry": {"type": "Point", "coordinates": [6.659217, 48.505022]}}]}