{"type": "FeatureCollection", "features": [{"type": "Feature", "properties": {"start": "Biache-Saint-Vaast", "stop_name": "Biache-Saint-Vaast", "type": "Gare s\u00e9lectionn\u00e9e", "transport": "TER", "transport_legende": "\ud83d\udeb2 \u2764\ufe0f Train TER \ud83d\ude86"}, "geometry": {"type": "Point", "coordinates": [2.941718, 50.316257]}}, {"type": "Feature", "properties": {"start": "Biache-Saint-Vaast", "stop_name": "Arras", "type": "Gare accessible", "transport": "TER", "transport_legende": "\ud83d\udeb2 \u2764\ufe0f Train TER \ud83d\ude86"}, "geometry": {"type": "Point", "coordinates": [2.781314, 50.286971]}}, {"type": "Feature", "properties": {"start": "Biache-Saint-Vaast", "stop_name": "Vitry-en-Artois", "type": "Gare accessible", "transport": "TER", "transport_legende": "\ud83d\udeb2 \u2764\ufe0f Train TER \ud83d\ude86"}, "geometry": {"type": "Point", "coordinates": [2.980559, 50.32712]}}, {"type": "Feature", "properties": {"start": "Biache-Saint-Vaast", "stop_name": "Brebi\u00e8res Sud", "type": "Gare accessible", "transport": "TER", "transport_legende": "\ud83d\udeb2 \u2764\ufe0f Train TER \ud83d\ude86"}, "geometry": {"type": "Point", "coordinates": [3.013977, 50.336155]}}, {"type": "Feature", "properties": {"start": "Biache-Saint-Vaast", "stop_name": "Douai", "type": "Gare accessible", "transport": "TER", "transport_legende": "\ud83d\udeb2 \u2764\ufe0f Train TER \ud83d\ude86"}, "geometry": {"type": "Point", "coordinates": [3.089958, 50.371673]}}, {"type": "Feature", "properties": {"start": "Biache-Saint-Vaast", "stop_name": "Roeux", "type": "Gare accessible", "transport": "TER", "transport_legende": "\ud83d\udeb2 \u2764\ufe0f Train TER \ud83d\ude86"}, "geometry": {"type": "Point", "coordinates": [2.894364, 50.30342]}}, {"type": "Feature", "properties": {"start": "Biache-Saint-Vaast", "stop_name": "Corbehem", "type": "Gare accessible", "transport": "TER", "transport_legende": "\ud83d\udeb2 \u2764\ufe0f Train TER \ud83d\ude86"}, "geometry": {"type": "Point", "coordinates": [3.040005, 50.342992]}}]}