{"type": "FeatureCollection", "features": [{"type": "Feature", "properties": {"start": "Bidarray Pont Noblia", "stop_name": "Bidarray Pont Noblia", "type": "Gare s\u00e9lectionn\u00e9e", "transport": "TER", "transport_legende": "\ud83d\udeb2 \u2764\ufe0f Train TER \ud83d\ude86"}, "geometry": {"type": "Point", "coordinates": [-1.345104, 43.26812]}}, {"type": "Feature", "properties": {"start": "Bidarray Pont Noblia", "stop_name": "Bayonne", "type": "Gare accessible", "transport": "TER", "transport_legende": "\ud83d\udeb2 \u2764\ufe0f Train TER \ud83d\ude86"}, "geometry": {"type": "Point", "coordinates": [-1.470368, 43.496793]}}, {"type": "Feature", "properties": {"start": "Bidarray Pont Noblia", "stop_name": "Villefranque", "type": "Gare accessible", "transport": "TER", "transport_legende": "\ud83d\udeb2 \u2764\ufe0f Train TER \ud83d\ude86"}, "geometry": {"type": "Point", "coordinates": [-1.456289, 43.431489]}}, {"type": "Feature", "properties": {"start": "Bidarray Pont Noblia", "stop_name": "Ustaritz-Jatxou", "type": "Gare accessible", "transport": "TER", "transport_legende": "\ud83d\udeb2 \u2764\ufe0f Train TER \ud83d\ude86"}, "geometry": {"type": "Point", "coordinates": [-1.449071, 43.404533]}}, {"type": "Feature", "properties": {"start": "Bidarray Pont Noblia", "stop_name": "Halsou - Larressore", "type": "Gare accessible", "transport": "TER", "transport_legende": "\ud83d\udeb2 \u2764\ufe0f Train TER \ud83d\ude86"}, "geometry": {"type": "Point", "coordinates": [-1.4279, 43.37813]}}, {"type": "Feature", "properties": {"start": "Bidarray Pont Noblia", "stop_name": "Cambo-les-Bains", "type": "Gare accessible", "transport": "TER", "transport_legende": "\ud83d\udeb2 \u2764\ufe0f Train TER \ud83d\ude86"}, "geometry": {"type": "Point", "coordinates": [-1.396812, 43.365431]}}, {"type": "Feature", "properties": {"start": "Bidarray Pont Noblia", "stop_name": "Itxassou", "type": "Gare accessible", "transport": "TER", "transport_legende": "\ud83d\udeb2 \u2764\ufe0f Train TER \ud83d\ude86"}, "geometry": {"type": "Point", "coordinates": [-1.39562, 43.324118]}}, {"type": "Feature", "properties": {"start": "Bidarray Pont Noblia", "stop_name": "Oss\u00e8s - Saint-Martin-d'Arrossa", "type": "Gare accessible", "transport": "TER", "transport_legende": "\ud83d\udeb2 \u2764\ufe0f Train TER \ud83d\ude86"}, "geometry": {"type": "Point", "coordinates": [-1.305048, 43.235132]}}, {"type": "Feature", "properties": {"start": "Bidarray Pont Noblia", "stop_name": "Saint-Jean-Pied-de-Port", "type": "Gare accessible", "transport": "TER", "transport_legende": "\ud83d\udeb2 \u2764\ufe0f Train TER \ud83d\ude86"}, "geometry": {"type": "Point", "coordinates": [-1.237725, 43.167726]}}]}