{"type": "FeatureCollection", "features": [{"type": "Feature", "properties": {"start": "Biganos Facture", "stop_name": "Biganos Facture", "type": "Gare s\u00e9lectionn\u00e9e", "transport": "TER", "nombre_trajet_moyen": 14.13, "transport_legende": "\ud83d\udeb2 \u2764\ufe0f Train TER \ud83d\ude86"}, "geometry": {"type": "Point", "coordinates": [-0.96621, 44.637384]}}, {"type": "Feature", "properties": {"start": "Biganos Facture", "stop_name": "Le Teich", "type": "Gare accessible", "transport": "TER", "nombre_trajet_moyen": 7.98, "transport_legende": "\ud83d\udeb2 \u2764\ufe0f Train TER \ud83d\ude86"}, "geometry": {"type": "Point", "coordinates": [-1.025564, 44.63248]}}, {"type": "Feature", "properties": {"start": "Biganos Facture", "stop_name": "Gujan-Mestras", "type": "Gare accessible", "transport": "TER", "nombre_trajet_moyen": 7.98, "transport_legende": "\ud83d\udeb2 \u2764\ufe0f Train TER \ud83d\ude86"}, "geometry": {"type": "Point", "coordinates": [-1.069075, 44.640514]}}, {"type": "Feature", "properties": {"start": "Biganos Facture", "stop_name": "La Hume", "type": "Gare accessible", "transport": "TER", "nombre_trajet_moyen": 7.98, "transport_legende": "\ud83d\udeb2 \u2764\ufe0f Train TER \ud83d\ude86"}, "geometry": {"type": "Point", "coordinates": [-1.116043, 44.639914]}}, {"type": "Feature", "properties": {"start": "Biganos Facture", "stop_name": "La Teste", "type": "Gare accessible", "transport": "TER", "nombre_trajet_moyen": 7.98, "transport_legende": "\ud83d\udeb2 \u2764\ufe0f Train TER \ud83d\ude86"}, "geometry": {"type": "Point", "coordinates": [-1.14297, 44.636966]}}, {"type": "Feature", "properties": {"start": "Biganos Facture", "stop_name": "Arcachon", "type": "Gare accessible", "transport": "TER", "nombre_trajet_moyen": 7.98, "transport_legende": "\ud83d\udeb2 \u2764\ufe0f Train TER \ud83d\ude86"}, "geometry": {"type": "Point", "coordinates": [-1.165323, 44.658967]}}, {"type": "Feature", "properties": {"start": "Biganos Facture", "stop_name": "Morcenx", "type": "Gare accessible", "transport": "TER", "nombre_trajet_moyen": 9.31, "transport_legende": "\ud83d\udeb2 \u2764\ufe0f Train TER \ud83d\ude86"}, "geometry": {"type": "Point", "coordinates": [-0.90864, 44.033565]}}, {"type": "Feature", "properties": {"start": "Biganos Facture", "stop_name": "Dax", "type": "Gare accessible", "transport": "TER", "nombre_trajet_moyen": 7.43, "transport_legende": "\ud83d\udeb2 \u2764\ufe0f Train TER \ud83d\ude86"}, "geometry": {"type": "Point", "coordinates": [-1.050301, 43.720472]}}, {"type": "Feature", "properties": {"start": "Biganos Facture", "stop_name": "Saint-Vincent-de-Tyrosse", "type": "Gare accessible", "transport": "TER", "nombre_trajet_moyen": 6.62, "transport_legende": "\ud83d\udeb2 \u2764\ufe0f Train TER \ud83d\ude86"}, "geometry": {"type": "Point", "coordinates": [-1.306421, 43.657803]}}, {"type": "Feature", "properties": {"start": "Biganos Facture", "stop_name": "Bayonne", "type": "Gare accessible", "transport": "TER", "nombre_trajet_moyen": 6.62, "transport_legende": "\ud83d\udeb2 \u2764\ufe0f Train TER \ud83d\ude86"}, "geometry": {"type": "Point", "coordinates": [-1.470368, 43.496793]}}, {"type": "Feature", "properties": {"start": "Biganos Facture", "stop_name": "Bordeaux Saint-Jean", "type": "Gare accessible", "transport": "TER", "nombre_trajet_moyen": 13.95, "transport_legende": "\ud83d\udeb2 \u2764\ufe0f Train TER \ud83d\ude86"}, "geometry": {"type": "Point", "coordinates": [-0.556697, 44.825873]}}, {"type": "Feature", "properties": {"start": "Biganos Facture", "stop_name": "Pessac", "type": "Gare accessible", "transport": "TER", "nombre_trajet_moyen": 13.95, "transport_legende": "\ud83d\udeb2 \u2764\ufe0f Train TER \ud83d\ude86"}, "geometry": {"type": "Point", "coordinates": [-0.631784, 44.804621]}}, {"type": "Feature", "properties": {"start": "Biganos Facture", "stop_name": "Ychoux", "type": "Gare accessible", "transport": "TER", "nombre_trajet_moyen": 7.54, "transport_legende": "\ud83d\udeb2 \u2764\ufe0f Train TER \ud83d\ude86"}, "geometry": {"type": "Point", "coordinates": [-0.946335, 44.32927]}}, {"type": "Feature", "properties": {"start": "Biganos Facture", "stop_name": "Labouheyre", "type": "Gare accessible", "transport": "TER", "nombre_trajet_moyen": 7.54, "transport_legende": "\ud83d\udeb2 \u2764\ufe0f Train TER \ud83d\ude86"}, "geometry": {"type": "Point", "coordinates": [-0.920974, 44.210613]}}, {"type": "Feature", "properties": {"start": "Biganos Facture", "stop_name": "Arengosse", "type": "Gare accessible", "transport": "TER", "nombre_trajet_moyen": 2.18, "transport_legende": "\ud83d\udeb2 \u2764\ufe0f Train TER \ud83d\ude86"}, "geometry": {"type": "Point", "coordinates": [-0.809053, 44.007044]}}, {"type": "Feature", "properties": {"start": "Biganos Facture", "stop_name": "Ygos", "type": "Gare accessible", "transport": "TER", "nombre_trajet_moyen": 3.48, "transport_legende": "\ud83d\udeb2 \u2764\ufe0f Train TER \ud83d\ude86"}, "geometry": {"type": "Point", "coordinates": [-0.736143, 43.978228]}}, {"type": "Feature", "properties": {"start": "Biganos Facture", "stop_name": "Saint-Martin-d'Oney", "type": "Gare accessible", "transport": "TER", "nombre_trajet_moyen": 2.18, "transport_legende": "\ud83d\udeb2 \u2764\ufe0f Train TER \ud83d\ude86"}, "geometry": {"type": "Point", "coordinates": [-0.651313, 43.930067]}}, {"type": "Feature", "properties": {"start": "Biganos Facture", "stop_name": "Mont-de-Marsan", "type": "Gare accessible", "transport": "TER", "nombre_trajet_moyen": 3.48, "transport_legende": "\ud83d\udeb2 \u2764\ufe0f Train TER \ud83d\ude86"}, "geometry": {"type": "Point", "coordinates": [-0.50466, 43.884898]}}, {"type": "Feature", "properties": {"start": "Biganos Facture", "stop_name": "Marcheprime", "type": "Gare accessible", "transport": "TER", "nombre_trajet_moyen": 7.98, "transport_legende": "\ud83d\udeb2 \u2764\ufe0f Train TER \ud83d\ude86"}, "geometry": {"type": "Point", "coordinates": [-0.853726, 44.690532]}}, {"type": "Feature", "properties": {"start": "Biganos Facture", "stop_name": "Gazinet - Cestas", "type": "Gare accessible", "transport": "TER", "nombre_trajet_moyen": 7.98, "transport_legende": "\ud83d\udeb2 \u2764\ufe0f Train TER \ud83d\ude86"}, "geometry": {"type": "Point", "coordinates": [-0.699448, 44.772247]}}, {"type": "Feature", "properties": {"start": "Biganos Facture", "stop_name": "Pessac-Alouette", "type": "Gare accessible", "transport": "TER", "nombre_trajet_moyen": 7.98, "transport_legende": "\ud83d\udeb2 \u2764\ufe0f Train TER \ud83d\ude86"}, "geometry": {"type": "Point", "coordinates": [-0.65946, 44.793462]}}, {"type": "Feature", "properties": {"start": "Biganos Facture", "stop_name": "Cenon", "type": "Gare accessible", "transport": "TER", "nombre_trajet_moyen": 5.23, "transport_legende": "\ud83d\udeb2 \u2764\ufe0f Train TER \ud83d\ude86"}, "geometry": {"type": "Point", "coordinates": [-0.533649, 44.856347]}}, {"type": "Feature", "properties": {"start": "Biganos Facture", "stop_name": "Bassens", "type": "Gare accessible", "transport": "TER", "nombre_trajet_moyen": 4.97, "transport_legende": "\ud83d\udeb2 \u2764\ufe0f Train TER \ud83d\ude86"}, "geometry": {"type": "Point", "coordinates": [-0.522282, 44.901307]}}, {"type": "Feature", "properties": {"start": "Biganos Facture", "stop_name": "La Gorp", "type": "Gare accessible", "transport": "TER", "nombre_trajet_moyen": 4.97, "transport_legende": "\ud83d\udeb2 \u2764\ufe0f Train TER \ud83d\ude86"}, "geometry": {"type": "Point", "coordinates": [-0.496632, 44.92874]}}, {"type": "Feature", "properties": {"start": "Biganos Facture", "stop_name": "Saint-Loub\u00e8s", "type": "Gare accessible", "transport": "TER", "nombre_trajet_moyen": 5.23, "transport_legende": "\ud83d\udeb2 \u2764\ufe0f Train TER \ud83d\ude86"}, "geometry": {"type": "Point", "coordinates": [-0.433198, 44.922266]}}, {"type": "Feature", "properties": {"start": "Biganos Facture", "stop_name": "Saint-Sulpice - Izon", "type": "Gare accessible", "transport": "TER", "nombre_trajet_moyen": 5.23, "transport_legende": "\ud83d\udeb2 \u2764\ufe0f Train TER \ud83d\ude86"}, "geometry": {"type": "Point", "coordinates": [-0.392131, 44.914308]}}, {"type": "Feature", "properties": {"start": "Biganos Facture", "stop_name": "Vayres", "type": "Gare accessible", "transport": "TER", "nombre_trajet_moyen": 5.23, "transport_legende": "\ud83d\udeb2 \u2764\ufe0f Train TER \ud83d\ude86"}, "geometry": {"type": "Point", "coordinates": [-0.317169, 44.897326]}}, {"type": "Feature", "properties": {"start": "Biganos Facture", "stop_name": "Libourne", "type": "Gare accessible", "transport": "TER", "nombre_trajet_moyen": 5.23, "transport_legende": "\ud83d\udeb2 \u2764\ufe0f Train TER \ud83d\ude86"}, "geometry": {"type": "Point", "coordinates": [-0.236359, 44.915904]}}, {"type": "Feature", "properties": {"start": "Biganos Facture", "stop_name": "Coutras", "type": "Gare accessible", "transport": "TER", "nombre_trajet_moyen": 3.07, "transport_legende": "\ud83d\udeb2 \u2764\ufe0f Train TER \ud83d\ude86"}, "geometry": {"type": "Point", "coordinates": [-0.131361, 45.036709]}}, {"type": "Feature", "properties": {"start": "Biganos Facture", "stop_name": "Saint-Denis-de-Pile", "type": "Gare accessible", "transport": "TER", "nombre_trajet_moyen": 3.07, "transport_legende": "\ud83d\udeb2 \u2764\ufe0f Train TER \ud83d\ude86"}, "geometry": {"type": "Point", "coordinates": [-0.197877, 44.978485]}}, {"type": "Feature", "properties": {"start": "Biganos Facture", "stop_name": "Hendaye", "type": "Gare accessible", "transport": "TER", "nombre_trajet_moyen": 6.43, "transport_legende": "\ud83d\udeb2 \u2764\ufe0f Train TER \ud83d\ude86"}, "geometry": {"type": "Point", "coordinates": [-1.781724, 43.353132]}}, {"type": "Feature", "properties": {"start": "Biganos Facture", "stop_name": "Les Deux Jumeaux", "type": "Gare accessible", "transport": "TER", "nombre_trajet_moyen": 6.43, "transport_legende": "\ud83d\udeb2 \u2764\ufe0f Train TER \ud83d\ude86"}, "geometry": {"type": "Point", "coordinates": [-1.764527, 43.370066]}}, {"type": "Feature", "properties": {"start": "Biganos Facture", "stop_name": "Saint-Jean-de-Luz - Ciboure", "type": "Gare accessible", "transport": "TER", "nombre_trajet_moyen": 6.43, "transport_legende": "\ud83d\udeb2 \u2764\ufe0f Train TER \ud83d\ude86"}, "geometry": {"type": "Point", "coordinates": [-1.661181, 43.385862]}}, {"type": "Feature", "properties": {"start": "Biganos Facture", "stop_name": "Gu\u00e9thary", "type": "Gare accessible", "transport": "TER", "nombre_trajet_moyen": 6.43, "transport_legende": "\ud83d\udeb2 \u2764\ufe0f Train TER \ud83d\ude86"}, "geometry": {"type": "Point", "coordinates": [-1.609972, 43.425238]}}, {"type": "Feature", "properties": {"start": "Biganos Facture", "stop_name": "Biarritz", "type": "Gare accessible", "transport": "TER", "nombre_trajet_moyen": 6.43, "transport_legende": "\ud83d\udeb2 \u2764\ufe0f Train TER \ud83d\ude86"}, "geometry": {"type": "Point", "coordinates": [-1.545937, 43.459387]}}, {"type": "Feature", "properties": {"start": "Biganos Facture", "stop_name": "Saubusse", "type": "Gare accessible", "transport": "TER", "nombre_trajet_moyen": 2.32, "transport_legende": "\ud83d\udeb2 \u2764\ufe0f Train TER \ud83d\ude86"}, "geometry": {"type": "Point", "coordinates": [-1.190222, 43.660269]}}, {"type": "Feature", "properties": {"start": "Biganos Facture", "stop_name": "Saint-Geours", "type": "Gare accessible", "transport": "TER", "nombre_trajet_moyen": 2.32, "transport_legende": "\ud83d\udeb2 \u2764\ufe0f Train TER \ud83d\ude86"}, "geometry": {"type": "Point", "coordinates": [-1.241391, 43.671226]}}, {"type": "Feature", "properties": {"start": "Biganos Facture", "stop_name": "B\u00e9nesse-Maremne", "type": "Gare accessible", "transport": "TER", "nombre_trajet_moyen": 2.32, "transport_legende": "\ud83d\udeb2 \u2764\ufe0f Train TER \ud83d\ude86"}, "geometry": {"type": "Point", "coordinates": [-1.369893, 43.6277]}}, {"type": "Feature", "properties": {"start": "Biganos Facture", "stop_name": "Labenne", "type": "Gare accessible", "transport": "TER", "nombre_trajet_moyen": 3.66, "transport_legende": "\ud83d\udeb2 \u2764\ufe0f Train TER \ud83d\ude86"}, "geometry": {"type": "Point", "coordinates": [-1.428953, 43.587212]}}, {"type": "Feature", "properties": {"start": "Biganos Facture", "stop_name": "Ondres", "type": "Gare accessible", "transport": "TER", "nombre_trajet_moyen": 2.32, "transport_legende": "\ud83d\udeb2 \u2764\ufe0f Train TER \ud83d\ude86"}, "geometry": {"type": "Point", "coordinates": [-1.457179, 43.568581]}}, {"type": "Feature", "properties": {"start": "Biganos Facture", "stop_name": "Boucau", "type": "Gare accessible", "transport": "TER", "nombre_trajet_moyen": 2.32, "transport_legende": "\ud83d\udeb2 \u2764\ufe0f Train TER \ud83d\ude86"}, "geometry": {"type": "Point", "coordinates": [-1.490487, 43.523447]}}, {"type": "Feature", "properties": {"start": "Biganos Facture", "stop_name": "Puyo\u00f4", "type": "Gare accessible", "transport": "TER", "nombre_trajet_moyen": 5.26, "transport_legende": "\ud83d\udeb2 \u2764\ufe0f Train TER \ud83d\ude86"}, "geometry": {"type": "Point", "coordinates": [-0.910812, 43.524682]}}, {"type": "Feature", "properties": {"start": "Biganos Facture", "stop_name": "Orthez", "type": "Gare accessible", "transport": "TER", "nombre_trajet_moyen": 5.26, "transport_legende": "\ud83d\udeb2 \u2764\ufe0f Train TER \ud83d\ude86"}, "geometry": {"type": "Point", "coordinates": [-0.76776, 43.484242]}}, {"type": "Feature", "properties": {"start": "Biganos Facture", "stop_name": "Artix", "type": "Gare accessible", "transport": "TER", "nombre_trajet_moyen": 5.26, "transport_legende": "\ud83d\udeb2 \u2764\ufe0f Train TER \ud83d\ude86"}, "geometry": {"type": "Point", "coordinates": [-0.570082, 43.393195]}}, {"type": "Feature", "properties": {"start": "Biganos Facture", "stop_name": "Pau", "type": "Gare accessible", "transport": "TER", "nombre_trajet_moyen": 5.26, "transport_legende": "\ud83d\udeb2 \u2764\ufe0f Train TER \ud83d\ude86"}, "geometry": {"type": "Point", "coordinates": [-0.369675, 43.291711]}}, {"type": "Feature", "properties": {"start": "Biganos Facture", "stop_name": "Assat", "type": "Gare accessible", "transport": "TER", "nombre_trajet_moyen": 0.57, "transport_legende": "\ud83d\udeb2 \u2764\ufe0f Train TER \ud83d\ude86"}, "geometry": {"type": "Point", "coordinates": [-0.295018, 43.254399]}}, {"type": "Feature", "properties": {"start": "Biganos Facture", "stop_name": "Coarraze - Nay", "type": "Gare accessible", "transport": "TER", "nombre_trajet_moyen": 1.84, "transport_legende": "\ud83d\udeb2 \u2764\ufe0f Train TER \ud83d\ude86"}, "geometry": {"type": "Point", "coordinates": [-0.241699, 43.18183]}}, {"type": "Feature", "properties": {"start": "Biganos Facture", "stop_name": "Lourdes", "type": "Gare accessible", "transport": "TER", "nombre_trajet_moyen": 1.84, "transport_legende": "\ud83d\udeb2 \u2764\ufe0f Train TER \ud83d\ude86"}, "geometry": {"type": "Point", "coordinates": [-0.042186, 43.100429]}}, {"type": "Feature", "properties": {"start": "Biganos Facture", "stop_name": "Tarbes", "type": "Gare accessible", "transport": "TER", "nombre_trajet_moyen": 1.69, "transport_legende": "\ud83d\udeb2 \u2764\ufe0f Train TER \ud83d\ude86"}, "geometry": {"type": "Point", "coordinates": [0.069442, 43.239863]}}, {"type": "Feature", "properties": {"start": "Biganos Facture", "stop_name": "Montaut B\u00e9tharram", "type": "Gare accessible", "transport": "TER", "nombre_trajet_moyen": 0.25, "transport_legende": "\ud83d\udeb2 \u2764\ufe0f Train TER \ud83d\ude86"}, "geometry": {"type": "Point", "coordinates": [-0.198247, 43.126997]}}, {"type": "Feature", "properties": {"start": "Biganos Facture", "stop_name": "Saint-P\u00e9-de-Bigorre", "type": "Gare accessible", "transport": "TER", "nombre_trajet_moyen": 0.25, "transport_legende": "\ud83d\udeb2 \u2764\ufe0f Train TER \ud83d\ude86"}, "geometry": {"type": "Point", "coordinates": [-0.161423, 43.101483]}}]}