{"type": "FeatureCollection", "features": [{"type": "Feature", "properties": {"start": "Bohain", "stop_name": "Bohain", "type": "Gare s\u00e9lectionn\u00e9e", "transport": "TER", "transport_legende": "\ud83d\udeb2 \u2764\ufe0f Train TER \ud83d\ude86"}, "geometry": {"type": "Point", "coordinates": [3.443168, 49.988418]}}, {"type": "Feature", "properties": {"start": "Bohain", "stop_name": "Saint-Quentin", "type": "Gare accessible", "transport": "TER", "transport_legende": "\ud83d\udeb2 \u2764\ufe0f Train TER \ud83d\ude86"}, "geometry": {"type": "Point", "coordinates": [3.296958, 49.840025]}}, {"type": "Feature", "properties": {"start": "Bohain", "stop_name": "Fresnoy-le-Grand", "type": "Gare accessible", "transport": "TER", "transport_legende": "\ud83d\udeb2 \u2764\ufe0f Train TER \ud83d\ude86"}, "geometry": {"type": "Point", "coordinates": [3.432208, 49.949908]}}, {"type": "Feature", "properties": {"start": "Bohain", "stop_name": "Busigny", "type": "Gare accessible", "transport": "TER", "transport_legende": "\ud83d\udeb2 \u2764\ufe0f Train TER \ud83d\ude86"}, "geometry": {"type": "Point", "coordinates": [3.446436, 50.039547]}}, {"type": "Feature", "properties": {"start": "Bohain", "stop_name": "Le Cateau", "type": "Gare accessible", "transport": "TER", "transport_legende": "\ud83d\udeb2 \u2764\ufe0f Train TER \ud83d\ude86"}, "geometry": {"type": "Point", "coordinates": [3.539982, 50.091512]}}, {"type": "Feature", "properties": {"start": "Bohain", "stop_name": "Landrecies", "type": "Gare accessible", "transport": "TER", "transport_legende": "\ud83d\udeb2 \u2764\ufe0f Train TER \ud83d\ude86"}, "geometry": {"type": "Point", "coordinates": [3.682571, 50.128148]}}, {"type": "Feature", "properties": {"start": "Bohain", "stop_name": "Aulnoye-Aymeries", "type": "Gare accessible", "transport": "TER", "transport_legende": "\ud83d\udeb2 \u2764\ufe0f Train TER \ud83d\ude86"}, "geometry": {"type": "Point", "coordinates": [3.843333, 50.197477]}}, {"type": "Feature", "properties": {"start": "Bohain", "stop_name": "Ors", "type": "Gare accessible", "transport": "TER", "transport_legende": "\ud83d\udeb2 \u2764\ufe0f Train TER \ud83d\ude86"}, "geometry": {"type": "Point", "coordinates": [3.627036, 50.103238]}}, {"type": "Feature", "properties": {"start": "Bohain", "stop_name": "Hachette", "type": "Gare accessible", "transport": "TER", "transport_legende": "\ud83d\udeb2 \u2764\ufe0f Train TER \ud83d\ude86"}, "geometry": {"type": "Point", "coordinates": [3.74306, 50.158171]}}, {"type": "Feature", "properties": {"start": "Bohain", "stop_name": "Tergnier", "type": "Gare accessible", "transport": "TER", "transport_legende": "\ud83d\udeb2 \u2764\ufe0f Train TER \ud83d\ude86"}, "geometry": {"type": "Point", "coordinates": [3.297253, 49.659129]}}, {"type": "Feature", "properties": {"start": "Bohain", "stop_name": "Cambrai", "type": "Gare accessible", "transport": "TER", "transport_legende": "\ud83d\udeb2 \u2764\ufe0f Train TER \ud83d\ude86"}, "geometry": {"type": "Point", "coordinates": [3.241197, 50.176582]}}, {"type": "Feature", "properties": {"start": "Bohain", "stop_name": "Caudry", "type": "Gare accessible", "transport": "TER", "transport_legende": "\ud83d\udeb2 \u2764\ufe0f Train TER \ud83d\ude86"}, "geometry": {"type": "Point", "coordinates": [3.40971, 50.111473]}}, {"type": "Feature", "properties": {"start": "Bohain", "stop_name": "Lille Flandres", "type": "Gare accessible", "transport": "TER", "transport_legende": "\ud83d\udeb2 \u2764\ufe0f Train TER \ud83d\ude86"}, "geometry": {"type": "Point", "coordinates": [3.06987, 50.636577]}}, {"type": "Feature", "properties": {"start": "Bohain", "stop_name": "Douai", "type": "Gare accessible", "transport": "TER", "transport_legende": "\ud83d\udeb2 \u2764\ufe0f Train TER \ud83d\ude86"}, "geometry": {"type": "Point", "coordinates": [3.089958, 50.371673]}}, {"type": "Feature", "properties": {"start": "Bohain", "stop_name": "Montigny-en-Ostrevent", "type": "Gare accessible", "transport": "TER", "transport_legende": "\ud83d\udeb2 \u2764\ufe0f Train TER \ud83d\ude86"}, "geometry": {"type": "Point", "coordinates": [3.188369, 50.36151]}}, {"type": "Feature", "properties": {"start": "Bohain", "stop_name": "Somain", "type": "Gare accessible", "transport": "TER", "transport_legende": "\ud83d\udeb2 \u2764\ufe0f Train TER \ud83d\ude86"}, "geometry": {"type": "Point", "coordinates": [3.277319, 50.355699]}}, {"type": "Feature", "properties": {"start": "Bohain", "stop_name": "Maurois", "type": "Gare accessible", "transport": "TER", "transport_legende": "\ud83d\udeb2 \u2764\ufe0f Train TER \ud83d\ude86"}, "geometry": {"type": "Point", "coordinates": [3.455903, 50.068059]}}, {"type": "Feature", "properties": {"start": "Bohain", "stop_name": "Bertry", "type": "Gare accessible", "transport": "TER", "transport_legende": "\ud83d\udeb2 \u2764\ufe0f Train TER \ud83d\ude86"}, "geometry": {"type": "Point", "coordinates": [3.448857, 50.091134]}}, {"type": "Feature", "properties": {"start": "Bohain", "stop_name": "Catteni\u00e8res", "type": "Gare accessible", "transport": "TER", "transport_legende": "\ud83d\udeb2 \u2764\ufe0f Train TER \ud83d\ude86"}, "geometry": {"type": "Point", "coordinates": [3.333718, 50.128347]}}, {"type": "Feature", "properties": {"start": "Bohain", "stop_name": "Wambaix", "type": "Gare accessible", "transport": "TER", "transport_legende": "\ud83d\udeb2 \u2764\ufe0f Train TER \ud83d\ude86"}, "geometry": {"type": "Point", "coordinates": [3.311485, 50.133856]}}, {"type": "Feature", "properties": {"start": "Bohain", "stop_name": "Aubigny-au-Bac", "type": "Gare accessible", "transport": "TER", "transport_legende": "\ud83d\udeb2 \u2764\ufe0f Train TER \ud83d\ude86"}, "geometry": {"type": "Point", "coordinates": [3.158781, 50.268551]}}, {"type": "Feature", "properties": {"start": "Bohain", "stop_name": "Arleux", "type": "Gare accessible", "transport": "TER", "transport_legende": "\ud83d\udeb2 \u2764\ufe0f Train TER \ud83d\ude86"}, "geometry": {"type": "Point", "coordinates": [3.120522, 50.286347]}}, {"type": "Feature", "properties": {"start": "Bohain", "stop_name": "Cantin", "type": "Gare accessible", "transport": "TER", "transport_legende": "\ud83d\udeb2 \u2764\ufe0f Train TER \ud83d\ude86"}, "geometry": {"type": "Point", "coordinates": [3.122145, 50.312554]}}, {"type": "Feature", "properties": {"start": "Bohain", "stop_name": "Sin-le-Noble", "type": "Gare accessible", "transport": "TER", "transport_legende": "\ud83d\udeb2 \u2764\ufe0f Train TER \ud83d\ude86"}, "geometry": {"type": "Point", "coordinates": [3.112559, 50.356683]}}, {"type": "Feature", "properties": {"start": "Bohain", "stop_name": "Brun\u00e9mont", "type": "Gare accessible", "transport": "TER", "transport_legende": "\ud83d\udeb2 \u2764\ufe0f Train TER \ud83d\ude86"}, "geometry": {"type": "Point", "coordinates": [3.146038, 50.278221]}}]}