{"type": "FeatureCollection", "features": [{"type": "Feature", "properties": {"start": "Brignac", "stop_name": "Brignac", "type": "Gare s\u00e9lectionn\u00e9e", "transport": "TER", "transport_legende": "\ud83d\udeb2 \u2764\ufe0f Train TER \ud83d\ude86"}, "geometry": {"type": "Point", "coordinates": [1.440351, 45.863905]}}, {"type": "Feature", "properties": {"start": "Brignac", "stop_name": "Limoges B\u00e9n\u00e9dictins", "type": "Gare accessible", "transport": "TER", "transport_legende": "\ud83d\udeb2 \u2764\ufe0f Train TER \ud83d\ude86"}, "geometry": {"type": "Point", "coordinates": [1.267419, 45.836207]}}, {"type": "Feature", "properties": {"start": "Brignac", "stop_name": "Saint-Priest-Taurion", "type": "Gare accessible", "transport": "TER", "transport_legende": "\ud83d\udeb2 \u2764\ufe0f Train TER \ud83d\ude86"}, "geometry": {"type": "Point", "coordinates": [1.40043, 45.887148]}}, {"type": "Feature", "properties": {"start": "Brignac", "stop_name": "Saint-L\u00e9onard-de-Noblat", "type": "Gare accessible", "transport": "TER", "transport_legende": "\ud83d\udeb2 \u2764\ufe0f Train TER \ud83d\ude86"}, "geometry": {"type": "Point", "coordinates": [1.481882, 45.832077]}}, {"type": "Feature", "properties": {"start": "Brignac", "stop_name": "Saint-Denis-des-Murs", "type": "Gare accessible", "transport": "TER", "transport_legende": "\ud83d\udeb2 \u2764\ufe0f Train TER \ud83d\ude86"}, "geometry": {"type": "Point", "coordinates": [1.55139, 45.78898]}}, {"type": "Feature", "properties": {"start": "Brignac", "stop_name": "Ch\u00e2teauneuf - Bujaleuf", "type": "Gare accessible", "transport": "TER", "transport_legende": "\ud83d\udeb2 \u2764\ufe0f Train TER \ud83d\ude86"}, "geometry": {"type": "Point", "coordinates": [1.645235, 45.759357]}}, {"type": "Feature", "properties": {"start": "Brignac", "stop_name": "Eymoutiers Vassivi\u00e8re", "type": "Gare accessible", "transport": "TER", "transport_legende": "\ud83d\udeb2 \u2764\ufe0f Train TER \ud83d\ude86"}, "geometry": {"type": "Point", "coordinates": [1.741247, 45.739817]}}, {"type": "Feature", "properties": {"start": "Brignac", "stop_name": "Lacelle Corr\u00e8ze", "type": "Gare accessible", "transport": "TER", "transport_legende": "\ud83d\udeb2 \u2764\ufe0f Train TER \ud83d\ude86"}, "geometry": {"type": "Point", "coordinates": [1.826377, 45.6411]}}, {"type": "Feature", "properties": {"start": "Brignac", "stop_name": "Bugeat", "type": "Gare accessible", "transport": "TER", "transport_legende": "\ud83d\udeb2 \u2764\ufe0f Train TER \ud83d\ude86"}, "geometry": {"type": "Point", "coordinates": [1.924815, 45.600597]}}, {"type": "Feature", "properties": {"start": "Brignac", "stop_name": "P\u00e9rols-sur-V\u00e9z\u00e8re", "type": "Gare accessible", "transport": "TER", "transport_legende": "\ud83d\udeb2 \u2764\ufe0f Train TER \ud83d\ude86"}, "geometry": {"type": "Point", "coordinates": [1.977764, 45.584891]}}, {"type": "Feature", "properties": {"start": "Brignac", "stop_name": "Jassonneix", "type": "Gare accessible", "transport": "TER", "transport_legende": "\ud83d\udeb2 \u2764\ufe0f Train TER \ud83d\ude86"}, "geometry": {"type": "Point", "coordinates": [2.139381, 45.543481]}}, {"type": "Feature", "properties": {"start": "Brignac", "stop_name": "Meymac", "type": "Gare accessible", "transport": "TER", "transport_legende": "\ud83d\udeb2 \u2764\ufe0f Train TER \ud83d\ude86"}, "geometry": {"type": "Point", "coordinates": [2.163953, 45.530275]}}, {"type": "Feature", "properties": {"start": "Brignac", "stop_name": "Ussel", "type": "Gare accessible", "transport": "TER", "transport_legende": "\ud83d\udeb2 \u2764\ufe0f Train TER \ud83d\ude86"}, "geometry": {"type": "Point", "coordinates": [2.314403, 45.557382]}}]}