{"type": "FeatureCollection", "features": [{"type": "Feature", "properties": {"start": "Bueil", "stop_name": "Bueil", "type": "Gare s\u00e9lectionn\u00e9e", "transport": "TER", "transport_legende": "\ud83d\udeb2 \u2764\ufe0f Train TER \ud83d\ude86"}, "geometry": {"type": "Point", "coordinates": [1.443436, 48.925365]}}, {"type": "Feature", "properties": {"start": "Bueil", "stop_name": "Paris Saint-Lazare", "type": "Gare accessible", "transport": "TER", "transport_legende": "\ud83d\udeb2 \u2764\ufe0f Train TER \ud83d\ude86"}, "geometry": {"type": "Point", "coordinates": [2.325331, 48.876242]}}, {"type": "Feature", "properties": {"start": "Bueil", "stop_name": "Mantes-la-Jolie", "type": "Gare accessible", "transport": "TER", "transport_legende": "\ud83d\udeb2 \u2764\ufe0f Train TER \ud83d\ude86"}, "geometry": {"type": "Point", "coordinates": [1.70337, 48.98984]}}, {"type": "Feature", "properties": {"start": "Bueil", "stop_name": "Br\u00e9val", "type": "Gare accessible", "transport": "TER", "transport_legende": "\ud83d\udeb2 \u2764\ufe0f Train TER \ud83d\ude86"}, "geometry": {"type": "Point", "coordinates": [1.54191, 48.94336]}}, {"type": "Feature", "properties": {"start": "Bueil", "stop_name": "\u00c9vreux Normandie", "type": "Gare accessible", "transport": "TER", "transport_legende": "\ud83d\udeb2 \u2764\ufe0f Train TER \ud83d\ude86"}, "geometry": {"type": "Point", "coordinates": [1.149629, 49.018748]}}, {"type": "Feature", "properties": {"start": "Bueil", "stop_name": "Serquigny", "type": "Gare accessible", "transport": "TER", "transport_legende": "\ud83d\udeb2 \u2764\ufe0f Train TER \ud83d\ude86"}, "geometry": {"type": "Point", "coordinates": [0.719289, 49.107753]}}, {"type": "Feature", "properties": {"start": "Bueil", "stop_name": "Beaumont-le-Roger", "type": "Gare accessible", "transport": "TER", "transport_legende": "\ud83d\udeb2 \u2764\ufe0f Train TER \ud83d\ude86"}, "geometry": {"type": "Point", "coordinates": [0.772699, 49.0742]}}, {"type": "Feature", "properties": {"start": "Bueil", "stop_name": "Romilly-la-Puthenaye", "type": "Gare accessible", "transport": "TER", "transport_legende": "\ud83d\udeb2 \u2764\ufe0f Train TER \ud83d\ude86"}, "geometry": {"type": "Point", "coordinates": [0.854862, 49.003921]}}, {"type": "Feature", "properties": {"start": "Bueil", "stop_name": "Conches", "type": "Gare accessible", "transport": "TER", "transport_legende": "\ud83d\udeb2 \u2764\ufe0f Train TER \ud83d\ude86"}, "geometry": {"type": "Point", "coordinates": [0.937889, 48.96236]}}, {"type": "Feature", "properties": {"start": "Bueil", "stop_name": "La Bonneville-sur-Iton", "type": "Gare accessible", "transport": "TER", "transport_legende": "\ud83d\udeb2 \u2764\ufe0f Train TER \ud83d\ude86"}, "geometry": {"type": "Point", "coordinates": [1.035073, 48.988464]}}]}