{"type": "FeatureCollection", "features": [{"type": "Feature", "properties": {"start": "Busseau sur Creuse", "stop_name": "Busseau sur Creuse", "type": "Gare s\u00e9lectionn\u00e9e", "transport": "TER", "transport_legende": "\ud83d\udeb2 \u2764\ufe0f Train TER \ud83d\ude86"}, "geometry": {"type": "Point", "coordinates": [2.023156, 46.122771]}}, {"type": "Feature", "properties": {"start": "Busseau sur Creuse", "stop_name": "Limoges B\u00e9n\u00e9dictins", "type": "Gare accessible", "transport": "TER", "transport_legende": "\ud83d\udeb2 \u2764\ufe0f Train TER \ud83d\ude86"}, "geometry": {"type": "Point", "coordinates": [1.267419, 45.836207]}}, {"type": "Feature", "properties": {"start": "Busseau sur Creuse", "stop_name": "Ambazac", "type": "Gare accessible", "transport": "TER", "transport_legende": "\ud83d\udeb2 \u2764\ufe0f Train TER \ud83d\ude86"}, "geometry": {"type": "Point", "coordinates": [1.406583, 45.952901]}}, {"type": "Feature", "properties": {"start": "Busseau sur Creuse", "stop_name": "Saint-Sulpice-Lauri\u00e8re", "type": "Gare accessible", "transport": "TER", "transport_legende": "\ud83d\udeb2 \u2764\ufe0f Train TER \ud83d\ude86"}, "geometry": {"type": "Point", "coordinates": [1.476261, 46.046902]}}, {"type": "Feature", "properties": {"start": "Busseau sur Creuse", "stop_name": "Marsac", "type": "Gare accessible", "transport": "TER", "transport_legende": "\ud83d\udeb2 \u2764\ufe0f Train TER \ud83d\ude86"}, "geometry": {"type": "Point", "coordinates": [1.585591, 46.094192]}}, {"type": "Feature", "properties": {"start": "Busseau sur Creuse", "stop_name": "Vieilleville", "type": "Gare accessible", "transport": "TER", "transport_legende": "\ud83d\udeb2 \u2764\ufe0f Train TER \ud83d\ude86"}, "geometry": {"type": "Point", "coordinates": [1.673622, 46.091317]}}, {"type": "Feature", "properties": {"start": "Busseau sur Creuse", "stop_name": "Montaigut", "type": "Gare accessible", "transport": "TER", "transport_legende": "\ud83d\udeb2 \u2764\ufe0f Train TER \ud83d\ude86"}, "geometry": {"type": "Point", "coordinates": [1.734106, 46.136742]}}, {"type": "Feature", "properties": {"start": "Busseau sur Creuse", "stop_name": "Gu\u00e9ret", "type": "Gare accessible", "transport": "TER", "transport_legende": "\ud83d\udeb2 \u2764\ufe0f Train TER \ud83d\ude86"}, "geometry": {"type": "Point", "coordinates": [1.879131, 46.174142]}}, {"type": "Feature", "properties": {"start": "Busseau sur Creuse", "stop_name": "Parsac - Gouzon", "type": "Gare accessible", "transport": "TER", "transport_legende": "\ud83d\udeb2 \u2764\ufe0f Train TER \ud83d\ude86"}, "geometry": {"type": "Point", "coordinates": [2.174641, 46.198389]}}, {"type": "Feature", "properties": {"start": "Busseau sur Creuse", "stop_name": "Lavaufranche", "type": "Gare accessible", "transport": "TER", "transport_legende": "\ud83d\udeb2 \u2764\ufe0f Train TER \ud83d\ude86"}, "geometry": {"type": "Point", "coordinates": [2.270097, 46.321287]}}, {"type": "Feature", "properties": {"start": "Busseau sur Creuse", "stop_name": "Huriel", "type": "Gare accessible", "transport": "TER", "transport_legende": "\ud83d\udeb2 \u2764\ufe0f Train TER \ud83d\ude86"}, "geometry": {"type": "Point", "coordinates": [2.476249, 46.371341]}}, {"type": "Feature", "properties": {"start": "Busseau sur Creuse", "stop_name": "Montlu\u00e7on", "type": "Gare accessible", "transport": "TER", "transport_legende": "\ud83d\udeb2 \u2764\ufe0f Train TER \ud83d\ude86"}, "geometry": {"type": "Point", "coordinates": [2.596159, 46.338101]}}, {"type": "Feature", "properties": {"start": "Busseau sur Creuse", "stop_name": "Lavaveix-les-Mines", "type": "Gare accessible", "transport": "TER", "transport_legende": "\ud83d\udeb2 \u2764\ufe0f Train TER \ud83d\ude86"}, "geometry": {"type": "Point", "coordinates": [2.088904, 46.079542]}}, {"type": "Feature", "properties": {"start": "Busseau sur Creuse", "stop_name": "Aubusson", "type": "Gare accessible", "transport": "TER", "transport_legende": "\ud83d\udeb2 \u2764\ufe0f Train TER \ud83d\ude86"}, "geometry": {"type": "Point", "coordinates": [2.161723, 45.959669]}}, {"type": "Feature", "properties": {"start": "Busseau sur Creuse", "stop_name": "Felletin", "type": "Gare accessible", "transport": "TER", "transport_legende": "\ud83d\udeb2 \u2764\ufe0f Train TER \ud83d\ude86"}, "geometry": {"type": "Point", "coordinates": [2.169713, 45.886345]}}]}