{"type": "FeatureCollection", "features": [{"type": "Feature", "properties": {"start": "Chamonix-Mont-Blanc", "stop_name": "Chamonix-Mont-Blanc", "type": "Gare s\u00e9lectionn\u00e9e", "transport": "TER", "transport_legende": "\ud83d\udeb2 \u2764\ufe0f Train TER \ud83d\ude86"}, "geometry": {"type": "Point", "coordinates": [6.87363, 45.92277]}}, {"type": "Feature", "properties": {"start": "Chamonix-Mont-Blanc", "stop_name": "Saint-Gervais-les-Bains", "type": "Gare accessible", "transport": "TER", "transport_legende": "\ud83d\udeb2 \u2764\ufe0f Train TER \ud83d\ude86"}, "geometry": {"type": "Point", "coordinates": [6.70158, 45.906535]}}, {"type": "Feature", "properties": {"start": "Chamonix-Mont-Blanc", "stop_name": "Chedde", "type": "Gare accessible", "transport": "TER", "transport_legende": "\ud83d\udeb2 \u2764\ufe0f Train TER \ud83d\ude86"}, "geometry": {"type": "Point", "coordinates": [6.719784, 45.92634]}}, {"type": "Feature", "properties": {"start": "Chamonix-Mont-Blanc", "stop_name": "Servoz", "type": "Gare accessible", "transport": "TER", "transport_legende": "\ud83d\udeb2 \u2764\ufe0f Train TER \ud83d\ude86"}, "geometry": {"type": "Point", "coordinates": [6.763472, 45.924493]}}, {"type": "Feature", "properties": {"start": "Chamonix-Mont-Blanc", "stop_name": "Vaudagne", "type": "Gare accessible", "transport": "TER", "transport_legende": "\ud83d\udeb2 \u2764\ufe0f Train TER \ud83d\ude86"}, "geometry": {"type": "Point", "coordinates": [6.772591, 45.908818]}}, {"type": "Feature", "properties": {"start": "Chamonix-Mont-Blanc", "stop_name": "Viaduc sainte-Marie", "type": "Gare accessible", "transport": "TER", "transport_legende": "\ud83d\udeb2 \u2764\ufe0f Train TER \ud83d\ude86"}, "geometry": {"type": "Point", "coordinates": [6.785002, 45.897132]}}, {"type": "Feature", "properties": {"start": "Chamonix-Mont-Blanc", "stop_name": "Les Houches", "type": "Gare accessible", "transport": "TER", "transport_legende": "\ud83d\udeb2 \u2764\ufe0f Train TER \ud83d\ude86"}, "geometry": {"type": "Point", "coordinates": [6.796924, 45.893564]}}, {"type": "Feature", "properties": {"start": "Chamonix-Mont-Blanc", "stop_name": "Taconnaz", "type": "Gare accessible", "transport": "TER", "transport_legende": "\ud83d\udeb2 \u2764\ufe0f Train TER \ud83d\ude86"}, "geometry": {"type": "Point", "coordinates": [6.825817, 45.899504]}}, {"type": "Feature", "properties": {"start": "Chamonix-Mont-Blanc", "stop_name": "Les Bossons", "type": "Gare accessible", "transport": "TER", "transport_legende": "\ud83d\udeb2 \u2764\ufe0f Train TER \ud83d\ude86"}, "geometry": {"type": "Point", "coordinates": [6.83918, 45.9068]}}, {"type": "Feature", "properties": {"start": "Chamonix-Mont-Blanc", "stop_name": "Les P\u00e9lerins", "type": "Gare accessible", "transport": "TER", "transport_legende": "\ud83d\udeb2 \u2764\ufe0f Train TER \ud83d\ude86"}, "geometry": {"type": "Point", "coordinates": [6.847224, 45.912498]}}, {"type": "Feature", "properties": {"start": "Chamonix-Mont-Blanc", "stop_name": "Les Moussoux", "type": "Gare accessible", "transport": "TER", "transport_legende": "\ud83d\udeb2 \u2764\ufe0f Train TER \ud83d\ude86"}, "geometry": {"type": "Point", "coordinates": [6.85899, 45.916635]}}, {"type": "Feature", "properties": {"start": "Chamonix-Mont-Blanc", "stop_name": "Chamonix Aiguille du Midi", "type": "Gare accessible", "transport": "TER", "transport_legende": "\ud83d\udeb2 \u2764\ufe0f Train TER \ud83d\ude86"}, "geometry": {"type": "Point", "coordinates": [6.866895, 45.91999]}}, {"type": "Feature", "properties": {"start": "Chamonix-Mont-Blanc", "stop_name": "Les Praz de Chamonix", "type": "Gare accessible", "transport": "TER", "transport_legende": "\ud83d\udeb2 \u2764\ufe0f Train TER \ud83d\ude86"}, "geometry": {"type": "Point", "coordinates": [6.888753, 45.939459]}}, {"type": "Feature", "properties": {"start": "Chamonix-Mont-Blanc", "stop_name": "Les Tines", "type": "Gare accessible", "transport": "TER", "transport_legende": "\ud83d\udeb2 \u2764\ufe0f Train TER \ud83d\ude86"}, "geometry": {"type": "Point", "coordinates": [6.899362, 45.95053]}}, {"type": "Feature", "properties": {"start": "Chamonix-Mont-Blanc", "stop_name": "La Joux", "type": "Gare accessible", "transport": "TER", "transport_legende": "\ud83d\udeb2 \u2764\ufe0f Train TER \ud83d\ude86"}, "geometry": {"type": "Point", "coordinates": [6.910087, 45.965766]}}, {"type": "Feature", "properties": {"start": "Chamonix-Mont-Blanc", "stop_name": "Argenti\u00e8re", "type": "Gare accessible", "transport": "TER", "transport_legende": "\ud83d\udeb2 \u2764\ufe0f Train TER \ud83d\ude86"}, "geometry": {"type": "Point", "coordinates": [6.926484, 45.981944]}}, {"type": "Feature", "properties": {"start": "Chamonix-Mont-Blanc", "stop_name": "Montroc le Planet", "type": "Gare accessible", "transport": "TER", "transport_legende": "\ud83d\udeb2 \u2764\ufe0f Train TER \ud83d\ude86"}, "geometry": {"type": "Point", "coordinates": [6.934548, 45.996459]}}, {"type": "Feature", "properties": {"start": "Chamonix-Mont-Blanc", "stop_name": "Le Buet", "type": "Gare accessible", "transport": "TER", "transport_legende": "\ud83d\udeb2 \u2764\ufe0f Train TER \ud83d\ude86"}, "geometry": {"type": "Point", "coordinates": [6.920412, 46.018805]}}, {"type": "Feature", "properties": {"start": "Chamonix-Mont-Blanc", "stop_name": "Vallorcine", "type": "Gare accessible", "transport": "TER", "transport_legende": "\ud83d\udeb2 \u2764\ufe0f Train TER \ud83d\ude86"}, "geometry": {"type": "Point", "coordinates": [6.932669, 46.032498]}}, {"type": "Feature", "properties": {"start": "Chamonix-Mont-Blanc", "stop_name": "Saint-Gervais-les-Bains-Le Fayet", "type": "Gare accessible", "transport": "TER", "transport_legende": "\ud83d\udeb2 \u2764\ufe0f Train TER \ud83d\ude86"}, "geometry": {"type": "Point", "coordinates": [6.701331, 45.906423]}}, {"type": "Feature", "properties": {"start": "Chamonix-Mont-Blanc", "stop_name": "Le Ch\u00e2telard Fronti\u00e8re", "type": "Gare accessible", "transport": "TER", "transport_legende": "\ud83d\udeb2 \u2764\ufe0f Train TER \ud83d\ude86"}, "geometry": {"type": "Point", "coordinates": [6.950241, 46.053259]}}, {"type": "Feature", "properties": {"start": "Chamonix-Mont-Blanc", "stop_name": "Bellegarde", "type": "Gare accessible", "transport": "TER", "transport_legende": "\ud83d\udeb2 \u2764\ufe0f Train TER \ud83d\ude86"}, "geometry": {"type": "Point", "coordinates": [5.823483, 46.109425]}}, {"type": "Feature", "properties": {"start": "Chamonix-Mont-Blanc", "stop_name": "Annemasse", "type": "Gare accessible", "transport": "TER", "transport_legende": "\ud83d\udeb2 \u2764\ufe0f Train TER \ud83d\ude86"}, "geometry": {"type": "Point", "coordinates": [6.236431, 46.199245]}}, {"type": "Feature", "properties": {"start": "Chamonix-Mont-Blanc", "stop_name": "La Roche-sur-Foron", "type": "Gare accessible", "transport": "TER", "transport_legende": "\ud83d\udeb2 \u2764\ufe0f Train TER \ud83d\ude86"}, "geometry": {"type": "Point", "coordinates": [6.30384, 46.067542]}}, {"type": "Feature", "properties": {"start": "Chamonix-Mont-Blanc", "stop_name": "Bonneville", "type": "Gare accessible", "transport": "TER", "transport_legende": "\ud83d\udeb2 \u2764\ufe0f Train TER \ud83d\ude86"}, "geometry": {"type": "Point", "coordinates": [6.416493, 46.077752]}}, {"type": "Feature", "properties": {"start": "Chamonix-Mont-Blanc", "stop_name": "Cluses", "type": "Gare accessible", "transport": "TER", "transport_legende": "\ud83d\udeb2 \u2764\ufe0f Train TER \ud83d\ude86"}, "geometry": {"type": "Point", "coordinates": [6.582771, 46.061468]}}, {"type": "Feature", "properties": {"start": "Chamonix-Mont-Blanc", "stop_name": "Sallanches - Combloux - Meg\u00e8ve", "type": "Gare accessible", "transport": "TER", "transport_legende": "\ud83d\udeb2 \u2764\ufe0f Train TER \ud83d\ude86"}, "geometry": {"type": "Point", "coordinates": [6.636458, 45.935699]}}]}