{"type": "FeatureCollection", "features": [{"type": "Feature", "properties": {"start": "Chantilly - Gouvieux", "stop_name": "Chantilly - Gouvieux", "type": "Gare s\u00e9lectionn\u00e9e", "transport": "TER", "nombre_trajet_moyen": 9.18, "transport_legende": "\ud83d\udeb2 \u2764\ufe0f Train TER \ud83d\ude86"}, "geometry": {"type": "Point", "coordinates": [2.459771, 49.187219]}}, {"type": "Feature", "properties": {"start": "Chantilly - Gouvieux", "stop_name": "Paris Gare du Nord", "type": "Gare accessible", "transport": "TER", "nombre_trajet_moyen": 9.18, "transport_legende": "\ud83d\udeb2 \u2764\ufe0f Train TER \ud83d\ude86"}, "geometry": {"type": "Point", "coordinates": [2.354851, 48.880136]}}, {"type": "Feature", "properties": {"start": "Chantilly - Gouvieux", "stop_name": "Orry-la-Ville - Coye", "type": "Gare accessible", "transport": "TER", "nombre_trajet_moyen": 9.18, "transport_legende": "\ud83d\udeb2 \u2764\ufe0f Train TER \ud83d\ude86"}, "geometry": {"type": "Point", "coordinates": [2.489997, 49.13893]}}, {"type": "Feature", "properties": {"start": "Chantilly - Gouvieux", "stop_name": "Creil", "type": "Gare accessible", "transport": "TER", "nombre_trajet_moyen": 9.18, "transport_legende": "\ud83d\udeb2 \u2764\ufe0f Train TER \ud83d\ude86"}, "geometry": {"type": "Point", "coordinates": [2.469293, 49.263775]}}, {"type": "Feature", "properties": {"start": "Chantilly - Gouvieux", "stop_name": "Compi\u00e8gne", "type": "Gare accessible", "transport": "TER", "nombre_trajet_moyen": 6.1, "transport_legende": "\ud83d\udeb2 \u2764\ufe0f Train TER \ud83d\ude86"}, "geometry": {"type": "Point", "coordinates": [2.823693, 49.421977]}}, {"type": "Feature", "properties": {"start": "Chantilly - Gouvieux", "stop_name": "Pont-Sainte-Maxence", "type": "Gare accessible", "transport": "TER", "nombre_trajet_moyen": 6.1, "transport_legende": "\ud83d\udeb2 \u2764\ufe0f Train TER \ud83d\ude86"}, "geometry": {"type": "Point", "coordinates": [2.602893, 49.309736]}}, {"type": "Feature", "properties": {"start": "Chantilly - Gouvieux", "stop_name": "Rieux - Angicourt", "type": "Gare accessible", "transport": "TER", "nombre_trajet_moyen": 5.66, "transport_legende": "\ud83d\udeb2 \u2764\ufe0f Train TER \ud83d\ude86"}, "geometry": {"type": "Point", "coordinates": [2.521185, 49.298581]}}, {"type": "Feature", "properties": {"start": "Chantilly - Gouvieux", "stop_name": "Villers-Saint-Paul", "type": "Gare accessible", "transport": "TER", "nombre_trajet_moyen": 5.52, "transport_legende": "\ud83d\udeb2 \u2764\ufe0f Train TER \ud83d\ude86"}, "geometry": {"type": "Point", "coordinates": [2.489455, 49.282396]}}, {"type": "Feature", "properties": {"start": "Chantilly - Gouvieux", "stop_name": "Jaux", "type": "Gare accessible", "transport": "TER", "nombre_trajet_moyen": 5.08, "transport_legende": "\ud83d\udeb2 \u2764\ufe0f Train TER \ud83d\ude86"}, "geometry": {"type": "Point", "coordinates": [2.777299, 49.386448]}}, {"type": "Feature", "properties": {"start": "Chantilly - Gouvieux", "stop_name": "Le Meux - La Croix-Saint-Ouen", "type": "Gare accessible", "transport": "TER", "nombre_trajet_moyen": 5.52, "transport_legende": "\ud83d\udeb2 \u2764\ufe0f Train TER \ud83d\ude86"}, "geometry": {"type": "Point", "coordinates": [2.753483, 49.35949]}}, {"type": "Feature", "properties": {"start": "Chantilly - Gouvieux", "stop_name": "Longueil-Sainte-Marie", "type": "Gare accessible", "transport": "TER", "nombre_trajet_moyen": 5.52, "transport_legende": "\ud83d\udeb2 \u2764\ufe0f Train TER \ud83d\ude86"}, "geometry": {"type": "Point", "coordinates": [2.717636, 49.342407]}}, {"type": "Feature", "properties": {"start": "Chantilly - Gouvieux", "stop_name": "Chevri\u00e8res", "type": "Gare accessible", "transport": "TER", "nombre_trajet_moyen": 5.52, "transport_legende": "\ud83d\udeb2 \u2764\ufe0f Train TER \ud83d\ude86"}, "geometry": {"type": "Point", "coordinates": [2.682515, 49.337314]}}, {"type": "Feature", "properties": {"start": "Chantilly - Gouvieux", "stop_name": "Noyon", "type": "Gare accessible", "transport": "TER", "nombre_trajet_moyen": 0.84, "transport_legende": "\ud83d\udeb2 \u2764\ufe0f Train TER \ud83d\ude86"}, "geometry": {"type": "Point", "coordinates": [3.006434, 49.577351]}}, {"type": "Feature", "properties": {"start": "Chantilly - Gouvieux", "stop_name": "Chauny", "type": "Gare accessible", "transport": "TER", "nombre_trajet_moyen": 0.84, "transport_legende": "\ud83d\udeb2 \u2764\ufe0f Train TER \ud83d\ude86"}, "geometry": {"type": "Point", "coordinates": [3.223484, 49.611165]}}, {"type": "Feature", "properties": {"start": "Chantilly - Gouvieux", "stop_name": "Tergnier", "type": "Gare accessible", "transport": "TER", "nombre_trajet_moyen": 0.84, "transport_legende": "\ud83d\udeb2 \u2764\ufe0f Train TER \ud83d\ude86"}, "geometry": {"type": "Point", "coordinates": [3.297253, 49.659129]}}, {"type": "Feature", "properties": {"start": "Chantilly - Gouvieux", "stop_name": "Saint-Quentin", "type": "Gare accessible", "transport": "TER", "nombre_trajet_moyen": 0.84, "transport_legende": "\ud83d\udeb2 \u2764\ufe0f Train TER \ud83d\ude86"}, "geometry": {"type": "Point", "coordinates": [3.296958, 49.840025]}}, {"type": "Feature", "properties": {"start": "Chantilly - Gouvieux", "stop_name": "Amiens", "type": "Gare accessible", "transport": "TER", "nombre_trajet_moyen": 4.18, "transport_legende": "\ud83d\udeb2 \u2764\ufe0f Train TER \ud83d\ude86"}, "geometry": {"type": "Point", "coordinates": [2.308277, 49.890584]}}, {"type": "Feature", "properties": {"start": "Chantilly - Gouvieux", "stop_name": "Longueau", "type": "Gare accessible", "transport": "TER", "nombre_trajet_moyen": 4.18, "transport_legende": "\ud83d\udeb2 \u2764\ufe0f Train TER \ud83d\ude86"}, "geometry": {"type": "Point", "coordinates": [2.352233, 49.863407]}}, {"type": "Feature", "properties": {"start": "Chantilly - Gouvieux", "stop_name": "Ailly-sur-Noye", "type": "Gare accessible", "transport": "TER", "nombre_trajet_moyen": 3.35, "transport_legende": "\ud83d\udeb2 \u2764\ufe0f Train TER \ud83d\ude86"}, "geometry": {"type": "Point", "coordinates": [2.364147, 49.754206]}}, {"type": "Feature", "properties": {"start": "Chantilly - Gouvieux", "stop_name": "Breteuil-Embranchement", "type": "Gare accessible", "transport": "TER", "nombre_trajet_moyen": 3.6, "transport_legende": "\ud83d\udeb2 \u2764\ufe0f Train TER \ud83d\ude86"}, "geometry": {"type": "Point", "coordinates": [2.384714, 49.626499]}}, {"type": "Feature", "properties": {"start": "Chantilly - Gouvieux", "stop_name": "Saint-Just-en-Chauss\u00e9e", "type": "Gare accessible", "transport": "TER", "nombre_trajet_moyen": 5.52, "transport_legende": "\ud83d\udeb2 \u2764\ufe0f Train TER \ud83d\ude86"}, "geometry": {"type": "Point", "coordinates": [2.42949, 49.50364]}}, {"type": "Feature", "properties": {"start": "Chantilly - Gouvieux", "stop_name": "Avrechy", "type": "Gare accessible", "transport": "TER", "nombre_trajet_moyen": 1.66, "transport_legende": "\ud83d\udeb2 \u2764\ufe0f Train TER \ud83d\ude86"}, "geometry": {"type": "Point", "coordinates": [2.418194, 49.444637]}}, {"type": "Feature", "properties": {"start": "Chantilly - Gouvieux", "stop_name": "Clermont de l'Oise", "type": "Gare accessible", "transport": "TER", "nombre_trajet_moyen": 5.52, "transport_legende": "\ud83d\udeb2 \u2764\ufe0f Train TER \ud83d\ude86"}, "geometry": {"type": "Point", "coordinates": [2.417663, 49.385278]}}, {"type": "Feature", "properties": {"start": "Chantilly - Gouvieux", "stop_name": "Liancourt - Rantigny", "type": "Gare accessible", "transport": "TER", "nombre_trajet_moyen": 4.69, "transport_legende": "\ud83d\udeb2 \u2764\ufe0f Train TER \ud83d\ude86"}, "geometry": {"type": "Point", "coordinates": [2.445255, 49.324818]}}, {"type": "Feature", "properties": {"start": "Chantilly - Gouvieux", "stop_name": "Laigneville", "type": "Gare accessible", "transport": "TER", "nombre_trajet_moyen": 4.69, "transport_legende": "\ud83d\udeb2 \u2764\ufe0f Train TER \ud83d\ude86"}, "geometry": {"type": "Point", "coordinates": [2.449251, 49.29291]}}]}