{"type": "FeatureCollection", "features": [{"type": "Feature", "properties": {"start": "Cherbourg", "stop_name": "Cherbourg", "type": "Gare s\u00e9lectionn\u00e9e", "transport": "TER", "transport_legende": "\ud83d\udeb2 \u2764\ufe0f Train TER \ud83d\ude86"}, "geometry": {"type": "Point", "coordinates": [-1.621487, 49.633518]}}, {"type": "Feature", "properties": {"start": "Cherbourg", "stop_name": "Valognes", "type": "Gare accessible", "transport": "TER", "transport_legende": "\ud83d\udeb2 \u2764\ufe0f Train TER \ud83d\ude86"}, "geometry": {"type": "Point", "coordinates": [-1.47986, 49.505454]}}, {"type": "Feature", "properties": {"start": "Cherbourg", "stop_name": "Carentan", "type": "Gare accessible", "transport": "TER", "transport_legende": "\ud83d\udeb2 \u2764\ufe0f Train TER \ud83d\ude86"}, "geometry": {"type": "Point", "coordinates": [-1.244938, 49.302482]}}, {"type": "Feature", "properties": {"start": "Cherbourg", "stop_name": "Lison", "type": "Gare accessible", "transport": "TER", "transport_legende": "\ud83d\udeb2 \u2764\ufe0f Train TER \ud83d\ude86"}, "geometry": {"type": "Point", "coordinates": [-1.050339, 49.226834]}}, {"type": "Feature", "properties": {"start": "Cherbourg", "stop_name": "Bayeux", "type": "Gare accessible", "transport": "TER", "transport_legende": "\ud83d\udeb2 \u2764\ufe0f Train TER \ud83d\ude86"}, "geometry": {"type": "Point", "coordinates": [-0.6981, 49.269729]}}, {"type": "Feature", "properties": {"start": "Cherbourg", "stop_name": "Caen", "type": "Gare accessible", "transport": "TER", "transport_legende": "\ud83d\udeb2 \u2764\ufe0f Train TER \ud83d\ude86"}, "geometry": {"type": "Point", "coordinates": [-0.347613, 49.176354]}}, {"type": "Feature", "properties": {"start": "Cherbourg", "stop_name": "Paris Saint-Lazare", "type": "Gare accessible", "transport": "TER", "transport_legende": "\ud83d\udeb2 \u2764\ufe0f Train TER \ud83d\ude86"}, "geometry": {"type": "Point", "coordinates": [2.325331, 48.876242]}}, {"type": "Feature", "properties": {"start": "Cherbourg", "stop_name": "Lisieux", "type": "Gare accessible", "transport": "TER", "transport_legende": "\ud83d\udeb2 \u2764\ufe0f Train TER \ud83d\ude86"}, "geometry": {"type": "Point", "coordinates": [0.231143, 49.138299]}}, {"type": "Feature", "properties": {"start": "Cherbourg", "stop_name": "Bernay", "type": "Gare accessible", "transport": "TER", "transport_legende": "\ud83d\udeb2 \u2764\ufe0f Train TER \ud83d\ude86"}, "geometry": {"type": "Point", "coordinates": [0.595688, 49.087116]}}, {"type": "Feature", "properties": {"start": "Cherbourg", "stop_name": "\u00c9vreux Normandie", "type": "Gare accessible", "transport": "TER", "transport_legende": "\ud83d\udeb2 \u2764\ufe0f Train TER \ud83d\ude86"}, "geometry": {"type": "Point", "coordinates": [1.149629, 49.018748]}}, {"type": "Feature", "properties": {"start": "Cherbourg", "stop_name": "Mantes-la-Jolie", "type": "Gare accessible", "transport": "TER", "transport_legende": "\ud83d\udeb2 \u2764\ufe0f Train TER \ud83d\ude86"}, "geometry": {"type": "Point", "coordinates": [1.70337, 48.98984]}}]}