{"type": "FeatureCollection", "features": [{"type": "Feature", "properties": {"start": "Coucy-l\u00e8s-Eppes", "stop_name": "Coucy-l\u00e8s-Eppes", "type": "Gare s\u00e9lectionn\u00e9e", "transport": "TER", "nombre_trajet_moyen": 3.62, "transport_legende": "\ud83d\udeb2 \u2764\ufe0f Train TER \ud83d\ude86"}, "geometry": {"type": "Point", "coordinates": [3.774726, 49.556266]}}, {"type": "Feature", "properties": {"start": "Coucy-l\u00e8s-Eppes", "stop_name": "Laon", "type": "Gare accessible", "transport": "TER", "nombre_trajet_moyen": 3.62, "transport_legende": "\ud83d\udeb2 \u2764\ufe0f Train TER \ud83d\ude86"}, "geometry": {"type": "Point", "coordinates": [3.62434, 49.570578]}}, {"type": "Feature", "properties": {"start": "Coucy-l\u00e8s-Eppes", "stop_name": "Saint-Erme", "type": "Gare accessible", "transport": "TER", "nombre_trajet_moyen": 3.62, "transport_legende": "\ud83d\udeb2 \u2764\ufe0f Train TER \ud83d\ude86"}, "geometry": {"type": "Point", "coordinates": [3.857591, 49.526949]}}, {"type": "Feature", "properties": {"start": "Coucy-l\u00e8s-Eppes", "stop_name": "Amifontaine", "type": "Gare accessible", "transport": "TER", "nombre_trajet_moyen": 3.62, "transport_legende": "\ud83d\udeb2 \u2764\ufe0f Train TER \ud83d\ude86"}, "geometry": {"type": "Point", "coordinates": [3.910666, 49.484738]}}, {"type": "Feature", "properties": {"start": "Coucy-l\u00e8s-Eppes", "stop_name": "Guignicourt", "type": "Gare accessible", "transport": "TER", "nombre_trajet_moyen": 3.62, "transport_legende": "\ud83d\udeb2 \u2764\ufe0f Train TER \ud83d\ude86"}, "geometry": {"type": "Point", "coordinates": [3.961334, 49.434862]}}, {"type": "Feature", "properties": {"start": "Coucy-l\u00e8s-Eppes", "stop_name": "Aguilcourt - Variscourt", "type": "Gare accessible", "transport": "TER", "nombre_trajet_moyen": 3.62, "transport_legende": "\ud83d\udeb2 \u2764\ufe0f Train TER \ud83d\ude86"}, "geometry": {"type": "Point", "coordinates": [3.973095, 49.407994]}}, {"type": "Feature", "properties": {"start": "Coucy-l\u00e8s-Eppes", "stop_name": "Loivre", "type": "Gare accessible", "transport": "TER", "nombre_trajet_moyen": 3.62, "transport_legende": "\ud83d\udeb2 \u2764\ufe0f Train TER \ud83d\ude86"}, "geometry": {"type": "Point", "coordinates": [3.990625, 49.346676]}}, {"type": "Feature", "properties": {"start": "Coucy-l\u00e8s-Eppes", "stop_name": "Courcy - Brimont", "type": "Gare accessible", "transport": "TER", "nombre_trajet_moyen": 3.62, "transport_legende": "\ud83d\udeb2 \u2764\ufe0f Train TER \ud83d\ude86"}, "geometry": {"type": "Point", "coordinates": [4.013462, 49.3296]}}, {"type": "Feature", "properties": {"start": "Coucy-l\u00e8s-Eppes", "stop_name": "Reims", "type": "Gare accessible", "transport": "TER", "nombre_trajet_moyen": 3.62, "transport_legende": "\ud83d\udeb2 \u2764\ufe0f Train TER \ud83d\ude86"}, "geometry": {"type": "Point", "coordinates": [4.021994, 49.258934]}}]}