{"type": "FeatureCollection", "features": [{"type": "Feature", "properties": {"start": "Courtrai", "stop_name": "Courtrai", "type": "Gare s\u00e9lectionn\u00e9e", "transport": "TER", "nombre_trajet_moyen": 4.3, "transport_legende": "\ud83d\udeb2 \u2764\ufe0f Train TER \ud83d\ude86"}, "geometry": {"type": "Point", "coordinates": [3.26, 50.824]}}, {"type": "Feature", "properties": {"start": "Courtrai", "stop_name": "Lille Flandres", "type": "Gare accessible", "transport": "TER", "nombre_trajet_moyen": 4.3, "transport_legende": "\ud83d\udeb2 \u2764\ufe0f Train TER \ud83d\ude86"}, "geometry": {"type": "Point", "coordinates": [3.06987, 50.636577]}}, {"type": "Feature", "properties": {"start": "Courtrai", "stop_name": "Croix - Wasquehal", "type": "Gare accessible", "transport": "TER", "nombre_trajet_moyen": 1.23, "transport_legende": "\ud83d\udeb2 \u2764\ufe0f Train TER \ud83d\ude86"}, "geometry": {"type": "Point", "coordinates": [3.138069, 50.678528]}}, {"type": "Feature", "properties": {"start": "Courtrai", "stop_name": "Croix l'Allumette", "type": "Gare accessible", "transport": "TER", "nombre_trajet_moyen": 1.18, "transport_legende": "\ud83d\udeb2 \u2764\ufe0f Train TER \ud83d\ude86"}, "geometry": {"type": "Point", "coordinates": [3.151126, 50.6868]}}, {"type": "Feature", "properties": {"start": "Courtrai", "stop_name": "Roubaix", "type": "Gare accessible", "transport": "TER", "nombre_trajet_moyen": 4.3, "transport_legende": "\ud83d\udeb2 \u2764\ufe0f Train TER \ud83d\ude86"}, "geometry": {"type": "Point", "coordinates": [3.16351, 50.695557]}}, {"type": "Feature", "properties": {"start": "Courtrai", "stop_name": "Tourcoing", "type": "Gare accessible", "transport": "TER", "nombre_trajet_moyen": 4.3, "transport_legende": "\ud83d\udeb2 \u2764\ufe0f Train TER \ud83d\ude86"}, "geometry": {"type": "Point", "coordinates": [3.168027, 50.716826]}}, {"type": "Feature", "properties": {"start": "Courtrai", "stop_name": "Mouscron", "type": "Gare accessible", "transport": "TER", "nombre_trajet_moyen": 4.3, "transport_legende": "\ud83d\udeb2 \u2764\ufe0f Train TER \ud83d\ude86"}, "geometry": {"type": "Point", "coordinates": [3.225, 50.738]}}]}