{"type": "FeatureCollection", "features": [{"type": "Feature", "properties": {"start": "Cousance", "stop_name": "Cousance", "type": "Gare s\u00e9lectionn\u00e9e", "transport": "TER", "transport_legende": "\ud83d\udeb2 \u2764\ufe0f Train TER \ud83d\ude86"}, "geometry": {"type": "Point", "coordinates": [5.386986, 46.535169]}}, {"type": "Feature", "properties": {"start": "Cousance", "stop_name": "Bourg-en-Bresse", "type": "Gare accessible", "transport": "TER", "transport_legende": "\ud83d\udeb2 \u2764\ufe0f Train TER \ud83d\ude86"}, "geometry": {"type": "Point", "coordinates": [5.215011, 46.200111]}}, {"type": "Feature", "properties": {"start": "Cousance", "stop_name": "Saint-Amour", "type": "Gare accessible", "transport": "TER", "transport_legende": "\ud83d\udeb2 \u2764\ufe0f Train TER \ud83d\ude86"}, "geometry": {"type": "Point", "coordinates": [5.334427, 46.433733]}}, {"type": "Feature", "properties": {"start": "Cousance", "stop_name": "Lons-le-Saunier", "type": "Gare accessible", "transport": "TER", "transport_legende": "\ud83d\udeb2 \u2764\ufe0f Train TER \ud83d\ude86"}, "geometry": {"type": "Point", "coordinates": [5.551108, 46.66858]}}, {"type": "Feature", "properties": {"start": "Cousance", "stop_name": "Besan\u00e7on Viotte", "type": "Gare accessible", "transport": "TER", "transport_legende": "\ud83d\udeb2 \u2764\ufe0f Train TER \ud83d\ude86"}, "geometry": {"type": "Point", "coordinates": [6.021943, 47.247049]}}, {"type": "Feature", "properties": {"start": "Cousance", "stop_name": "Arc-et-Senans", "type": "Gare accessible", "transport": "TER", "transport_legende": "\ud83d\udeb2 \u2764\ufe0f Train TER \ud83d\ude86"}, "geometry": {"type": "Point", "coordinates": [5.77683, 47.030473]}}, {"type": "Feature", "properties": {"start": "Cousance", "stop_name": "Mouchard", "type": "Gare accessible", "transport": "TER", "transport_legende": "\ud83d\udeb2 \u2764\ufe0f Train TER \ud83d\ude86"}, "geometry": {"type": "Point", "coordinates": [5.799698, 46.976865]}}, {"type": "Feature", "properties": {"start": "Cousance", "stop_name": "Arbois", "type": "Gare accessible", "transport": "TER", "transport_legende": "\ud83d\udeb2 \u2764\ufe0f Train TER \ud83d\ude86"}, "geometry": {"type": "Point", "coordinates": [5.764837, 46.912467]}}, {"type": "Feature", "properties": {"start": "Cousance", "stop_name": "Poligny", "type": "Gare accessible", "transport": "TER", "transport_legende": "\ud83d\udeb2 \u2764\ufe0f Train TER \ud83d\ude86"}, "geometry": {"type": "Point", "coordinates": [5.700268, 46.844207]}}, {"type": "Feature", "properties": {"start": "Cousance", "stop_name": "Amb\u00e9rieu-en-Bugey", "type": "Gare accessible", "transport": "TER", "transport_legende": "\ud83d\udeb2 \u2764\ufe0f Train TER \ud83d\ude86"}, "geometry": {"type": "Point", "coordinates": [5.342402, 45.954014]}}, {"type": "Feature", "properties": {"start": "Cousance", "stop_name": "Lyon Part Dieu", "type": "Gare accessible", "transport": "TER", "transport_legende": "\ud83d\udeb2 \u2764\ufe0f Train TER \ud83d\ude86"}, "geometry": {"type": "Point", "coordinates": [4.859409, 45.760596]}}, {"type": "Feature", "properties": {"start": "Cousance", "stop_name": "Lyon Perrache", "type": "Gare accessible", "transport": "TER", "transport_legende": "\ud83d\udeb2 \u2764\ufe0f Train TER \ud83d\ude86"}, "geometry": {"type": "Point", "coordinates": [4.825777, 45.748508]}}, {"type": "Feature", "properties": {"start": "Cousance", "stop_name": "Domblans - Voiteur", "type": "Gare accessible", "transport": "TER", "transport_legende": "\ud83d\udeb2 \u2764\ufe0f Train TER \ud83d\ude86"}, "geometry": {"type": "Point", "coordinates": [5.597875, 46.762774]}}, {"type": "Feature", "properties": {"start": "Cousance", "stop_name": "Belfort-Ville", "type": "Gare accessible", "transport": "TER", "transport_legende": "\ud83d\udeb2 \u2764\ufe0f Train TER \ud83d\ude86"}, "geometry": {"type": "Point", "coordinates": [6.854053, 47.633278]}}, {"type": "Feature", "properties": {"start": "Cousance", "stop_name": "H\u00e9ricourt", "type": "Gare accessible", "transport": "TER", "transport_legende": "\ud83d\udeb2 \u2764\ufe0f Train TER \ud83d\ude86"}, "geometry": {"type": "Point", "coordinates": [6.769388, 47.572971]}}, {"type": "Feature", "properties": {"start": "Cousance", "stop_name": "Montb\u00e9liard", "type": "Gare accessible", "transport": "TER", "transport_legende": "\ud83d\udeb2 \u2764\ufe0f Train TER \ud83d\ude86"}, "geometry": {"type": "Point", "coordinates": [6.801336, 47.51055]}}, {"type": "Feature", "properties": {"start": "Cousance", "stop_name": "L'Isle-sur-le-Doubs", "type": "Gare accessible", "transport": "TER", "transport_legende": "\ud83d\udeb2 \u2764\ufe0f Train TER \ud83d\ude86"}, "geometry": {"type": "Point", "coordinates": [6.581261, 47.447378]}}, {"type": "Feature", "properties": {"start": "Cousance", "stop_name": "Clerval", "type": "Gare accessible", "transport": "TER", "transport_legende": "\ud83d\udeb2 \u2764\ufe0f Train TER \ud83d\ude86"}, "geometry": {"type": "Point", "coordinates": [6.492282, 47.396601]}}, {"type": "Feature", "properties": {"start": "Cousance", "stop_name": "Baume-les-Dames", "type": "Gare accessible", "transport": "TER", "transport_legende": "\ud83d\udeb2 \u2764\ufe0f Train TER \ud83d\ude86"}, "geometry": {"type": "Point", "coordinates": [6.359649, 47.353972]}}, {"type": "Feature", "properties": {"start": "Cousance", "stop_name": "Meximieux - P\u00e9rouges", "type": "Gare accessible", "transport": "TER", "transport_legende": "\ud83d\udeb2 \u2764\ufe0f Train TER \ud83d\ude86"}, "geometry": {"type": "Point", "coordinates": [5.193296, 45.901783]}}, {"type": "Feature", "properties": {"start": "Cousance", "stop_name": "Sathonay - Rillieux", "type": "Gare accessible", "transport": "TER", "transport_legende": "\ud83d\udeb2 \u2764\ufe0f Train TER \ud83d\ude86"}, "geometry": {"type": "Point", "coordinates": [4.875282, 45.820274]}}, {"type": "Feature", "properties": {"start": "Cousance", "stop_name": "Les \u00c9chets", "type": "Gare accessible", "transport": "TER", "transport_legende": "\ud83d\udeb2 \u2764\ufe0f Train TER \ud83d\ude86"}, "geometry": {"type": "Point", "coordinates": [4.910814, 45.874675]}}, {"type": "Feature", "properties": {"start": "Cousance", "stop_name": "Mionnay", "type": "Gare accessible", "transport": "TER", "transport_legende": "\ud83d\udeb2 \u2764\ufe0f Train TER \ud83d\ude86"}, "geometry": {"type": "Point", "coordinates": [4.919836, 45.896876]}}, {"type": "Feature", "properties": {"start": "Cousance", "stop_name": "Saint-Andr\u00e9-de-Corcy", "type": "Gare accessible", "transport": "TER", "transport_legende": "\ud83d\udeb2 \u2764\ufe0f Train TER \ud83d\ude86"}, "geometry": {"type": "Point", "coordinates": [4.948804, 45.925942]}}, {"type": "Feature", "properties": {"start": "Cousance", "stop_name": "Saint-Marcel en Dombes", "type": "Gare accessible", "transport": "TER", "transport_legende": "\ud83d\udeb2 \u2764\ufe0f Train TER \ud83d\ude86"}, "geometry": {"type": "Point", "coordinates": [4.977902, 45.950594]}}, {"type": "Feature", "properties": {"start": "Cousance", "stop_name": "Villars-les-Dombes", "type": "Gare accessible", "transport": "TER", "transport_legende": "\ud83d\udeb2 \u2764\ufe0f Train TER \ud83d\ude86"}, "geometry": {"type": "Point", "coordinates": [5.028415, 46.004273]}}, {"type": "Feature", "properties": {"start": "Cousance", "stop_name": "Marlieux - Ch\u00e2tillon", "type": "Gare accessible", "transport": "TER", "transport_legende": "\ud83d\udeb2 \u2764\ufe0f Train TER \ud83d\ude86"}, "geometry": {"type": "Point", "coordinates": [5.07311, 46.063876]}}, {"type": "Feature", "properties": {"start": "Cousance", "stop_name": "Saint-Paul-de-Varax", "type": "Gare accessible", "transport": "TER", "transport_legende": "\ud83d\udeb2 \u2764\ufe0f Train TER \ud83d\ude86"}, "geometry": {"type": "Point", "coordinates": [5.128263, 46.100114]}}, {"type": "Feature", "properties": {"start": "Cousance", "stop_name": "Servas - Lent", "type": "Gare accessible", "transport": "TER", "transport_legende": "\ud83d\udeb2 \u2764\ufe0f Train TER \ud83d\ude86"}, "geometry": {"type": "Point", "coordinates": [5.168175, 46.130994]}}, {"type": "Feature", "properties": {"start": "Cousance", "stop_name": "Franois", "type": "Gare accessible", "transport": "TER", "transport_legende": "\ud83d\udeb2 \u2764\ufe0f Train TER \ud83d\ude86"}, "geometry": {"type": "Point", "coordinates": [5.937233, 47.22751]}}]}