{"type": "FeatureCollection", "features": [{"type": "Feature", "properties": {"start": "Criss\u00e9", "stop_name": "Criss\u00e9", "type": "Gare s\u00e9lectionn\u00e9e", "transport": "TER", "nombre_trajet_moyen": 2.4, "transport_legende": "\ud83d\udeb2 \u2764\ufe0f Train TER \ud83d\ude86"}, "geometry": {"type": "Point", "coordinates": [-0.065929, 48.168212]}}, {"type": "Feature", "properties": {"start": "Criss\u00e9", "stop_name": "Laval", "type": "Gare accessible", "transport": "TER", "nombre_trajet_moyen": 2.4, "transport_legende": "\ud83d\udeb2 \u2764\ufe0f Train TER \ud83d\ude86"}, "geometry": {"type": "Point", "coordinates": [-0.760929, 48.076255]}}, {"type": "Feature", "properties": {"start": "Criss\u00e9", "stop_name": "Louvern\u00e9", "type": "Gare accessible", "transport": "TER", "nombre_trajet_moyen": 1.96, "transport_legende": "\ud83d\udeb2 \u2764\ufe0f Train TER \ud83d\ude86"}, "geometry": {"type": "Point", "coordinates": [-0.714347, 48.108817]}}, {"type": "Feature", "properties": {"start": "Criss\u00e9", "stop_name": "Monts\u00fbrs", "type": "Gare accessible", "transport": "TER", "nombre_trajet_moyen": 2.4, "transport_legende": "\ud83d\udeb2 \u2764\ufe0f Train TER \ud83d\ude86"}, "geometry": {"type": "Point", "coordinates": [-0.550642, 48.14149]}}, {"type": "Feature", "properties": {"start": "Criss\u00e9", "stop_name": "Neau", "type": "Gare accessible", "transport": "TER", "nombre_trajet_moyen": 1.96, "transport_legende": "\ud83d\udeb2 \u2764\ufe0f Train TER \ud83d\ude86"}, "geometry": {"type": "Point", "coordinates": [-0.47657, 48.157526]}}, {"type": "Feature", "properties": {"start": "Criss\u00e9", "stop_name": "\u00c9vron", "type": "Gare accessible", "transport": "TER", "nombre_trajet_moyen": 2.4, "transport_legende": "\ud83d\udeb2 \u2764\ufe0f Train TER \ud83d\ude86"}, "geometry": {"type": "Point", "coordinates": [-0.397155, 48.155517]}}, {"type": "Feature", "properties": {"start": "Criss\u00e9", "stop_name": "Voutr\u00e9", "type": "Gare accessible", "transport": "TER", "nombre_trajet_moyen": 2.4, "transport_legende": "\ud83d\udeb2 \u2764\ufe0f Train TER \ud83d\ude86"}, "geometry": {"type": "Point", "coordinates": [-0.292219, 48.134157]}}, {"type": "Feature", "properties": {"start": "Criss\u00e9", "stop_name": "Rouess\u00e9-Vass\u00e9", "type": "Gare accessible", "transport": "TER", "nombre_trajet_moyen": 2.4, "transport_legende": "\ud83d\udeb2 \u2764\ufe0f Train TER \ud83d\ude86"}, "geometry": {"type": "Point", "coordinates": [-0.199779, 48.160076]}}, {"type": "Feature", "properties": {"start": "Criss\u00e9", "stop_name": "Sill\u00e9-le-Guillaume", "type": "Gare accessible", "transport": "TER", "nombre_trajet_moyen": 2.4, "transport_legende": "\ud83d\udeb2 \u2764\ufe0f Train TER \ud83d\ude86"}, "geometry": {"type": "Point", "coordinates": [-0.128891, 48.181795]}}, {"type": "Feature", "properties": {"start": "Criss\u00e9", "stop_name": "Conlie", "type": "Gare accessible", "transport": "TER", "nombre_trajet_moyen": 2.4, "transport_legende": "\ud83d\udeb2 \u2764\ufe0f Train TER \ud83d\ude86"}, "geometry": {"type": "Point", "coordinates": [-0.01162, 48.127221]}}, {"type": "Feature", "properties": {"start": "Criss\u00e9", "stop_name": "Domfront", "type": "Gare accessible", "transport": "TER", "nombre_trajet_moyen": 2.4, "transport_legende": "\ud83d\udeb2 \u2764\ufe0f Train TER \ud83d\ude86"}, "geometry": {"type": "Point", "coordinates": [0.026256, 48.107768]}}, {"type": "Feature", "properties": {"start": "Criss\u00e9", "stop_name": "Le Mans", "type": "Gare accessible", "transport": "TER", "nombre_trajet_moyen": 2.4, "transport_legende": "\ud83d\udeb2 \u2764\ufe0f Train TER \ud83d\ude86"}, "geometry": {"type": "Point", "coordinates": [0.192614, 47.995615]}}]}