{"type": "FeatureCollection", "features": [{"type": "Feature", "properties": {"start": "Dombasle-sur-Meurthe", "stop_name": "Dombasle-sur-Meurthe", "type": "Gare s\u00e9lectionn\u00e9e", "transport": "TER", "nombre_trajet_moyen": 9.37, "transport_legende": "\ud83d\udeb2 \u2764\ufe0f Train TER \ud83d\ude86"}, "geometry": {"type": "Point", "coordinates": [6.343566, 48.623332]}}, {"type": "Feature", "properties": {"start": "Dombasle-sur-Meurthe", "stop_name": "Lun\u00e9ville", "type": "Gare accessible", "transport": "TER", "nombre_trajet_moyen": 9.37, "transport_legende": "\ud83d\udeb2 \u2764\ufe0f Train TER \ud83d\ude86"}, "geometry": {"type": "Point", "coordinates": [6.496997, 48.58799]}}, {"type": "Feature", "properties": {"start": "Dombasle-sur-Meurthe", "stop_name": "Mont-sur-Meurthe", "type": "Gare accessible", "transport": "TER", "nombre_trajet_moyen": 8.04, "transport_legende": "\ud83d\udeb2 \u2764\ufe0f Train TER \ud83d\ude86"}, "geometry": {"type": "Point", "coordinates": [6.449774, 48.559964]}}, {"type": "Feature", "properties": {"start": "Dombasle-sur-Meurthe", "stop_name": "Blainville - Damelevi\u00e8res", "type": "Gare accessible", "transport": "TER", "nombre_trajet_moyen": 8.48, "transport_legende": "\ud83d\udeb2 \u2764\ufe0f Train TER \ud83d\ude86"}, "geometry": {"type": "Point", "coordinates": [6.386948, 48.564799]}}, {"type": "Feature", "properties": {"start": "Dombasle-sur-Meurthe", "stop_name": "Rosi\u00e8res-aux-Salines", "type": "Gare accessible", "transport": "TER", "nombre_trajet_moyen": 8.48, "transport_legende": "\ud83d\udeb2 \u2764\ufe0f Train TER \ud83d\ude86"}, "geometry": {"type": "Point", "coordinates": [6.350631, 48.605441]}}, {"type": "Feature", "properties": {"start": "Dombasle-sur-Meurthe", "stop_name": "Varang\u00e9ville - Saint-Nicolas", "type": "Gare accessible", "transport": "TER", "nombre_trajet_moyen": 8.48, "transport_legende": "\ud83d\udeb2 \u2764\ufe0f Train TER \ud83d\ude86"}, "geometry": {"type": "Point", "coordinates": [6.313142, 48.635215]}}, {"type": "Feature", "properties": {"start": "Dombasle-sur-Meurthe", "stop_name": "Laneuveville-devant-Nancy", "type": "Gare accessible", "transport": "TER", "nombre_trajet_moyen": 8.04, "transport_legende": "\ud83d\udeb2 \u2764\ufe0f Train TER \ud83d\ude86"}, "geometry": {"type": "Point", "coordinates": [6.227977, 48.65568]}}, {"type": "Feature", "properties": {"start": "Dombasle-sur-Meurthe", "stop_name": "Jarville-la-Malgrange", "type": "Gare accessible", "transport": "TER", "nombre_trajet_moyen": 8.04, "transport_legende": "\ud83d\udeb2 \u2764\ufe0f Train TER \ud83d\ude86"}, "geometry": {"type": "Point", "coordinates": [6.202401, 48.669712]}}, {"type": "Feature", "properties": {"start": "Dombasle-sur-Meurthe", "stop_name": "Nancy", "type": "Gare accessible", "transport": "TER", "nombre_trajet_moyen": 9.37, "transport_legende": "\ud83d\udeb2 \u2764\ufe0f Train TER \ud83d\ude86"}, "geometry": {"type": "Point", "coordinates": [6.174579, 48.689857]}}, {"type": "Feature", "properties": {"start": "Dombasle-sur-Meurthe", "stop_name": "Frouard", "type": "Gare accessible", "transport": "TER", "nombre_trajet_moyen": 4.13, "transport_legende": "\ud83d\udeb2 \u2764\ufe0f Train TER \ud83d\ude86"}, "geometry": {"type": "Point", "coordinates": [6.143927, 48.755428]}}, {"type": "Feature", "properties": {"start": "Dombasle-sur-Meurthe", "stop_name": "Liverdun", "type": "Gare accessible", "transport": "TER", "nombre_trajet_moyen": 4.57, "transport_legende": "\ud83d\udeb2 \u2764\ufe0f Train TER \ud83d\ude86"}, "geometry": {"type": "Point", "coordinates": [6.061669, 48.749387]}}, {"type": "Feature", "properties": {"start": "Dombasle-sur-Meurthe", "stop_name": "Toul", "type": "Gare accessible", "transport": "TER", "nombre_trajet_moyen": 4.57, "transport_legende": "\ud83d\udeb2 \u2764\ufe0f Train TER \ud83d\ude86"}, "geometry": {"type": "Point", "coordinates": [5.880499, 48.679011]}}, {"type": "Feature", "properties": {"start": "Dombasle-sur-Meurthe", "stop_name": "Commercy", "type": "Gare accessible", "transport": "TER", "nombre_trajet_moyen": 4.27, "transport_legende": "\ud83d\udeb2 \u2764\ufe0f Train TER \ud83d\ude86"}, "geometry": {"type": "Point", "coordinates": [5.58861, 48.765749]}}, {"type": "Feature", "properties": {"start": "Dombasle-sur-Meurthe", "stop_name": "Bar-le-Duc", "type": "Gare accessible", "transport": "TER", "nombre_trajet_moyen": 3.82, "transport_legende": "\ud83d\udeb2 \u2764\ufe0f Train TER \ud83d\ude86"}, "geometry": {"type": "Point", "coordinates": [5.167053, 48.773598]}}, {"type": "Feature", "properties": {"start": "Dombasle-sur-Meurthe", "stop_name": "Nan\u00e7ois - Tronville", "type": "Gare accessible", "transport": "TER", "nombre_trajet_moyen": 1.31, "transport_legende": "\ud83d\udeb2 \u2764\ufe0f Train TER \ud83d\ude86"}, "geometry": {"type": "Point", "coordinates": [5.29114, 48.718022]}}, {"type": "Feature", "properties": {"start": "Dombasle-sur-Meurthe", "stop_name": "L\u00e9rouville", "type": "Gare accessible", "transport": "TER", "nombre_trajet_moyen": 1.31, "transport_legende": "\ud83d\udeb2 \u2764\ufe0f Train TER \ud83d\ude86"}, "geometry": {"type": "Point", "coordinates": [5.538437, 48.796902]}}, {"type": "Feature", "properties": {"start": "Dombasle-sur-Meurthe", "stop_name": "Pagny-sur-Meuse", "type": "Gare accessible", "transport": "TER", "nombre_trajet_moyen": 1.31, "transport_legende": "\ud83d\udeb2 \u2764\ufe0f Train TER \ud83d\ude86"}, "geometry": {"type": "Point", "coordinates": [5.733632, 48.696582]}}, {"type": "Feature", "properties": {"start": "Dombasle-sur-Meurthe", "stop_name": "Foug", "type": "Gare accessible", "transport": "TER", "nombre_trajet_moyen": 1.31, "transport_legende": "\ud83d\udeb2 \u2764\ufe0f Train TER \ud83d\ude86"}, "geometry": {"type": "Point", "coordinates": [5.791265, 48.679264]}}, {"type": "Feature", "properties": {"start": "Dombasle-sur-Meurthe", "stop_name": "Fontenoy-sur-Moselle", "type": "Gare accessible", "transport": "TER", "nombre_trajet_moyen": 1.44, "transport_legende": "\ud83d\udeb2 \u2764\ufe0f Train TER \ud83d\ude86"}, "geometry": {"type": "Point", "coordinates": [5.980173, 48.711419]}}, {"type": "Feature", "properties": {"start": "Dombasle-sur-Meurthe", "stop_name": "Champigneulles", "type": "Gare accessible", "transport": "TER", "nombre_trajet_moyen": 1.13, "transport_legende": "\ud83d\udeb2 \u2764\ufe0f Train TER \ud83d\ude86"}, "geometry": {"type": "Point", "coordinates": [6.168952, 48.735025]}}, {"type": "Feature", "properties": {"start": "Dombasle-sur-Meurthe", "stop_name": "Revigny", "type": "Gare accessible", "transport": "TER", "nombre_trajet_moyen": 1.82, "transport_legende": "\ud83d\udeb2 \u2764\ufe0f Train TER \ud83d\ude86"}, "geometry": {"type": "Point", "coordinates": [4.985513, 48.824193]}}, {"type": "Feature", "properties": {"start": "Dombasle-sur-Meurthe", "stop_name": "Vitry-le-Fran\u00e7ois", "type": "Gare accessible", "transport": "TER", "nombre_trajet_moyen": 0.69, "transport_legende": "\ud83d\udeb2 \u2764\ufe0f Train TER \ud83d\ude86"}, "geometry": {"type": "Point", "coordinates": [4.587515, 48.717913]}}, {"type": "Feature", "properties": {"start": "Dombasle-sur-Meurthe", "stop_name": "Ch\u00e2lons-en-Champagne", "type": "Gare accessible", "transport": "TER", "nombre_trajet_moyen": 0.69, "transport_legende": "\ud83d\udeb2 \u2764\ufe0f Train TER \ud83d\ude86"}, "geometry": {"type": "Point", "coordinates": [4.348656, 48.955252]}}, {"type": "Feature", "properties": {"start": "Dombasle-sur-Meurthe", "stop_name": "\u00c9pernay", "type": "Gare accessible", "transport": "TER", "nombre_trajet_moyen": 0.69, "transport_legende": "\ud83d\udeb2 \u2764\ufe0f Train TER \ud83d\ude86"}, "geometry": {"type": "Point", "coordinates": [3.959798, 49.046289]}}, {"type": "Feature", "properties": {"start": "Dombasle-sur-Meurthe", "stop_name": "Reims", "type": "Gare accessible", "transport": "TER", "nombre_trajet_moyen": 0.59, "transport_legende": "\ud83d\udeb2 \u2764\ufe0f Train TER \ud83d\ude86"}, "geometry": {"type": "Point", "coordinates": [4.021994, 49.258934]}}, {"type": "Feature", "properties": {"start": "Dombasle-sur-Meurthe", "stop_name": "Azerailles", "type": "Gare accessible", "transport": "TER", "nombre_trajet_moyen": 1.93, "transport_legende": "\ud83d\udeb2 \u2764\ufe0f Train TER \ud83d\ude86"}, "geometry": {"type": "Point", "coordinates": [6.696164, 48.491252]}}, {"type": "Feature", "properties": {"start": "Dombasle-sur-Meurthe", "stop_name": "Baccarat", "type": "Gare accessible", "transport": "TER", "nombre_trajet_moyen": 2.74, "transport_legende": "\ud83d\udeb2 \u2764\ufe0f Train TER \ud83d\ude86"}, "geometry": {"type": "Point", "coordinates": [6.743921, 48.452092]}}, {"type": "Feature", "properties": {"start": "Dombasle-sur-Meurthe", "stop_name": "Raon-l'\u00c9tape", "type": "Gare accessible", "transport": "TER", "nombre_trajet_moyen": 2.74, "transport_legende": "\ud83d\udeb2 \u2764\ufe0f Train TER \ud83d\ude86"}, "geometry": {"type": "Point", "coordinates": [6.837042, 48.403947]}}, {"type": "Feature", "properties": {"start": "Dombasle-sur-Meurthe", "stop_name": "\u00c9tival-Clairefontaine", "type": "Gare accessible", "transport": "TER", "nombre_trajet_moyen": 2.74, "transport_legende": "\ud83d\udeb2 \u2764\ufe0f Train TER \ud83d\ude86"}, "geometry": {"type": "Point", "coordinates": [6.877124, 48.367171]}}, {"type": "Feature", "properties": {"start": "Dombasle-sur-Meurthe", "stop_name": "Saint-Di\u00e9-des-Vosges", "type": "Gare accessible", "transport": "TER", "nombre_trajet_moyen": 2.74, "transport_legende": "\ud83d\udeb2 \u2764\ufe0f Train TER \ud83d\ude86"}, "geometry": {"type": "Point", "coordinates": [6.948516, 48.282043]}}, {"type": "Feature", "properties": {"start": "Dombasle-sur-Meurthe", "stop_name": "Saint-Cl\u00e9ment - Laronxe", "type": "Gare accessible", "transport": "TER", "nombre_trajet_moyen": 2.3, "transport_legende": "\ud83d\udeb2 \u2764\ufe0f Train TER \ud83d\ude86"}, "geometry": {"type": "Point", "coordinates": [6.608166, 48.531216]}}, {"type": "Feature", "properties": {"start": "Dombasle-sur-Meurthe", "stop_name": "Bertrichamps", "type": "Gare accessible", "transport": "TER", "nombre_trajet_moyen": 1.86, "transport_legende": "\ud83d\udeb2 \u2764\ufe0f Train TER \ud83d\ude86"}, "geometry": {"type": "Point", "coordinates": [6.791125, 48.428401]}}, {"type": "Feature", "properties": {"start": "Dombasle-sur-Meurthe", "stop_name": "Thiaville", "type": "Gare accessible", "transport": "TER", "nombre_trajet_moyen": 0.69, "transport_legende": "\ud83d\udeb2 \u2764\ufe0f Train TER \ud83d\ude86"}, "geometry": {"type": "Point", "coordinates": [6.810241, 48.413914]}}, {"type": "Feature", "properties": {"start": "Dombasle-sur-Meurthe", "stop_name": "M\u00e9nil - Flin", "type": "Gare accessible", "transport": "TER", "nombre_trajet_moyen": 0.69, "transport_legende": "\ud83d\udeb2 \u2764\ufe0f Train TER \ud83d\ude86"}, "geometry": {"type": "Point", "coordinates": [6.659217, 48.505022]}}, {"type": "Feature", "properties": {"start": "Dombasle-sur-Meurthe", "stop_name": "Chenevi\u00e8res", "type": "Gare accessible", "transport": "TER", "nombre_trajet_moyen": 0.69, "transport_legende": "\ud83d\udeb2 \u2764\ufe0f Train TER \ud83d\ude86"}, "geometry": {"type": "Point", "coordinates": [6.63247, 48.519404]}}, {"type": "Feature", "properties": {"start": "Dombasle-sur-Meurthe", "stop_name": "Pont-\u00e0-Mousson", "type": "Gare accessible", "transport": "TER", "nombre_trajet_moyen": 0.64, "transport_legende": "\ud83d\udeb2 \u2764\ufe0f Train TER \ud83d\ude86"}, "geometry": {"type": "Point", "coordinates": [6.051021, 48.900348]}}, {"type": "Feature", "properties": {"start": "Dombasle-sur-Meurthe", "stop_name": "Pagny-sur-Moselle", "type": "Gare accessible", "transport": "TER", "nombre_trajet_moyen": 0.64, "transport_legende": "\ud83d\udeb2 \u2764\ufe0f Train TER \ud83d\ude86"}, "geometry": {"type": "Point", "coordinates": [6.025035, 48.9852]}}, {"type": "Feature", "properties": {"start": "Dombasle-sur-Meurthe", "stop_name": "Metz", "type": "Gare accessible", "transport": "TER", "nombre_trajet_moyen": 0.64, "transport_legende": "\ud83d\udeb2 \u2764\ufe0f Train TER \ud83d\ude86"}, "geometry": {"type": "Point", "coordinates": [6.177052, 49.109466]}}, {"type": "Feature", "properties": {"start": "Dombasle-sur-Meurthe", "stop_name": "\u00c9pinal", "type": "Gare accessible", "transport": "TER", "nombre_trajet_moyen": 0.14, "transport_legende": "\ud83d\udeb2 \u2764\ufe0f Train TER \ud83d\ude86"}, "geometry": {"type": "Point", "coordinates": [6.441787, 48.178005]}}, {"type": "Feature", "properties": {"start": "Dombasle-sur-Meurthe", "stop_name": "Thaon", "type": "Gare accessible", "transport": "TER", "nombre_trajet_moyen": 0.14, "transport_legende": "\ud83d\udeb2 \u2764\ufe0f Train TER \ud83d\ude86"}, "geometry": {"type": "Point", "coordinates": [6.416337, 48.244686]}}, {"type": "Feature", "properties": {"start": "Dombasle-sur-Meurthe", "stop_name": "Ch\u00e2tel - Nomexy", "type": "Gare accessible", "transport": "TER", "nombre_trajet_moyen": 0.14, "transport_legende": "\ud83d\udeb2 \u2764\ufe0f Train TER \ud83d\ude86"}, "geometry": {"type": "Point", "coordinates": [6.388008, 48.307114]}}, {"type": "Feature", "properties": {"start": "Dombasle-sur-Meurthe", "stop_name": "Charmes", "type": "Gare accessible", "transport": "TER", "nombre_trajet_moyen": 0.14, "transport_legende": "\ud83d\udeb2 \u2764\ufe0f Train TER \ud83d\ude86"}, "geometry": {"type": "Point", "coordinates": [6.301537, 48.378483]}}, {"type": "Feature", "properties": {"start": "Dombasle-sur-Meurthe", "stop_name": "Bayon", "type": "Gare accessible", "transport": "TER", "nombre_trajet_moyen": 0.14, "transport_legende": "\ud83d\udeb2 \u2764\ufe0f Train TER \ud83d\ude86"}, "geometry": {"type": "Point", "coordinates": [6.32286, 48.468045]}}]}