{"type": "FeatureCollection", "features": [{"type": "Feature", "properties": {"start": "Gien Place Leclerc", "stop_name": "Gien Place Leclerc", "type": "Gare s\u00e9lectionn\u00e9e", "transport": "TER", "nombre_trajet_moyen": 1.23, "transport_legende": "\ud83d\udeb2 \u2764\ufe0f Train TER \ud83d\ude86"}, "geometry": {"type": "Point", "coordinates": [2.631789, 47.684213]}}, {"type": "Feature", "properties": {"start": "Gien Place Leclerc", "stop_name": "Gien", "type": "Gare accessible", "transport": "TER", "nombre_trajet_moyen": 1.23, "transport_legende": "\ud83d\udeb2 \u2764\ufe0f Train TER \ud83d\ude86"}, "geometry": {"type": "Point", "coordinates": [2.636205, 47.699088]}}, {"type": "Feature", "properties": {"start": "Gien Place Leclerc", "stop_name": "Gien-H\u00f4pital", "type": "Gare accessible", "transport": "TER", "nombre_trajet_moyen": 1.23, "transport_legende": "\ud83d\udeb2 \u2764\ufe0f Train TER \ud83d\ude86"}, "geometry": {"type": "Point", "coordinates": [2.632674, 47.69002]}}, {"type": "Feature", "properties": {"start": "Gien Place Leclerc", "stop_name": "Gien Route de Bourges", "type": "Gare accessible", "transport": "TER", "nombre_trajet_moyen": 1.23, "transport_legende": "\ud83d\udeb2 \u2764\ufe0f Train TER \ud83d\ude86"}, "geometry": {"type": "Point", "coordinates": [2.629509, 47.680154]}}, {"type": "Feature", "properties": {"start": "Gien Place Leclerc", "stop_name": "Coullons", "type": "Gare accessible", "transport": "TER", "nombre_trajet_moyen": 1.23, "transport_legende": "\ud83d\udeb2 \u2764\ufe0f Train TER \ud83d\ude86"}, "geometry": {"type": "Point", "coordinates": [2.492527, 47.620292]}}, {"type": "Feature", "properties": {"start": "Gien Place Leclerc", "stop_name": "Argent-sur-Sauldre", "type": "Gare accessible", "transport": "TER", "nombre_trajet_moyen": 1.23, "transport_legende": "\ud83d\udeb2 \u2764\ufe0f Train TER \ud83d\ude86"}, "geometry": {"type": "Point", "coordinates": [2.447838, 47.560036]}}, {"type": "Feature", "properties": {"start": "Gien Place Leclerc", "stop_name": "Aubigny-sur-N\u00e8re", "type": "Gare accessible", "transport": "TER", "nombre_trajet_moyen": 1.23, "transport_legende": "\ud83d\udeb2 \u2764\ufe0f Train TER \ud83d\ude86"}, "geometry": {"type": "Point", "coordinates": [2.43731, 47.487747]}}]}