{"type": "FeatureCollection", "features": [{"type": "Feature", "properties": {"start": "Granville", "stop_name": "Granville", "type": "Gare s\u00e9lectionn\u00e9e", "transport": "TER", "nombre_trajet_moyen": 5.33, "transport_legende": "\ud83d\udeb2 \u2764\ufe0f Train TER \ud83d\ude86"}, "geometry": {"type": "Point", "coordinates": [-1.587547, 48.838322]}}, {"type": "Feature", "properties": {"start": "Granville", "stop_name": "Dreux", "type": "Gare accessible", "transport": "TER", "nombre_trajet_moyen": 2.87, "transport_legende": "\ud83d\udeb2 \u2764\ufe0f Train TER \ud83d\ude86"}, "geometry": {"type": "Point", "coordinates": [1.370164, 48.731492]}}, {"type": "Feature", "properties": {"start": "Granville", "stop_name": "Nonancourt", "type": "Gare accessible", "transport": "TER", "nombre_trajet_moyen": 0.32, "transport_legende": "\ud83d\udeb2 \u2764\ufe0f Train TER \ud83d\ude86"}, "geometry": {"type": "Point", "coordinates": [1.192837, 48.77576]}}, {"type": "Feature", "properties": {"start": "Granville", "stop_name": "Verneuil-sur-Avre", "type": "Gare accessible", "transport": "TER", "nombre_trajet_moyen": 3.05, "transport_legende": "\ud83d\udeb2 \u2764\ufe0f Train TER \ud83d\ude86"}, "geometry": {"type": "Point", "coordinates": [0.929192, 48.742486]}}, {"type": "Feature", "properties": {"start": "Granville", "stop_name": "L'Aigle", "type": "Gare accessible", "transport": "TER", "nombre_trajet_moyen": 3.15, "transport_legende": "\ud83d\udeb2 \u2764\ufe0f Train TER \ud83d\ude86"}, "geometry": {"type": "Point", "coordinates": [0.620014, 48.766229]}}, {"type": "Feature", "properties": {"start": "Granville", "stop_name": "Surdon", "type": "Gare accessible", "transport": "TER", "nombre_trajet_moyen": 3.04, "transport_legende": "\ud83d\udeb2 \u2764\ufe0f Train TER \ud83d\ude86"}, "geometry": {"type": "Point", "coordinates": [0.13441, 48.664769]}}, {"type": "Feature", "properties": {"start": "Granville", "stop_name": "Argentan", "type": "Gare accessible", "transport": "TER", "nombre_trajet_moyen": 3.52, "transport_legende": "\ud83d\udeb2 \u2764\ufe0f Train TER \ud83d\ude86"}, "geometry": {"type": "Point", "coordinates": [-0.025291, 48.738545]}}, {"type": "Feature", "properties": {"start": "Granville", "stop_name": "Briouze", "type": "Gare accessible", "transport": "TER", "nombre_trajet_moyen": 3.27, "transport_legende": "\ud83d\udeb2 \u2764\ufe0f Train TER \ud83d\ude86"}, "geometry": {"type": "Point", "coordinates": [-0.368204, 48.701862]}}, {"type": "Feature", "properties": {"start": "Granville", "stop_name": "Flers", "type": "Gare accessible", "transport": "TER", "nombre_trajet_moyen": 3.52, "transport_legende": "\ud83d\udeb2 \u2764\ufe0f Train TER \ud83d\ude86"}, "geometry": {"type": "Point", "coordinates": [-0.573216, 48.744785]}}, {"type": "Feature", "properties": {"start": "Granville", "stop_name": "Vire", "type": "Gare accessible", "transport": "TER", "nombre_trajet_moyen": 3.52, "transport_legende": "\ud83d\udeb2 \u2764\ufe0f Train TER \ud83d\ude86"}, "geometry": {"type": "Point", "coordinates": [-0.882884, 48.846329]}}, {"type": "Feature", "properties": {"start": "Granville", "stop_name": "Villedieu-les-Po\u00eales", "type": "Gare accessible", "transport": "TER", "nombre_trajet_moyen": 3.52, "transport_legende": "\ud83d\udeb2 \u2764\ufe0f Train TER \ud83d\ude86"}, "geometry": {"type": "Point", "coordinates": [-1.225418, 48.83415]}}, {"type": "Feature", "properties": {"start": "Granville", "stop_name": "Folligny", "type": "Gare accessible", "transport": "TER", "nombre_trajet_moyen": 2.76, "transport_legende": "\ud83d\udeb2 \u2764\ufe0f Train TER \ud83d\ude86"}, "geometry": {"type": "Point", "coordinates": [-1.407223, 48.829946]}}, {"type": "Feature", "properties": {"start": "Granville", "stop_name": "Paris Montparnasse Hall 1 - 2", "type": "Gare accessible", "transport": "TER", "nombre_trajet_moyen": 2.95, "transport_legende": "\ud83d\udeb2 \u2764\ufe0f Train TER \ud83d\ude86"}, "geometry": {"type": "Point", "coordinates": [2.320514, 48.841172]}}, {"type": "Feature", "properties": {"start": "Granville", "stop_name": "Sainte-Gauburge", "type": "Gare accessible", "transport": "TER", "nombre_trajet_moyen": 0.26, "transport_legende": "\ud83d\udeb2 \u2764\ufe0f Train TER \ud83d\ude86"}, "geometry": {"type": "Point", "coordinates": [0.428164, 48.717282]}}, {"type": "Feature", "properties": {"start": "Granville", "stop_name": "Versailles Chantiers", "type": "Gare accessible", "transport": "TER", "nombre_trajet_moyen": 0.51, "transport_legende": "\ud83d\udeb2 \u2764\ufe0f Train TER \ud83d\ude86"}, "geometry": {"type": "Point", "coordinates": [2.135883, 48.795826]}}, {"type": "Feature", "properties": {"start": "Granville", "stop_name": "Paris Montparnasse Vaugirard", "type": "Gare accessible", "transport": "TER", "nombre_trajet_moyen": 0.85, "transport_legende": "\ud83d\udeb2 \u2764\ufe0f Train TER \ud83d\ude86"}, "geometry": {"type": "Point", "coordinates": [2.320514, 48.841172]}}, {"type": "Feature", "properties": {"start": "Granville", "stop_name": "Coutances", "type": "Gare accessible", "transport": "TER", "nombre_trajet_moyen": 2.88, "transport_legende": "\ud83d\udeb2 \u2764\ufe0f Train TER \ud83d\ude86"}, "geometry": {"type": "Point", "coordinates": [-1.441726, 49.042928]}}, {"type": "Feature", "properties": {"start": "Granville", "stop_name": "Caen", "type": "Gare accessible", "transport": "TER", "nombre_trajet_moyen": 2.79, "transport_legende": "\ud83d\udeb2 \u2764\ufe0f Train TER \ud83d\ude86"}, "geometry": {"type": "Point", "coordinates": [-0.347613, 49.176354]}}, {"type": "Feature", "properties": {"start": "Granville", "stop_name": "Bayeux", "type": "Gare accessible", "transport": "TER", "nombre_trajet_moyen": 2.79, "transport_legende": "\ud83d\udeb2 \u2764\ufe0f Train TER \ud83d\ude86"}, "geometry": {"type": "Point", "coordinates": [-0.6981, 49.269729]}}, {"type": "Feature", "properties": {"start": "Granville", "stop_name": "Lison", "type": "Gare accessible", "transport": "TER", "nombre_trajet_moyen": 2.79, "transport_legende": "\ud83d\udeb2 \u2764\ufe0f Train TER \ud83d\ude86"}, "geometry": {"type": "Point", "coordinates": [-1.050339, 49.226834]}}, {"type": "Feature", "properties": {"start": "Granville", "stop_name": "Saint-L\u00f4", "type": "Gare accessible", "transport": "TER", "nombre_trajet_moyen": 2.79, "transport_legende": "\ud83d\udeb2 \u2764\ufe0f Train TER \ud83d\ude86"}, "geometry": {"type": "Point", "coordinates": [-1.099525, 49.116975]}}, {"type": "Feature", "properties": {"start": "Granville", "stop_name": "Avranches", "type": "Gare accessible", "transport": "TER", "nombre_trajet_moyen": 1.91, "transport_legende": "\ud83d\udeb2 \u2764\ufe0f Train TER \ud83d\ude86"}, "geometry": {"type": "Point", "coordinates": [-1.369612, 48.690041]}}, {"type": "Feature", "properties": {"start": "Granville", "stop_name": "Pontorson - Mont-Saint-Michel", "type": "Gare accessible", "transport": "TER", "nombre_trajet_moyen": 1.91, "transport_legende": "\ud83d\udeb2 \u2764\ufe0f Train TER \ud83d\ude86"}, "geometry": {"type": "Point", "coordinates": [-1.504931, 48.552729]}}, {"type": "Feature", "properties": {"start": "Granville", "stop_name": "Dol-de-Bretagne", "type": "Gare accessible", "transport": "TER", "nombre_trajet_moyen": 1.91, "transport_legende": "\ud83d\udeb2 \u2764\ufe0f Train TER \ud83d\ude86"}, "geometry": {"type": "Point", "coordinates": [-1.750536, 48.54425]}}, {"type": "Feature", "properties": {"start": "Granville", "stop_name": "Pontchaillou", "type": "Gare accessible", "transport": "TER", "nombre_trajet_moyen": 1.91, "transport_legende": "\ud83d\udeb2 \u2764\ufe0f Train TER \ud83d\ude86"}, "geometry": {"type": "Point", "coordinates": [-1.691118, 48.118641]}}, {"type": "Feature", "properties": {"start": "Granville", "stop_name": "Rennes", "type": "Gare accessible", "transport": "TER", "nombre_trajet_moyen": 1.91, "transport_legende": "\ud83d\udeb2 \u2764\ufe0f Train TER \ud83d\ude86"}, "geometry": {"type": "Point", "coordinates": [-1.672744, 48.103517]}}, {"type": "Feature", "properties": {"start": "Granville", "stop_name": "Bretteville - Norrey", "type": "Gare accessible", "transport": "TER", "nombre_trajet_moyen": 2.4, "transport_legende": "\ud83d\udeb2 \u2764\ufe0f Train TER \ud83d\ude86"}, "geometry": {"type": "Point", "coordinates": [-0.51274, 49.203411]}}, {"type": "Feature", "properties": {"start": "Granville", "stop_name": "Audrieu", "type": "Gare accessible", "transport": "TER", "nombre_trajet_moyen": 2.4, "transport_legende": "\ud83d\udeb2 \u2764\ufe0f Train TER \ud83d\ude86"}, "geometry": {"type": "Point", "coordinates": [-0.596014, 49.216132]}}, {"type": "Feature", "properties": {"start": "Granville", "stop_name": "Le Molay-Littry", "type": "Gare accessible", "transport": "TER", "nombre_trajet_moyen": 2.4, "transport_legende": "\ud83d\udeb2 \u2764\ufe0f Train TER \ud83d\ude86"}, "geometry": {"type": "Point", "coordinates": [-0.880974, 49.249326]}}]}