{"type": "FeatureCollection", "features": [{"type": "Feature", "properties": {"start": "Igney - Avricourt", "stop_name": "Igney - Avricourt", "type": "Gare s\u00e9lectionn\u00e9e", "transport": "TER", "nombre_trajet_moyen": 2.48, "transport_legende": "\ud83d\udeb2 \u2764\ufe0f Train TER \ud83d\ude86"}, "geometry": {"type": "Point", "coordinates": [6.805306, 48.646701]}}, {"type": "Feature", "properties": {"start": "Igney - Avricourt", "stop_name": "Strasbourg", "type": "Gare accessible", "transport": "TER", "nombre_trajet_moyen": 2.46, "transport_legende": "\ud83d\udeb2 \u2764\ufe0f Train TER \ud83d\ude86"}, "geometry": {"type": "Point", "coordinates": [7.734793, 48.584532]}}, {"type": "Feature", "properties": {"start": "Igney - Avricourt", "stop_name": "Brumath", "type": "Gare accessible", "transport": "TER", "nombre_trajet_moyen": 2.21, "transport_legende": "\ud83d\udeb2 \u2764\ufe0f Train TER \ud83d\ude86"}, "geometry": {"type": "Point", "coordinates": [7.700421, 48.733077]}}, {"type": "Feature", "properties": {"start": "Igney - Avricourt", "stop_name": "Saverne", "type": "Gare accessible", "transport": "TER", "nombre_trajet_moyen": 2.46, "transport_legende": "\ud83d\udeb2 \u2764\ufe0f Train TER \ud83d\ude86"}, "geometry": {"type": "Point", "coordinates": [7.362055, 48.744483]}}, {"type": "Feature", "properties": {"start": "Igney - Avricourt", "stop_name": "Sarrebourg", "type": "Gare accessible", "transport": "TER", "nombre_trajet_moyen": 2.48, "transport_legende": "\ud83d\udeb2 \u2764\ufe0f Train TER \ud83d\ude86"}, "geometry": {"type": "Point", "coordinates": [7.05285, 48.73808]}}, {"type": "Feature", "properties": {"start": "Igney - Avricourt", "stop_name": "Lun\u00e9ville", "type": "Gare accessible", "transport": "TER", "nombre_trajet_moyen": 2.48, "transport_legende": "\ud83d\udeb2 \u2764\ufe0f Train TER \ud83d\ude86"}, "geometry": {"type": "Point", "coordinates": [6.496997, 48.58799]}}, {"type": "Feature", "properties": {"start": "Igney - Avricourt", "stop_name": "Nancy", "type": "Gare accessible", "transport": "TER", "nombre_trajet_moyen": 2.48, "transport_legende": "\ud83d\udeb2 \u2764\ufe0f Train TER \ud83d\ude86"}, "geometry": {"type": "Point", "coordinates": [6.174579, 48.689857]}}, {"type": "Feature", "properties": {"start": "Igney - Avricourt", "stop_name": "Lutzelbourg", "type": "Gare accessible", "transport": "TER", "nombre_trajet_moyen": 0.48, "transport_legende": "\ud83d\udeb2 \u2764\ufe0f Train TER \ud83d\ude86"}, "geometry": {"type": "Point", "coordinates": [7.251587, 48.730011]}}]}