{"type": "FeatureCollection", "features": [{"type": "Feature", "properties": {"start": "Jonchery-sur-Vesle", "stop_name": "Jonchery-sur-Vesle", "type": "Gare s\u00e9lectionn\u00e9e", "transport": "TER", "nombre_trajet_moyen": 4.26, "transport_legende": "\ud83d\udeb2 \u2764\ufe0f Train TER \ud83d\ude86"}, "geometry": {"type": "Point", "coordinates": [3.819422, 49.290057]}}, {"type": "Feature", "properties": {"start": "Jonchery-sur-Vesle", "stop_name": "Reims", "type": "Gare accessible", "transport": "TER", "nombre_trajet_moyen": 4.26, "transport_legende": "\ud83d\udeb2 \u2764\ufe0f Train TER \ud83d\ude86"}, "geometry": {"type": "Point", "coordinates": [4.021994, 49.258934]}}, {"type": "Feature", "properties": {"start": "Jonchery-sur-Vesle", "stop_name": "Muizon", "type": "Gare accessible", "transport": "TER", "nombre_trajet_moyen": 4.26, "transport_legende": "\ud83d\udeb2 \u2764\ufe0f Train TER \ud83d\ude86"}, "geometry": {"type": "Point", "coordinates": [3.891529, 49.278101]}}, {"type": "Feature", "properties": {"start": "Jonchery-sur-Vesle", "stop_name": "Breuil - Romain", "type": "Gare accessible", "transport": "TER", "nombre_trajet_moyen": 4.26, "transport_legende": "\ud83d\udeb2 \u2764\ufe0f Train TER \ud83d\ude86"}, "geometry": {"type": "Point", "coordinates": [3.766532, 49.308414]}}, {"type": "Feature", "properties": {"start": "Jonchery-sur-Vesle", "stop_name": "Magneux - Courlandon", "type": "Gare accessible", "transport": "TER", "nombre_trajet_moyen": 4.26, "transport_legende": "\ud83d\udeb2 \u2764\ufe0f Train TER \ud83d\ude86"}, "geometry": {"type": "Point", "coordinates": [3.734412, 49.309899]}}, {"type": "Feature", "properties": {"start": "Jonchery-sur-Vesle", "stop_name": "Fismes", "type": "Gare accessible", "transport": "TER", "nombre_trajet_moyen": 4.26, "transport_legende": "\ud83d\udeb2 \u2764\ufe0f Train TER \ud83d\ude86"}, "geometry": {"type": "Point", "coordinates": [3.682126, 49.310722]}}]}