{"type": "FeatureCollection", "features": [{"type": "Feature", "properties": {"start": "Kerhuon", "stop_name": "Kerhuon", "type": "Gare s\u00e9lectionn\u00e9e", "transport": "TER", "transport_legende": "\ud83d\udeb2 \u2764\ufe0f Train TER \ud83d\ude86"}, "geometry": {"type": "Point", "coordinates": [-4.388309, 48.409537]}}, {"type": "Feature", "properties": {"start": "Kerhuon", "stop_name": "Brest", "type": "Gare accessible", "transport": "TER", "transport_legende": "\ud83d\udeb2 \u2764\ufe0f Train TER \ud83d\ude86"}, "geometry": {"type": "Point", "coordinates": [-4.480306, 48.38762]}}, {"type": "Feature", "properties": {"start": "Kerhuon", "stop_name": "La Forest-Landerneau", "type": "Gare accessible", "transport": "TER", "transport_legende": "\ud83d\udeb2 \u2764\ufe0f Train TER \ud83d\ude86"}, "geometry": {"type": "Point", "coordinates": [-4.307151, 48.426374]}}, {"type": "Feature", "properties": {"start": "Kerhuon", "stop_name": "Landerneau", "type": "Gare accessible", "transport": "TER", "transport_legende": "\ud83d\udeb2 \u2764\ufe0f Train TER \ud83d\ude86"}, "geometry": {"type": "Point", "coordinates": [-4.256528, 48.453572]}}, {"type": "Feature", "properties": {"start": "Kerhuon", "stop_name": "La Roche-Maurice", "type": "Gare accessible", "transport": "TER", "transport_legende": "\ud83d\udeb2 \u2764\ufe0f Train TER \ud83d\ude86"}, "geometry": {"type": "Point", "coordinates": [-4.205358, 48.473978]}}, {"type": "Feature", "properties": {"start": "Kerhuon", "stop_name": "Landivisiau", "type": "Gare accessible", "transport": "TER", "transport_legende": "\ud83d\udeb2 \u2764\ufe0f Train TER \ud83d\ude86"}, "geometry": {"type": "Point", "coordinates": [-4.082181, 48.496002]}}, {"type": "Feature", "properties": {"start": "Kerhuon", "stop_name": "Morlaix", "type": "Gare accessible", "transport": "TER", "transport_legende": "\ud83d\udeb2 \u2764\ufe0f Train TER \ud83d\ude86"}, "geometry": {"type": "Point", "coordinates": [-3.832514, 48.57797]}}, {"type": "Feature", "properties": {"start": "Kerhuon", "stop_name": "Pleyber-Christ", "type": "Gare accessible", "transport": "TER", "transport_legende": "\ud83d\udeb2 \u2764\ufe0f Train TER \ud83d\ude86"}, "geometry": {"type": "Point", "coordinates": [-3.882554, 48.507826]}}, {"type": "Feature", "properties": {"start": "Kerhuon", "stop_name": "Saint-Th\u00e9gonnec", "type": "Gare accessible", "transport": "TER", "transport_legende": "\ud83d\udeb2 \u2764\ufe0f Train TER \ud83d\ude86"}, "geometry": {"type": "Point", "coordinates": [-3.948134, 48.494213]}}, {"type": "Feature", "properties": {"start": "Kerhuon", "stop_name": "Guimiliau", "type": "Gare accessible", "transport": "TER", "transport_legende": "\ud83d\udeb2 \u2764\ufe0f Train TER \ud83d\ude86"}, "geometry": {"type": "Point", "coordinates": [-3.999616, 48.485267]}}, {"type": "Feature", "properties": {"start": "Kerhuon", "stop_name": "Lannion", "type": "Gare accessible", "transport": "TER", "transport_legende": "\ud83d\udeb2 \u2764\ufe0f Train TER \ud83d\ude86"}, "geometry": {"type": "Point", "coordinates": [-3.460353, 48.727638]}}, {"type": "Feature", "properties": {"start": "Kerhuon", "stop_name": "Plouaret Tr\u00e9gor", "type": "Gare accessible", "transport": "TER", "transport_legende": "\ud83d\udeb2 \u2764\ufe0f Train TER \ud83d\ude86"}, "geometry": {"type": "Point", "coordinates": [-3.466979, 48.606422]}}, {"type": "Feature", "properties": {"start": "Kerhuon", "stop_name": "Ploun\u00e9rin", "type": "Gare accessible", "transport": "TER", "transport_legende": "\ud83d\udeb2 \u2764\ufe0f Train TER \ud83d\ude86"}, "geometry": {"type": "Point", "coordinates": [-3.567325, 48.581703]}}, {"type": "Feature", "properties": {"start": "Kerhuon", "stop_name": "Plouigneau", "type": "Gare accessible", "transport": "TER", "transport_legende": "\ud83d\udeb2 \u2764\ufe0f Train TER \ud83d\ude86"}, "geometry": {"type": "Point", "coordinates": [-3.71073, 48.564903]}}]}