{"type": "FeatureCollection", "features": [{"type": "Feature", "properties": {"start": "Laon", "stop_name": "Laon", "type": "Gare s\u00e9lectionn\u00e9e", "transport": "TER", "transport_legende": "\ud83d\udeb2 \u2764\ufe0f Train TER \ud83d\ude86"}, "geometry": {"type": "Point", "coordinates": [3.62434, 49.570578]}}, {"type": "Feature", "properties": {"start": "Laon", "stop_name": "Coucy-l\u00e8s-Eppes", "type": "Gare accessible", "transport": "TER", "transport_legende": "\ud83d\udeb2 \u2764\ufe0f Train TER \ud83d\ude86"}, "geometry": {"type": "Point", "coordinates": [3.774726, 49.556266]}}, {"type": "Feature", "properties": {"start": "Laon", "stop_name": "Saint-Erme", "type": "Gare accessible", "transport": "TER", "transport_legende": "\ud83d\udeb2 \u2764\ufe0f Train TER \ud83d\ude86"}, "geometry": {"type": "Point", "coordinates": [3.857591, 49.526949]}}, {"type": "Feature", "properties": {"start": "Laon", "stop_name": "Amifontaine", "type": "Gare accessible", "transport": "TER", "transport_legende": "\ud83d\udeb2 \u2764\ufe0f Train TER \ud83d\ude86"}, "geometry": {"type": "Point", "coordinates": [3.910666, 49.484738]}}, {"type": "Feature", "properties": {"start": "Laon", "stop_name": "Guignicourt", "type": "Gare accessible", "transport": "TER", "transport_legende": "\ud83d\udeb2 \u2764\ufe0f Train TER \ud83d\ude86"}, "geometry": {"type": "Point", "coordinates": [3.961334, 49.434862]}}, {"type": "Feature", "properties": {"start": "Laon", "stop_name": "Aguilcourt - Variscourt", "type": "Gare accessible", "transport": "TER", "transport_legende": "\ud83d\udeb2 \u2764\ufe0f Train TER \ud83d\ude86"}, "geometry": {"type": "Point", "coordinates": [3.973095, 49.407994]}}, {"type": "Feature", "properties": {"start": "Laon", "stop_name": "Loivre", "type": "Gare accessible", "transport": "TER", "transport_legende": "\ud83d\udeb2 \u2764\ufe0f Train TER \ud83d\ude86"}, "geometry": {"type": "Point", "coordinates": [3.990625, 49.346676]}}, {"type": "Feature", "properties": {"start": "Laon", "stop_name": "Courcy - Brimont", "type": "Gare accessible", "transport": "TER", "transport_legende": "\ud83d\udeb2 \u2764\ufe0f Train TER \ud83d\ude86"}, "geometry": {"type": "Point", "coordinates": [4.013462, 49.3296]}}, {"type": "Feature", "properties": {"start": "Laon", "stop_name": "Reims", "type": "Gare accessible", "transport": "TER", "transport_legende": "\ud83d\udeb2 \u2764\ufe0f Train TER \ud83d\ude86"}, "geometry": {"type": "Point", "coordinates": [4.021994, 49.258934]}}, {"type": "Feature", "properties": {"start": "Laon", "stop_name": "Hirson", "type": "Gare accessible", "transport": "TER", "transport_legende": "\ud83d\udeb2 \u2764\ufe0f Train TER \ud83d\ude86"}, "geometry": {"type": "Point", "coordinates": [4.084285, 49.914558]}}, {"type": "Feature", "properties": {"start": "Laon", "stop_name": "Origny-en-Thi\u00e9rache", "type": "Gare accessible", "transport": "TER", "transport_legende": "\ud83d\udeb2 \u2764\ufe0f Train TER \ud83d\ude86"}, "geometry": {"type": "Point", "coordinates": [4.023957, 49.890821]}}, {"type": "Feature", "properties": {"start": "Laon", "stop_name": "La Bouteille", "type": "Gare accessible", "transport": "TER", "transport_legende": "\ud83d\udeb2 \u2764\ufe0f Train TER \ud83d\ude86"}, "geometry": {"type": "Point", "coordinates": [3.981616, 49.859729]}}, {"type": "Feature", "properties": {"start": "Laon", "stop_name": "Vervins", "type": "Gare accessible", "transport": "TER", "transport_legende": "\ud83d\udeb2 \u2764\ufe0f Train TER \ud83d\ude86"}, "geometry": {"type": "Point", "coordinates": [3.893519, 49.829884]}}, {"type": "Feature", "properties": {"start": "Laon", "stop_name": "Marle sur Serre", "type": "Gare accessible", "transport": "TER", "transport_legende": "\ud83d\udeb2 \u2764\ufe0f Train TER \ud83d\ude86"}, "geometry": {"type": "Point", "coordinates": [3.769971, 49.746918]}}, {"type": "Feature", "properties": {"start": "Laon", "stop_name": "Voyenne", "type": "Gare accessible", "transport": "TER", "transport_legende": "\ud83d\udeb2 \u2764\ufe0f Train TER \ud83d\ude86"}, "geometry": {"type": "Point", "coordinates": [3.720575, 49.726227]}}, {"type": "Feature", "properties": {"start": "Laon", "stop_name": "Dercy - Froidmont", "type": "Gare accessible", "transport": "TER", "transport_legende": "\ud83d\udeb2 \u2764\ufe0f Train TER \ud83d\ude86"}, "geometry": {"type": "Point", "coordinates": [3.69205, 49.702784]}}, {"type": "Feature", "properties": {"start": "Laon", "stop_name": "Verneuil-sur-Serre", "type": "Gare accessible", "transport": "TER", "transport_legende": "\ud83d\udeb2 \u2764\ufe0f Train TER \ud83d\ude86"}, "geometry": {"type": "Point", "coordinates": [3.667803, 49.648709]}}, {"type": "Feature", "properties": {"start": "Laon", "stop_name": "Barenton-Bugny", "type": "Gare accessible", "transport": "TER", "transport_legende": "\ud83d\udeb2 \u2764\ufe0f Train TER \ud83d\ude86"}, "geometry": {"type": "Point", "coordinates": [3.655698, 49.630696]}}, {"type": "Feature", "properties": {"start": "Laon", "stop_name": "Hirson \u00c9coles", "type": "Gare accessible", "transport": "TER", "transport_legende": "\ud83d\udeb2 \u2764\ufe0f Train TER \ud83d\ude86"}, "geometry": {"type": "Point", "coordinates": [4.086152, 49.928848]}}, {"type": "Feature", "properties": {"start": "Laon", "stop_name": "Clacy - Mons", "type": "Gare accessible", "transport": "TER", "transport_legende": "\ud83d\udeb2 \u2764\ufe0f Train TER \ud83d\ude86"}, "geometry": {"type": "Point", "coordinates": [3.576635, 49.543787]}}, {"type": "Feature", "properties": {"start": "Laon", "stop_name": "Anizy - Pinon", "type": "Gare accessible", "transport": "TER", "transport_legende": "\ud83d\udeb2 \u2764\ufe0f Train TER \ud83d\ude86"}, "geometry": {"type": "Point", "coordinates": [3.448575, 49.49615]}}, {"type": "Feature", "properties": {"start": "Laon", "stop_name": "Vauxaillon", "type": "Gare accessible", "transport": "TER", "transport_legende": "\ud83d\udeb2 \u2764\ufe0f Train TER \ud83d\ude86"}, "geometry": {"type": "Point", "coordinates": [3.40953, 49.47424]}}, {"type": "Feature", "properties": {"start": "Laon", "stop_name": "Crouy", "type": "Gare accessible", "transport": "TER", "transport_legende": "\ud83d\udeb2 \u2764\ufe0f Train TER \ud83d\ude86"}, "geometry": {"type": "Point", "coordinates": [3.356999, 49.40365]}}, {"type": "Feature", "properties": {"start": "Laon", "stop_name": "Soissons", "type": "Gare accessible", "transport": "TER", "transport_legende": "\ud83d\udeb2 \u2764\ufe0f Train TER \ud83d\ude86"}, "geometry": {"type": "Point", "coordinates": [3.33809, 49.369226]}}, {"type": "Feature", "properties": {"start": "Laon", "stop_name": "Vierzy", "type": "Gare accessible", "transport": "TER", "transport_legende": "\ud83d\udeb2 \u2764\ufe0f Train TER \ud83d\ude86"}, "geometry": {"type": "Point", "coordinates": [3.277834, 49.29103]}}, {"type": "Feature", "properties": {"start": "Laon", "stop_name": "Villers-Cotter\u00eats", "type": "Gare accessible", "transport": "TER", "transport_legende": "\ud83d\udeb2 \u2764\ufe0f Train TER \ud83d\ude86"}, "geometry": {"type": "Point", "coordinates": [3.093604, 49.250228]}}, {"type": "Feature", "properties": {"start": "Laon", "stop_name": "Vaumoise", "type": "Gare accessible", "transport": "TER", "transport_legende": "\ud83d\udeb2 \u2764\ufe0f Train TER \ud83d\ude86"}, "geometry": {"type": "Point", "coordinates": [2.988748, 49.233921]}}, {"type": "Feature", "properties": {"start": "Laon", "stop_name": "Cr\u00e9py-en-Valois", "type": "Gare accessible", "transport": "TER", "transport_legende": "\ud83d\udeb2 \u2764\ufe0f Train TER \ud83d\ude86"}, "geometry": {"type": "Point", "coordinates": [2.886494, 49.231252]}}, {"type": "Feature", "properties": {"start": "Laon", "stop_name": "Creil", "type": "Gare accessible", "transport": "TER", "transport_legende": "\ud83d\udeb2 \u2764\ufe0f Train TER \ud83d\ude86"}, "geometry": {"type": "Point", "coordinates": [2.469293, 49.263775]}}, {"type": "Feature", "properties": {"start": "Laon", "stop_name": "Longpont", "type": "Gare accessible", "transport": "TER", "transport_legende": "\ud83d\udeb2 \u2764\ufe0f Train TER \ud83d\ude86"}, "geometry": {"type": "Point", "coordinates": [3.230265, 49.272602]}}, {"type": "Feature", "properties": {"start": "Laon", "stop_name": "Amiens", "type": "Gare accessible", "transport": "TER", "transport_legende": "\ud83d\udeb2 \u2764\ufe0f Train TER \ud83d\ude86"}, "geometry": {"type": "Point", "coordinates": [2.308277, 49.890584]}}, {"type": "Feature", "properties": {"start": "Laon", "stop_name": "Villers-Bretonneux", "type": "Gare accessible", "transport": "TER", "transport_legende": "\ud83d\udeb2 \u2764\ufe0f Train TER \ud83d\ude86"}, "geometry": {"type": "Point", "coordinates": [2.521424, 49.862968]}}, {"type": "Feature", "properties": {"start": "Laon", "stop_name": "Rosi\u00e8res", "type": "Gare accessible", "transport": "TER", "transport_legende": "\ud83d\udeb2 \u2764\ufe0f Train TER \ud83d\ude86"}, "geometry": {"type": "Point", "coordinates": [2.711198, 49.822584]}}, {"type": "Feature", "properties": {"start": "Laon", "stop_name": "Chaulnes", "type": "Gare accessible", "transport": "TER", "transport_legende": "\ud83d\udeb2 \u2764\ufe0f Train TER \ud83d\ude86"}, "geometry": {"type": "Point", "coordinates": [2.801103, 49.807679]}}, {"type": "Feature", "properties": {"start": "Laon", "stop_name": "Nesle", "type": "Gare accessible", "transport": "TER", "transport_legende": "\ud83d\udeb2 \u2764\ufe0f Train TER \ud83d\ude86"}, "geometry": {"type": "Point", "coordinates": [2.909084, 49.763782]}}, {"type": "Feature", "properties": {"start": "Laon", "stop_name": "Ham (Somme)", "type": "Gare accessible", "transport": "TER", "transport_legende": "\ud83d\udeb2 \u2764\ufe0f Train TER \ud83d\ude86"}, "geometry": {"type": "Point", "coordinates": [3.070268, 49.739855]}}, {"type": "Feature", "properties": {"start": "Laon", "stop_name": "Tergnier", "type": "Gare accessible", "transport": "TER", "transport_legende": "\ud83d\udeb2 \u2764\ufe0f Train TER \ud83d\ude86"}, "geometry": {"type": "Point", "coordinates": [3.297253, 49.659129]}}, {"type": "Feature", "properties": {"start": "Laon", "stop_name": "La F\u00e8re", "type": "Gare accessible", "transport": "TER", "transport_legende": "\ud83d\udeb2 \u2764\ufe0f Train TER \ud83d\ude86"}, "geometry": {"type": "Point", "coordinates": [3.369817, 49.658015]}}, {"type": "Feature", "properties": {"start": "Laon", "stop_name": "Versigny", "type": "Gare accessible", "transport": "TER", "transport_legende": "\ud83d\udeb2 \u2764\ufe0f Train TER \ud83d\ude86"}, "geometry": {"type": "Point", "coordinates": [3.433654, 49.657428]}}, {"type": "Feature", "properties": {"start": "Laon", "stop_name": "Cr\u00e9py - Couvron", "type": "Gare accessible", "transport": "TER", "transport_legende": "\ud83d\udeb2 \u2764\ufe0f Train TER \ud83d\ude86"}, "geometry": {"type": "Point", "coordinates": [3.516475, 49.62325]}}, {"type": "Feature", "properties": {"start": "Laon", "stop_name": "Mennessis", "type": "Gare accessible", "transport": "TER", "transport_legende": "\ud83d\udeb2 \u2764\ufe0f Train TER \ud83d\ude86"}, "geometry": {"type": "Point", "coordinates": [3.270562, 49.692061]}}, {"type": "Feature", "properties": {"start": "Laon", "stop_name": "Flavy-le-Martel", "type": "Gare accessible", "transport": "TER", "transport_legende": "\ud83d\udeb2 \u2764\ufe0f Train TER \ud83d\ude86"}, "geometry": {"type": "Point", "coordinates": [3.190179, 49.718446]}}, {"type": "Feature", "properties": {"start": "Laon", "stop_name": "Marcelcave", "type": "Gare accessible", "transport": "TER", "transport_legende": "\ud83d\udeb2 \u2764\ufe0f Train TER \ud83d\ude86"}, "geometry": {"type": "Point", "coordinates": [2.581744, 49.853115]}}, {"type": "Feature", "properties": {"start": "Laon", "stop_name": "Anor", "type": "Gare accessible", "transport": "TER", "transport_legende": "\ud83d\udeb2 \u2764\ufe0f Train TER \ud83d\ude86"}, "geometry": {"type": "Point", "coordinates": [4.093473, 49.985022]}}, {"type": "Feature", "properties": {"start": "Laon", "stop_name": "Fourmies", "type": "Gare accessible", "transport": "TER", "transport_legende": "\ud83d\udeb2 \u2764\ufe0f Train TER \ud83d\ude86"}, "geometry": {"type": "Point", "coordinates": [4.053593, 50.015392]}}, {"type": "Feature", "properties": {"start": "Laon", "stop_name": "Sains-du-Nord", "type": "Gare accessible", "transport": "TER", "transport_legende": "\ud83d\udeb2 \u2764\ufe0f Train TER \ud83d\ude86"}, "geometry": {"type": "Point", "coordinates": [4.001668, 50.088914]}}, {"type": "Feature", "properties": {"start": "Laon", "stop_name": "Avesnelles", "type": "Gare accessible", "transport": "TER", "transport_legende": "\ud83d\udeb2 \u2764\ufe0f Train TER \ud83d\ude86"}, "geometry": {"type": "Point", "coordinates": [3.948638, 50.118497]}}, {"type": "Feature", "properties": {"start": "Laon", "stop_name": "Avesnes-sur-Helpe", "type": "Gare accessible", "transport": "TER", "transport_legende": "\ud83d\udeb2 \u2764\ufe0f Train TER \ud83d\ude86"}, "geometry": {"type": "Point", "coordinates": [3.932902, 50.126755]}}, {"type": "Feature", "properties": {"start": "Laon", "stop_name": "Saint-Hilaire", "type": "Gare accessible", "transport": "TER", "transport_legende": "\ud83d\udeb2 \u2764\ufe0f Train TER \ud83d\ude86"}, "geometry": {"type": "Point", "coordinates": [3.913485, 50.132082]}}, {"type": "Feature", "properties": {"start": "Laon", "stop_name": "Dompierre", "type": "Gare accessible", "transport": "TER", "transport_legende": "\ud83d\udeb2 \u2764\ufe0f Train TER \ud83d\ude86"}, "geometry": {"type": "Point", "coordinates": [3.871082, 50.145955]}}, {"type": "Feature", "properties": {"start": "Laon", "stop_name": "Leval", "type": "Gare accessible", "transport": "TER", "transport_legende": "\ud83d\udeb2 \u2764\ufe0f Train TER \ud83d\ude86"}, "geometry": {"type": "Point", "coordinates": [3.836629, 50.184614]}}, {"type": "Feature", "properties": {"start": "Laon", "stop_name": "Aulnoye-Aymeries", "type": "Gare accessible", "transport": "TER", "transport_legende": "\ud83d\udeb2 \u2764\ufe0f Train TER \ud83d\ude86"}, "geometry": {"type": "Point", "coordinates": [3.843333, 50.197477]}}, {"type": "Feature", "properties": {"start": "Laon", "stop_name": "Paris Gare du Nord", "type": "Gare accessible", "transport": "TER", "transport_legende": "\ud83d\udeb2 \u2764\ufe0f Train TER \ud83d\ude86"}, "geometry": {"type": "Point", "coordinates": [2.354851, 48.880136]}}, {"type": "Feature", "properties": {"start": "Laon", "stop_name": "Dammartin - Juilly - Saint-Mard", "type": "Gare accessible", "transport": "TER", "transport_legende": "\ud83d\udeb2 \u2764\ufe0f Train TER \ud83d\ude86"}, "geometry": {"type": "Point", "coordinates": [2.69887, 49.03219]}}, {"type": "Feature", "properties": {"start": "Laon", "stop_name": "Le Plessis-Belleville", "type": "Gare accessible", "transport": "TER", "transport_legende": "\ud83d\udeb2 \u2764\ufe0f Train TER \ud83d\ude86"}, "geometry": {"type": "Point", "coordinates": [2.744855, 49.095912]}}, {"type": "Feature", "properties": {"start": "Laon", "stop_name": "Nanteuil-le-Haudouin", "type": "Gare accessible", "transport": "TER", "transport_legende": "\ud83d\udeb2 \u2764\ufe0f Train TER \ud83d\ude86"}, "geometry": {"type": "Point", "coordinates": [2.794502, 49.142673]}}, {"type": "Feature", "properties": {"start": "Laon", "stop_name": "Margival", "type": "Gare accessible", "transport": "TER", "transport_legende": "\ud83d\udeb2 \u2764\ufe0f Train TER \ud83d\ude86"}, "geometry": {"type": "Point", "coordinates": [3.402717, 49.439376]}}, {"type": "Feature", "properties": {"start": "Laon", "stop_name": "Corcy", "type": "Gare accessible", "transport": "TER", "transport_legende": "\ud83d\udeb2 \u2764\ufe0f Train TER \ud83d\ude86"}, "geometry": {"type": "Point", "coordinates": [3.216073, 49.255201]}}]}