{"type": "FeatureCollection", "features": [{"type": "Feature", "properties": {"start": "Lavilledieu", "stop_name": "Lavilledieu", "type": "Gare s\u00e9lectionn\u00e9e", "transport": "TER", "nombre_trajet_moyen": 3.87, "transport_legende": "\ud83d\udeb2 \u2764\ufe0f Train TER \ud83d\ude86"}, "geometry": {"type": "Point", "coordinates": [1.214856, 44.035257]}}, {"type": "Feature", "properties": {"start": "Lavilledieu", "stop_name": "Toulouse Matabiau", "type": "Gare accessible", "transport": "TER", "nombre_trajet_moyen": 3.87, "transport_legende": "\ud83d\udeb2 \u2764\ufe0f Train TER \ud83d\ude86"}, "geometry": {"type": "Point", "coordinates": [1.453616, 43.611206]}}, {"type": "Feature", "properties": {"start": "Lavilledieu", "stop_name": "Castelnau-d'Estr\u00e9tefonds", "type": "Gare accessible", "transport": "TER", "nombre_trajet_moyen": 3.87, "transport_legende": "\ud83d\udeb2 \u2764\ufe0f Train TER \ud83d\ude86"}, "geometry": {"type": "Point", "coordinates": [1.341821, 43.786195]}}, {"type": "Feature", "properties": {"start": "Lavilledieu", "stop_name": "Montauban Ville Bourbon", "type": "Gare accessible", "transport": "TER", "nombre_trajet_moyen": 3.87, "transport_legende": "\ud83d\udeb2 \u2764\ufe0f Train TER \ud83d\ude86"}, "geometry": {"type": "Point", "coordinates": [1.341499, 44.01444]}}, {"type": "Feature", "properties": {"start": "Lavilledieu", "stop_name": "Castelsarrasin", "type": "Gare accessible", "transport": "TER", "nombre_trajet_moyen": 3.87, "transport_legende": "\ud83d\udeb2 \u2764\ufe0f Train TER \ud83d\ude86"}, "geometry": {"type": "Point", "coordinates": [1.114155, 44.040226]}}, {"type": "Feature", "properties": {"start": "Lavilledieu", "stop_name": "Moissac", "type": "Gare accessible", "transport": "TER", "nombre_trajet_moyen": 3.87, "transport_legende": "\ud83d\udeb2 \u2764\ufe0f Train TER \ud83d\ude86"}, "geometry": {"type": "Point", "coordinates": [1.077277, 44.102173]}}, {"type": "Feature", "properties": {"start": "Lavilledieu", "stop_name": "Valence d'Agen", "type": "Gare accessible", "transport": "TER", "nombre_trajet_moyen": 3.87, "transport_legende": "\ud83d\udeb2 \u2764\ufe0f Train TER \ud83d\ude86"}, "geometry": {"type": "Point", "coordinates": [0.891595, 44.111643]}}, {"type": "Feature", "properties": {"start": "Lavilledieu", "stop_name": "Lamagist\u00e8re", "type": "Gare accessible", "transport": "TER", "nombre_trajet_moyen": 3.87, "transport_legende": "\ud83d\udeb2 \u2764\ufe0f Train TER \ud83d\ude86"}, "geometry": {"type": "Point", "coordinates": [0.825357, 44.126777]}}, {"type": "Feature", "properties": {"start": "Lavilledieu", "stop_name": "Agen", "type": "Gare accessible", "transport": "TER", "nombre_trajet_moyen": 3.87, "transport_legende": "\ud83d\udeb2 \u2764\ufe0f Train TER \ud83d\ude86"}, "geometry": {"type": "Point", "coordinates": [0.620867, 44.207967]}}, {"type": "Feature", "properties": {"start": "Lavilledieu", "stop_name": "Montbartier", "type": "Gare accessible", "transport": "TER", "nombre_trajet_moyen": 0.09, "transport_legende": "\ud83d\udeb2 \u2764\ufe0f Train TER \ud83d\ude86"}, "geometry": {"type": "Point", "coordinates": [1.264501, 43.924141]}}, {"type": "Feature", "properties": {"start": "Lavilledieu", "stop_name": "Dieupentale", "type": "Gare accessible", "transport": "TER", "nombre_trajet_moyen": 0.09, "transport_legende": "\ud83d\udeb2 \u2764\ufe0f Train TER \ud83d\ude86"}, "geometry": {"type": "Point", "coordinates": [1.276101, 43.865526]}}, {"type": "Feature", "properties": {"start": "Lavilledieu", "stop_name": "Grisolles", "type": "Gare accessible", "transport": "TER", "nombre_trajet_moyen": 0.09, "transport_legende": "\ud83d\udeb2 \u2764\ufe0f Train TER \ud83d\ude86"}, "geometry": {"type": "Point", "coordinates": [1.302396, 43.827085]}}, {"type": "Feature", "properties": {"start": "Lavilledieu", "stop_name": "Saint-Jory", "type": "Gare accessible", "transport": "TER", "nombre_trajet_moyen": 0.09, "transport_legende": "\ud83d\udeb2 \u2764\ufe0f Train TER \ud83d\ude86"}, "geometry": {"type": "Point", "coordinates": [1.371619, 43.738375]}}, {"type": "Feature", "properties": {"start": "Lavilledieu", "stop_name": "Lacourtensourt", "type": "Gare accessible", "transport": "TER", "nombre_trajet_moyen": 0.09, "transport_legende": "\ud83d\udeb2 \u2764\ufe0f Train TER \ud83d\ude86"}, "geometry": {"type": "Point", "coordinates": [1.41409, 43.663842]}}]}