{"type": "FeatureCollection", "features": [{"type": "Feature", "properties": {"start": "Le P\u00e9nity", "stop_name": "Le P\u00e9nity", "type": "Gare s\u00e9lectionn\u00e9e", "transport": "TER", "transport_legende": "\ud83d\udeb2 \u2764\ufe0f Train TER \ud83d\ude86"}, "geometry": {"type": "Point", "coordinates": [-3.476382, 48.364627]}}, {"type": "Feature", "properties": {"start": "Le P\u00e9nity", "stop_name": "Callac", "type": "Gare accessible", "transport": "TER", "transport_legende": "\ud83d\udeb2 \u2764\ufe0f Train TER \ud83d\ude86"}, "geometry": {"type": "Point", "coordinates": [-3.41985, 48.406375]}}, {"type": "Feature", "properties": {"start": "Le P\u00e9nity", "stop_name": "Carno\u00ebt - Locarn", "type": "Gare accessible", "transport": "TER", "transport_legende": "\ud83d\udeb2 \u2764\ufe0f Train TER \ud83d\ude86"}, "geometry": {"type": "Point", "coordinates": [-3.490667, 48.340614]}}, {"type": "Feature", "properties": {"start": "Le P\u00e9nity", "stop_name": "Carhaix", "type": "Gare accessible", "transport": "TER", "transport_legende": "\ud83d\udeb2 \u2764\ufe0f Train TER \ud83d\ude86"}, "geometry": {"type": "Point", "coordinates": [-3.562217, 48.278002]}}, {"type": "Feature", "properties": {"start": "Le P\u00e9nity", "stop_name": "Les Mais", "type": "Gare accessible", "transport": "TER", "transport_legende": "\ud83d\udeb2 \u2764\ufe0f Train TER \ud83d\ude86"}, "geometry": {"type": "Point", "coordinates": [-3.382663, 48.426403]}}, {"type": "Feature", "properties": {"start": "Le P\u00e9nity", "stop_name": "Plougonver", "type": "Gare accessible", "transport": "TER", "transport_legende": "\ud83d\udeb2 \u2764\ufe0f Train TER \ud83d\ude86"}, "geometry": {"type": "Point", "coordinates": [-3.370458, 48.458413]}}, {"type": "Feature", "properties": {"start": "Le P\u00e9nity", "stop_name": "Pont-Melvez", "type": "Gare accessible", "transport": "TER", "transport_legende": "\ud83d\udeb2 \u2764\ufe0f Train TER \ud83d\ude86"}, "geometry": {"type": "Point", "coordinates": [-3.311444, 48.470223]}}, {"type": "Feature", "properties": {"start": "Le P\u00e9nity", "stop_name": "Coat Gu\u00e9gan", "type": "Gare accessible", "transport": "TER", "transport_legende": "\ud83d\udeb2 \u2764\ufe0f Train TER \ud83d\ude86"}, "geometry": {"type": "Point", "coordinates": [-3.273679, 48.480428]}}, {"type": "Feature", "properties": {"start": "Le P\u00e9nity", "stop_name": "Moust\u00e9ru", "type": "Gare accessible", "transport": "TER", "transport_legende": "\ud83d\udeb2 \u2764\ufe0f Train TER \ud83d\ude86"}, "geometry": {"type": "Point", "coordinates": [-3.243505, 48.507451]}}, {"type": "Feature", "properties": {"start": "Le P\u00e9nity", "stop_name": "Guingamp", "type": "Gare accessible", "transport": "TER", "transport_legende": "\ud83d\udeb2 \u2764\ufe0f Train TER \ud83d\ude86"}, "geometry": {"type": "Point", "coordinates": [-3.143343, 48.555659]}}]}