{"type": "FeatureCollection", "features": [{"type": "Feature", "properties": {"start": "Les Ancizes St Georges Bourg", "stop_name": "Les Ancizes St Georges Bourg", "type": "Gare s\u00e9lectionn\u00e9e", "transport": "TER", "transport_legende": "\ud83d\udeb2 \u2764\ufe0f Train TER \ud83d\ude86"}, "geometry": {"type": "Point", "coordinates": [2.810416, 45.924694]}}, {"type": "Feature", "properties": {"start": "Les Ancizes St Georges Bourg", "stop_name": "Les Ancizes St Georges Usine", "type": "Gare accessible", "transport": "TER", "transport_legende": "\ud83d\udeb2 \u2764\ufe0f Train TER \ud83d\ude86"}, "geometry": {"type": "Point", "coordinates": [2.810006, 45.921765]}}, {"type": "Feature", "properties": {"start": "Les Ancizes St Georges Bourg", "stop_name": "Saint-Georges-De-Mons R \u00c9coles", "type": "Gare accessible", "transport": "TER", "transport_legende": "\ud83d\udeb2 \u2764\ufe0f Train TER \ud83d\ude86"}, "geometry": {"type": "Point", "coordinates": [2.840699, 45.937555]}}, {"type": "Feature", "properties": {"start": "Les Ancizes St Georges Bourg", "stop_name": "Paugnat Eglise", "type": "Gare accessible", "transport": "TER", "transport_legende": "\ud83d\udeb2 \u2764\ufe0f Train TER \ud83d\ude86"}, "geometry": {"type": "Point", "coordinates": [2.983502, 45.885835]}}, {"type": "Feature", "properties": {"start": "Les Ancizes St Georges Bourg", "stop_name": "Moulet-Marcenat", "type": "Gare accessible", "transport": "TER", "transport_legende": "\ud83d\udeb2 \u2764\ufe0f Train TER \ud83d\ude86"}, "geometry": {"type": "Point", "coordinates": [2.999034, 45.880693]}}, {"type": "Feature", "properties": {"start": "Les Ancizes St Georges Bourg", "stop_name": "Volvic", "type": "Gare accessible", "transport": "TER", "transport_legende": "\ud83d\udeb2 \u2764\ufe0f Train TER \ud83d\ude86"}, "geometry": {"type": "Point", "coordinates": [3.003083, 45.864649]}}, {"type": "Feature", "properties": {"start": "Les Ancizes St Georges Bourg", "stop_name": "Clermont-Ferrand", "type": "Gare accessible", "transport": "TER", "transport_legende": "\ud83d\udeb2 \u2764\ufe0f Train TER \ud83d\ude86"}, "geometry": {"type": "Point", "coordinates": [3.100543, 45.778945]}}, {"type": "Feature", "properties": {"start": "Les Ancizes St Georges Bourg", "stop_name": "Saint-Gervais Chateauneuf LPA", "type": "Gare accessible", "transport": "TER", "transport_legende": "\ud83d\udeb2 \u2764\ufe0f Train TER \ud83d\ude86"}, "geometry": {"type": "Point", "coordinates": [2.808423, 46.030506]}}, {"type": "Feature", "properties": {"start": "Les Ancizes St Georges Bourg", "stop_name": "Saint-Gervais - Ch\u00e2teau-Neuf", "type": "Gare accessible", "transport": "TER", "transport_legende": "\ud83d\udeb2 \u2764\ufe0f Train TER \ud83d\ude86"}, "geometry": {"type": "Point", "coordinates": [2.808136, 46.030316]}}, {"type": "Feature", "properties": {"start": "Les Ancizes St Georges Bourg", "stop_name": "Saint-\u00c9loy-les-Mines", "type": "Gare accessible", "transport": "TER", "transport_legende": "\ud83d\udeb2 \u2764\ufe0f Train TER \ud83d\ude86"}, "geometry": {"type": "Point", "coordinates": [2.834344, 46.169524]}}, {"type": "Feature", "properties": {"start": "Les Ancizes St Georges Bourg", "stop_name": "Saint-\u00c9loy-les-Mines Lyc\u00e9e", "type": "Gare accessible", "transport": "TER", "transport_legende": "\ud83d\udeb2 \u2764\ufe0f Train TER \ud83d\ude86"}, "geometry": {"type": "Point", "coordinates": [2.832855, 46.159641]}}]}