{"type": "FeatureCollection", "features": [{"type": "Feature", "properties": {"start": "Lunery \u00c9glise", "stop_name": "Lunery \u00c9glise", "type": "Gare s\u00e9lectionn\u00e9e", "transport": "TER", "nombre_trajet_moyen": 0.01, "transport_legende": "\ud83d\udeb2 \u2764\ufe0f Train TER \ud83d\ude86"}, "geometry": {"type": "Point", "coordinates": [2.268843, 46.935581]}}, {"type": "Feature", "properties": {"start": "Lunery \u00c9glise", "stop_name": "Saint-Amand-Montrond - Orval", "type": "Gare accessible", "transport": "TER", "nombre_trajet_moyen": 0.01, "transport_legende": "\ud83d\udeb2 \u2764\ufe0f Train TER \ud83d\ude86"}, "geometry": {"type": "Point", "coordinates": [2.485989, 46.726508]}}, {"type": "Feature", "properties": {"start": "Lunery \u00c9glise", "stop_name": "Bigny", "type": "Gare accessible", "transport": "TER", "nombre_trajet_moyen": 0.01, "transport_legende": "\ud83d\udeb2 \u2764\ufe0f Train TER \ud83d\ude86"}, "geometry": {"type": "Point", "coordinates": [2.369954, 46.801552]}}, {"type": "Feature", "properties": {"start": "Lunery \u00c9glise", "stop_name": "Ch\u00e2teauneuf-sur-Cher", "type": "Gare accessible", "transport": "TER", "nombre_trajet_moyen": 0.01, "transport_legende": "\ud83d\udeb2 \u2764\ufe0f Train TER \ud83d\ude86"}, "geometry": {"type": "Point", "coordinates": [2.310173, 46.856682]}}, {"type": "Feature", "properties": {"start": "Lunery \u00c9glise", "stop_name": "Saint-Florent-sur-Cher", "type": "Gare accessible", "transport": "TER", "nombre_trajet_moyen": 0.01, "transport_legende": "\ud83d\udeb2 \u2764\ufe0f Train TER \ud83d\ude86"}, "geometry": {"type": "Point", "coordinates": [2.252111, 46.992111]}}, {"type": "Feature", "properties": {"start": "Lunery \u00c9glise", "stop_name": "Bourges", "type": "Gare accessible", "transport": "TER", "nombre_trajet_moyen": 0.01, "transport_legende": "\ud83d\udeb2 \u2764\ufe0f Train TER \ud83d\ude86"}, "geometry": {"type": "Point", "coordinates": [2.394236, 47.094129]}}]}