{"type": "FeatureCollection", "features": [{"type": "Feature", "properties": {"start": "Lunel-Viel", "stop_name": "Lunel-Viel", "type": "Gare s\u00e9lectionn\u00e9e", "transport": "TER", "nombre_trajet_moyen": 4.26, "transport_legende": "\ud83d\udeb2 \u2764\ufe0f Train TER \ud83d\ude86"}, "geometry": {"type": "Point", "coordinates": [4.09374, 43.681173]}}, {"type": "Feature", "properties": {"start": "Lunel-Viel", "stop_name": "Narbonne", "type": "Gare accessible", "transport": "TER", "nombre_trajet_moyen": 1.25, "transport_legende": "\ud83d\udeb2 \u2764\ufe0f Train TER \ud83d\ude86"}, "geometry": {"type": "Point", "coordinates": [3.005667, 43.190618]}}, {"type": "Feature", "properties": {"start": "Lunel-Viel", "stop_name": "Coursan", "type": "Gare accessible", "transport": "TER", "nombre_trajet_moyen": 0.57, "transport_legende": "\ud83d\udeb2 \u2764\ufe0f Train TER \ud83d\ude86"}, "geometry": {"type": "Point", "coordinates": [3.050946, 43.233731]}}, {"type": "Feature", "properties": {"start": "Lunel-Viel", "stop_name": "B\u00e9ziers", "type": "Gare accessible", "transport": "TER", "nombre_trajet_moyen": 1.25, "transport_legende": "\ud83d\udeb2 \u2764\ufe0f Train TER \ud83d\ude86"}, "geometry": {"type": "Point", "coordinates": [3.218895, 43.336295]}}, {"type": "Feature", "properties": {"start": "Lunel-Viel", "stop_name": "Vias", "type": "Gare accessible", "transport": "TER", "nombre_trajet_moyen": 0.57, "transport_legende": "\ud83d\udeb2 \u2764\ufe0f Train TER \ud83d\ude86"}, "geometry": {"type": "Point", "coordinates": [3.425356, 43.315653]}}, {"type": "Feature", "properties": {"start": "Lunel-Viel", "stop_name": "Agde", "type": "Gare accessible", "transport": "TER", "nombre_trajet_moyen": 1.25, "transport_legende": "\ud83d\udeb2 \u2764\ufe0f Train TER \ud83d\ude86"}, "geometry": {"type": "Point", "coordinates": [3.466203, 43.31728]}}, {"type": "Feature", "properties": {"start": "Lunel-Viel", "stop_name": "Marseillan Plage", "type": "Gare accessible", "transport": "TER", "nombre_trajet_moyen": 0.57, "transport_legende": "\ud83d\udeb2 \u2764\ufe0f Train TER \ud83d\ude86"}, "geometry": {"type": "Point", "coordinates": [3.535629, 43.318258]}}, {"type": "Feature", "properties": {"start": "Lunel-Viel", "stop_name": "S\u00e8te", "type": "Gare accessible", "transport": "TER", "nombre_trajet_moyen": 2.78, "transport_legende": "\ud83d\udeb2 \u2764\ufe0f Train TER \ud83d\ude86"}, "geometry": {"type": "Point", "coordinates": [3.696571, 43.412641]}}, {"type": "Feature", "properties": {"start": "Lunel-Viel", "stop_name": "Frontignan", "type": "Gare accessible", "transport": "TER", "nombre_trajet_moyen": 2.78, "transport_legende": "\ud83d\udeb2 \u2764\ufe0f Train TER \ud83d\ude86"}, "geometry": {"type": "Point", "coordinates": [3.758689, 43.444934]}}, {"type": "Feature", "properties": {"start": "Lunel-Viel", "stop_name": "Vic - Mireval", "type": "Gare accessible", "transport": "TER", "nombre_trajet_moyen": 2.35, "transport_legende": "\ud83d\udeb2 \u2764\ufe0f Train TER \ud83d\ude86"}, "geometry": {"type": "Point", "coordinates": [3.799379, 43.500704]}}, {"type": "Feature", "properties": {"start": "Lunel-Viel", "stop_name": "Villeneuve-l\u00e8s-Maguelone", "type": "Gare accessible", "transport": "TER", "nombre_trajet_moyen": 2.35, "transport_legende": "\ud83d\udeb2 \u2764\ufe0f Train TER \ud83d\ude86"}, "geometry": {"type": "Point", "coordinates": [3.849887, 43.543728]}}, {"type": "Feature", "properties": {"start": "Lunel-Viel", "stop_name": "Montpellier Saint-Roch", "type": "Gare accessible", "transport": "TER", "nombre_trajet_moyen": 4.26, "transport_legende": "\ud83d\udeb2 \u2764\ufe0f Train TER \ud83d\ude86"}, "geometry": {"type": "Point", "coordinates": [3.880674, 43.604738]}}, {"type": "Feature", "properties": {"start": "Lunel-Viel", "stop_name": "Saint-Aun\u00e8s", "type": "Gare accessible", "transport": "TER", "nombre_trajet_moyen": 3.43, "transport_legende": "\ud83d\udeb2 \u2764\ufe0f Train TER \ud83d\ude86"}, "geometry": {"type": "Point", "coordinates": [3.96309, 43.635442]}}, {"type": "Feature", "properties": {"start": "Lunel-Viel", "stop_name": "Baillargues", "type": "Gare accessible", "transport": "TER", "nombre_trajet_moyen": 4.26, "transport_legende": "\ud83d\udeb2 \u2764\ufe0f Train TER \ud83d\ude86"}, "geometry": {"type": "Point", "coordinates": [4.007159, 43.653323]}}, {"type": "Feature", "properties": {"start": "Lunel-Viel", "stop_name": "Lunel", "type": "Gare accessible", "transport": "TER", "nombre_trajet_moyen": 4.26, "transport_legende": "\ud83d\udeb2 \u2764\ufe0f Train TER \ud83d\ude86"}, "geometry": {"type": "Point", "coordinates": [4.131086, 43.679392]}}, {"type": "Feature", "properties": {"start": "Lunel-Viel", "stop_name": "Toulouse Matabiau", "type": "Gare accessible", "transport": "TER", "nombre_trajet_moyen": 0.68, "transport_legende": "\ud83d\udeb2 \u2764\ufe0f Train TER \ud83d\ude86"}, "geometry": {"type": "Point", "coordinates": [1.453616, 43.611206]}}, {"type": "Feature", "properties": {"start": "Lunel-Viel", "stop_name": "Montaudran", "type": "Gare accessible", "transport": "TER", "nombre_trajet_moyen": 0.68, "transport_legende": "\ud83d\udeb2 \u2764\ufe0f Train TER \ud83d\ude86"}, "geometry": {"type": "Point", "coordinates": [1.480201, 43.573691]}}, {"type": "Feature", "properties": {"start": "Lunel-Viel", "stop_name": "Lab\u00e8ge Innopole", "type": "Gare accessible", "transport": "TER", "nombre_trajet_moyen": 0.68, "transport_legende": "\ud83d\udeb2 \u2764\ufe0f Train TER \ud83d\ude86"}, "geometry": {"type": "Point", "coordinates": [1.512964, 43.547467]}}, {"type": "Feature", "properties": {"start": "Lunel-Viel", "stop_name": "Lab\u00e8ge Village", "type": "Gare accessible", "transport": "TER", "nombre_trajet_moyen": 0.68, "transport_legende": "\ud83d\udeb2 \u2764\ufe0f Train TER \ud83d\ude86"}, "geometry": {"type": "Point", "coordinates": [1.532597, 43.531025]}}, {"type": "Feature", "properties": {"start": "Lunel-Viel", "stop_name": "Escalquens", "type": "Gare accessible", "transport": "TER", "nombre_trajet_moyen": 0.68, "transport_legende": "\ud83d\udeb2 \u2764\ufe0f Train TER \ud83d\ude86"}, "geometry": {"type": "Point", "coordinates": [1.542375, 43.517093]}}, {"type": "Feature", "properties": {"start": "Lunel-Viel", "stop_name": "Bazi\u00e8ge", "type": "Gare accessible", "transport": "TER", "nombre_trajet_moyen": 0.68, "transport_legende": "\ud83d\udeb2 \u2764\ufe0f Train TER \ud83d\ude86"}, "geometry": {"type": "Point", "coordinates": [1.620698, 43.453608]}}, {"type": "Feature", "properties": {"start": "Lunel-Viel", "stop_name": "Villefranche-de-Lauragais", "type": "Gare accessible", "transport": "TER", "nombre_trajet_moyen": 0.68, "transport_legende": "\ud83d\udeb2 \u2764\ufe0f Train TER \ud83d\ude86"}, "geometry": {"type": "Point", "coordinates": [1.714725, 43.398537]}}, {"type": "Feature", "properties": {"start": "Lunel-Viel", "stop_name": "Avignonet", "type": "Gare accessible", "transport": "TER", "nombre_trajet_moyen": 0.68, "transport_legende": "\ud83d\udeb2 \u2764\ufe0f Train TER \ud83d\ude86"}, "geometry": {"type": "Point", "coordinates": [1.787269, 43.363877]}}, {"type": "Feature", "properties": {"start": "Lunel-Viel", "stop_name": "Castelnaudary", "type": "Gare accessible", "transport": "TER", "nombre_trajet_moyen": 0.68, "transport_legende": "\ud83d\udeb2 \u2764\ufe0f Train TER \ud83d\ude86"}, "geometry": {"type": "Point", "coordinates": [1.95039, 43.312292]}}, {"type": "Feature", "properties": {"start": "Lunel-Viel", "stop_name": "Bram", "type": "Gare accessible", "transport": "TER", "nombre_trajet_moyen": 0.68, "transport_legende": "\ud83d\udeb2 \u2764\ufe0f Train TER \ud83d\ude86"}, "geometry": {"type": "Point", "coordinates": [2.119325, 43.243815]}}, {"type": "Feature", "properties": {"start": "Lunel-Viel", "stop_name": "Carcassonne", "type": "Gare accessible", "transport": "TER", "nombre_trajet_moyen": 0.68, "transport_legende": "\ud83d\udeb2 \u2764\ufe0f Train TER \ud83d\ude86"}, "geometry": {"type": "Point", "coordinates": [2.351824, 43.218029]}}, {"type": "Feature", "properties": {"start": "Lunel-Viel", "stop_name": "L\u00e9zignan-Corbi\u00e8res", "type": "Gare accessible", "transport": "TER", "nombre_trajet_moyen": 0.68, "transport_legende": "\ud83d\udeb2 \u2764\ufe0f Train TER \ud83d\ude86"}, "geometry": {"type": "Point", "coordinates": [2.769139, 43.199956]}}, {"type": "Feature", "properties": {"start": "Lunel-Viel", "stop_name": "Valergues - Lansargues", "type": "Gare accessible", "transport": "TER", "nombre_trajet_moyen": 3.58, "transport_legende": "\ud83d\udeb2 \u2764\ufe0f Train TER \ud83d\ude86"}, "geometry": {"type": "Point", "coordinates": [4.060256, 43.672631]}}, {"type": "Feature", "properties": {"start": "Lunel-Viel", "stop_name": "Verg\u00e8ze - Codognan", "type": "Gare accessible", "transport": "TER", "nombre_trajet_moyen": 3.04, "transport_legende": "\ud83d\udeb2 \u2764\ufe0f Train TER \ud83d\ude86"}, "geometry": {"type": "Point", "coordinates": [4.218911, 43.739784]}}, {"type": "Feature", "properties": {"start": "Lunel-Viel", "stop_name": "N\u00eemes Centre", "type": "Gare accessible", "transport": "TER", "nombre_trajet_moyen": 3.04, "transport_legende": "\ud83d\udeb2 \u2764\ufe0f Train TER \ud83d\ude86"}, "geometry": {"type": "Point", "coordinates": [4.365872, 43.832313]}}, {"type": "Feature", "properties": {"start": "Lunel-Viel", "stop_name": "Avignon Centre", "type": "Gare accessible", "transport": "TER", "nombre_trajet_moyen": 2.41, "transport_legende": "\ud83d\udeb2 \u2764\ufe0f Train TER \ud83d\ude86"}, "geometry": {"type": "Point", "coordinates": [4.805269, 43.941923]}}, {"type": "Feature", "properties": {"start": "Lunel-Viel", "stop_name": "Tarascon-sur-Rh\u00f4ne", "type": "Gare accessible", "transport": "TER", "nombre_trajet_moyen": 1.97, "transport_legende": "\ud83d\udeb2 \u2764\ufe0f Train TER \ud83d\ude86"}, "geometry": {"type": "Point", "coordinates": [4.657206, 43.801331]}}, {"type": "Feature", "properties": {"start": "Lunel-Viel", "stop_name": "Beaucaire", "type": "Gare accessible", "transport": "TER", "nombre_trajet_moyen": 1.97, "transport_legende": "\ud83d\udeb2 \u2764\ufe0f Train TER \ud83d\ude86"}, "geometry": {"type": "Point", "coordinates": [4.647087, 43.80209]}}, {"type": "Feature", "properties": {"start": "Lunel-Viel", "stop_name": "N\u00eemes Pont du Gard", "type": "Gare accessible", "transport": "TER", "nombre_trajet_moyen": 1.97, "transport_legende": "\ud83d\udeb2 \u2764\ufe0f Train TER \ud83d\ude86"}, "geometry": {"type": "Point", "coordinates": [4.507678, 43.816809]}}, {"type": "Feature", "properties": {"start": "Lunel-Viel", "stop_name": "Saint-C\u00e9saire", "type": "Gare accessible", "transport": "TER", "nombre_trajet_moyen": 2.6, "transport_legende": "\ud83d\udeb2 \u2764\ufe0f Train TER \ud83d\ude86"}, "geometry": {"type": "Point", "coordinates": [4.327634, 43.813345]}}, {"type": "Feature", "properties": {"start": "Lunel-Viel", "stop_name": "Gallargues", "type": "Gare accessible", "transport": "TER", "nombre_trajet_moyen": 0.25, "transport_legende": "\ud83d\udeb2 \u2764\ufe0f Train TER \ud83d\ude86"}, "geometry": {"type": "Point", "coordinates": [4.171079, 43.716033]}}, {"type": "Feature", "properties": {"start": "Lunel-Viel", "stop_name": "Milhaud", "type": "Gare accessible", "transport": "TER", "nombre_trajet_moyen": 0.69, "transport_legende": "\ud83d\udeb2 \u2764\ufe0f Train TER \ud83d\ude86"}, "geometry": {"type": "Point", "coordinates": [4.303327, 43.788489]}}]}