{"type": "FeatureCollection", "features": [{"type": "Feature", "properties": {"start": "Lyon-Vaise-Gare-Routi\u00e8re", "stop_name": "Lyon-Vaise-Gare-Routi\u00e8re", "type": "Gare s\u00e9lectionn\u00e9e", "transport": "TER", "transport_legende": "\ud83d\udeb2 \u2764\ufe0f Train TER \ud83d\ude86"}, "geometry": {"type": "Point", "coordinates": [4.803685, 45.779611]}}, {"type": "Feature", "properties": {"start": "Lyon-Vaise-Gare-Routi\u00e8re", "stop_name": "Villefranche-sur-Sa\u00f4ne", "type": "Gare accessible", "transport": "TER", "transport_legende": "\ud83d\udeb2 \u2764\ufe0f Train TER \ud83d\ude86"}, "geometry": {"type": "Point", "coordinates": [4.720798, 45.984482]}}, {"type": "Feature", "properties": {"start": "Lyon-Vaise-Gare-Routi\u00e8re", "stop_name": "Anse-Monument", "type": "Gare accessible", "transport": "TER", "transport_legende": "\ud83d\udeb2 \u2764\ufe0f Train TER \ud83d\ude86"}, "geometry": {"type": "Point", "coordinates": [4.718314, 45.936999]}}, {"type": "Feature", "properties": {"start": "Lyon-Vaise-Gare-Routi\u00e8re", "stop_name": "Quincieux", "type": "Gare accessible", "transport": "TER", "transport_legende": "\ud83d\udeb2 \u2764\ufe0f Train TER \ud83d\ude86"}, "geometry": {"type": "Point", "coordinates": [4.77857, 45.906914]}}, {"type": "Feature", "properties": {"start": "Lyon-Vaise-Gare-Routi\u00e8re", "stop_name": "Saint-Germain-au-Mont-d'Or", "type": "Gare accessible", "transport": "TER", "transport_legende": "\ud83d\udeb2 \u2764\ufe0f Train TER \ud83d\ude86"}, "geometry": {"type": "Point", "coordinates": [4.804206, 45.888431]}}, {"type": "Feature", "properties": {"start": "Lyon-Vaise-Gare-Routi\u00e8re", "stop_name": "Albigny-Neuville-Arret-TCL-Gare", "type": "Gare accessible", "transport": "TER", "transport_legende": "\ud83d\udeb2 \u2764\ufe0f Train TER \ud83d\ude86"}, "geometry": {"type": "Point", "coordinates": [4.833042, 45.875356]}}, {"type": "Feature", "properties": {"start": "Lyon-Vaise-Gare-Routi\u00e8re", "stop_name": "Couzon-Au-Mont-D'Or-Arret-Tcl-Gare", "type": "Gare accessible", "transport": "TER", "transport_legende": "\ud83d\udeb2 \u2764\ufe0f Train TER \ud83d\ude86"}, "geometry": {"type": "Point", "coordinates": [4.832053, 45.848577]}}, {"type": "Feature", "properties": {"start": "Lyon-Vaise-Gare-Routi\u00e8re", "stop_name": "Collonges Fontaines Arret Tcl Gare", "type": "Gare accessible", "transport": "TER", "transport_legende": "\ud83d\udeb2 \u2764\ufe0f Train TER \ud83d\ude86"}, "geometry": {"type": "Point", "coordinates": [4.846677, 45.829076]}}, {"type": "Feature", "properties": {"start": "Lyon-Vaise-Gare-Routi\u00e8re", "stop_name": "Lyon-Perrache Gare Routi\u00e8re", "type": "Gare accessible", "transport": "TER", "transport_legende": "\ud83d\udeb2 \u2764\ufe0f Train TER \ud83d\ude86"}, "geometry": {"type": "Point", "coordinates": [4.827332, 45.74912]}}]}