{"type": "FeatureCollection", "features": [{"type": "Feature", "properties": {"start": "Maromme", "stop_name": "Maromme", "type": "Gare s\u00e9lectionn\u00e9e", "transport": "TER", "transport_legende": "\ud83d\udeb2 \u2764\ufe0f Train TER \ud83d\ude86"}, "geometry": {"type": "Point", "coordinates": [1.05056, 49.479899]}}, {"type": "Feature", "properties": {"start": "Maromme", "stop_name": "Yvetot", "type": "Gare accessible", "transport": "TER", "transport_legende": "\ud83d\udeb2 \u2764\ufe0f Train TER \ud83d\ude86"}, "geometry": {"type": "Point", "coordinates": [0.750139, 49.622115]}}, {"type": "Feature", "properties": {"start": "Maromme", "stop_name": "Motteville", "type": "Gare accessible", "transport": "TER", "transport_legende": "\ud83d\udeb2 \u2764\ufe0f Train TER \ud83d\ude86"}, "geometry": {"type": "Point", "coordinates": [0.849631, 49.636846]}}, {"type": "Feature", "properties": {"start": "Maromme", "stop_name": "Pavilly", "type": "Gare accessible", "transport": "TER", "transport_legende": "\ud83d\udeb2 \u2764\ufe0f Train TER \ud83d\ude86"}, "geometry": {"type": "Point", "coordinates": [0.950644, 49.563897]}}, {"type": "Feature", "properties": {"start": "Maromme", "stop_name": "Barentin", "type": "Gare accessible", "transport": "TER", "transport_legende": "\ud83d\udeb2 \u2764\ufe0f Train TER \ud83d\ude86"}, "geometry": {"type": "Point", "coordinates": [0.953517, 49.549123]}}, {"type": "Feature", "properties": {"start": "Maromme", "stop_name": "Malaunay - Le Houlme", "type": "Gare accessible", "transport": "TER", "transport_legende": "\ud83d\udeb2 \u2764\ufe0f Train TER \ud83d\ude86"}, "geometry": {"type": "Point", "coordinates": [1.03952, 49.513326]}}, {"type": "Feature", "properties": {"start": "Maromme", "stop_name": "Rouen Rive Droite", "type": "Gare accessible", "transport": "TER", "transport_legende": "\ud83d\udeb2 \u2764\ufe0f Train TER \ud83d\ude86"}, "geometry": {"type": "Point", "coordinates": [1.094103, 49.448663]}}, {"type": "Feature", "properties": {"start": "Maromme", "stop_name": "Sotteville", "type": "Gare accessible", "transport": "TER", "transport_legende": "\ud83d\udeb2 \u2764\ufe0f Train TER \ud83d\ude86"}, "geometry": {"type": "Point", "coordinates": [1.101963, 49.412606]}}, {"type": "Feature", "properties": {"start": "Maromme", "stop_name": "Saint-\u00c9tienne-du-Rouvray", "type": "Gare accessible", "transport": "TER", "transport_legende": "\ud83d\udeb2 \u2764\ufe0f Train TER \ud83d\ude86"}, "geometry": {"type": "Point", "coordinates": [1.109472, 49.377153]}}, {"type": "Feature", "properties": {"start": "Maromme", "stop_name": "Oissel", "type": "Gare accessible", "transport": "TER", "transport_legende": "\ud83d\udeb2 \u2764\ufe0f Train TER \ud83d\ude86"}, "geometry": {"type": "Point", "coordinates": [1.101937, 49.343085]}}, {"type": "Feature", "properties": {"start": "Maromme", "stop_name": "Tourville", "type": "Gare accessible", "transport": "TER", "transport_legende": "\ud83d\udeb2 \u2764\ufe0f Train TER \ud83d\ude86"}, "geometry": {"type": "Point", "coordinates": [1.098581, 49.324424]}}, {"type": "Feature", "properties": {"start": "Maromme", "stop_name": "Elbeuf - Saint-Aubin", "type": "Gare accessible", "transport": "TER", "transport_legende": "\ud83d\udeb2 \u2764\ufe0f Train TER \ud83d\ude86"}, "geometry": {"type": "Point", "coordinates": [1.00993, 49.302766]}}, {"type": "Feature", "properties": {"start": "Maromme", "stop_name": "Dieppe", "type": "Gare accessible", "transport": "TER", "transport_legende": "\ud83d\udeb2 \u2764\ufe0f Train TER \ud83d\ude86"}, "geometry": {"type": "Point", "coordinates": [1.081133, 49.921788]}}, {"type": "Feature", "properties": {"start": "Maromme", "stop_name": "Saint-Aubin-sur-Scie", "type": "Gare accessible", "transport": "TER", "transport_legende": "\ud83d\udeb2 \u2764\ufe0f Train TER \ud83d\ude86"}, "geometry": {"type": "Point", "coordinates": [1.066664, 49.871748]}}, {"type": "Feature", "properties": {"start": "Maromme", "stop_name": "Longueville-sur-Scie", "type": "Gare accessible", "transport": "TER", "transport_legende": "\ud83d\udeb2 \u2764\ufe0f Train TER \ud83d\ude86"}, "geometry": {"type": "Point", "coordinates": [1.110448, 49.791817]}}, {"type": "Feature", "properties": {"start": "Maromme", "stop_name": "Auffay", "type": "Gare accessible", "transport": "TER", "transport_legende": "\ud83d\udeb2 \u2764\ufe0f Train TER \ud83d\ude86"}, "geometry": {"type": "Point", "coordinates": [1.098424, 49.716091]}}, {"type": "Feature", "properties": {"start": "Maromme", "stop_name": "Saint-Victor-l'Abbaye", "type": "Gare accessible", "transport": "TER", "transport_legende": "\ud83d\udeb2 \u2764\ufe0f Train TER \ud83d\ude86"}, "geometry": {"type": "Point", "coordinates": [1.109579, 49.677032]}}, {"type": "Feature", "properties": {"start": "Maromme", "stop_name": "Cl\u00e8res", "type": "Gare accessible", "transport": "TER", "transport_legende": "\ud83d\udeb2 \u2764\ufe0f Train TER \ud83d\ude86"}, "geometry": {"type": "Point", "coordinates": [1.106175, 49.599113]}}, {"type": "Feature", "properties": {"start": "Maromme", "stop_name": "Montville", "type": "Gare accessible", "transport": "TER", "transport_legende": "\ud83d\udeb2 \u2764\ufe0f Train TER \ud83d\ude86"}, "geometry": {"type": "Point", "coordinates": [1.070046, 49.551284]}}]}