{"type": "FeatureCollection", "features": [{"type": "Feature", "properties": {"start": "Martigny-Les-Gerbonvaux Centre", "stop_name": "Martigny-Les-Gerbonvaux Centre", "type": "Gare s\u00e9lectionn\u00e9e", "transport": "TER", "transport_legende": "\ud83d\udeb2 \u2764\ufe0f Train TER \ud83d\ude86"}, "geometry": {"type": "Point", "coordinates": [5.792737, 48.444816]}}, {"type": "Feature", "properties": {"start": "Martigny-Les-Gerbonvaux Centre", "stop_name": "Neufch\u00e2teau", "type": "Gare accessible", "transport": "TER", "transport_legende": "\ud83d\udeb2 \u2764\ufe0f Train TER \ud83d\ude86"}, "geometry": {"type": "Point", "coordinates": [5.691036, 48.358092]}}, {"type": "Feature", "properties": {"start": "Martigny-Les-Gerbonvaux Centre", "stop_name": "Neufch\u00e2teau H\u00f4pital", "type": "Gare accessible", "transport": "TER", "transport_legende": "\ud83d\udeb2 \u2764\ufe0f Train TER \ud83d\ude86"}, "geometry": {"type": "Point", "coordinates": [5.707194, 48.3697]}}, {"type": "Feature", "properties": {"start": "Martigny-Les-Gerbonvaux Centre", "stop_name": "Soulosse Route Nationale", "type": "Gare accessible", "transport": "TER", "transport_legende": "\ud83d\udeb2 \u2764\ufe0f Train TER \ud83d\ude86"}, "geometry": {"type": "Point", "coordinates": [5.731773, 48.401785]}}, {"type": "Feature", "properties": {"start": "Martigny-Les-Gerbonvaux Centre", "stop_name": "Autreville Centre", "type": "Gare accessible", "transport": "TER", "transport_legende": "\ud83d\udeb2 \u2764\ufe0f Train TER \ud83d\ude86"}, "geometry": {"type": "Point", "coordinates": [5.849088, 48.484054]}}, {"type": "Feature", "properties": {"start": "Martigny-Les-Gerbonvaux Centre", "stop_name": "Colombey-les-Belles Mairie", "type": "Gare accessible", "transport": "TER", "transport_legende": "\ud83d\udeb2 \u2764\ufe0f Train TER \ud83d\ude86"}, "geometry": {"type": "Point", "coordinates": [5.897083, 48.528805]}}, {"type": "Feature", "properties": {"start": "Martigny-Les-Gerbonvaux Centre", "stop_name": "Nancy", "type": "Gare accessible", "transport": "TER", "transport_legende": "\ud83d\udeb2 \u2764\ufe0f Train TER \ud83d\ude86"}, "geometry": {"type": "Point", "coordinates": [6.174579, 48.689857]}}, {"type": "Feature", "properties": {"start": "Martigny-Les-Gerbonvaux Centre", "stop_name": "Neufch\u00e2teau Lyc\u00e9e Professionnel", "type": "Gare accessible", "transport": "TER", "transport_legende": "\ud83d\udeb2 \u2764\ufe0f Train TER \ud83d\ude86"}, "geometry": {"type": "Point", "coordinates": [5.702226, 48.360794]}}, {"type": "Feature", "properties": {"start": "Martigny-Les-Gerbonvaux Centre", "stop_name": "Toul", "type": "Gare accessible", "transport": "TER", "transport_legende": "\ud83d\udeb2 \u2764\ufe0f Train TER \ud83d\ude86"}, "geometry": {"type": "Point", "coordinates": [5.880499, 48.679011]}}, {"type": "Feature", "properties": {"start": "Martigny-Les-Gerbonvaux Centre", "stop_name": "Liverdun", "type": "Gare accessible", "transport": "TER", "transport_legende": "\ud83d\udeb2 \u2764\ufe0f Train TER \ud83d\ude86"}, "geometry": {"type": "Point", "coordinates": [6.061669, 48.749387]}}]}