{"type": "FeatureCollection", "features": [{"type": "Feature", "properties": {"start": "Martel", "stop_name": "Martel", "type": "Gare s\u00e9lectionn\u00e9e", "transport": "TER", "nombre_trajet_moyen": 0.02, "transport_legende": "\ud83d\udeb2 \u2764\ufe0f Train TER \ud83d\ude86"}, "geometry": {"type": "Point", "coordinates": [1.607174, 44.936361]}}, {"type": "Feature", "properties": {"start": "Martel", "stop_name": "Capdenac", "type": "Gare accessible", "transport": "TER", "nombre_trajet_moyen": 0.02, "transport_legende": "\ud83d\udeb2 \u2764\ufe0f Train TER \ud83d\ude86"}, "geometry": {"type": "Point", "coordinates": [2.077963, 44.578246]}}, {"type": "Feature", "properties": {"start": "Martel", "stop_name": "Figeac", "type": "Gare accessible", "transport": "TER", "nombre_trajet_moyen": 0.02, "transport_legende": "\ud83d\udeb2 \u2764\ufe0f Train TER \ud83d\ude86"}, "geometry": {"type": "Point", "coordinates": [2.037355, 44.603515]}}, {"type": "Feature", "properties": {"start": "Martel", "stop_name": "Assier", "type": "Gare accessible", "transport": "TER", "nombre_trajet_moyen": 0.02, "transport_legende": "\ud83d\udeb2 \u2764\ufe0f Train TER \ud83d\ude86"}, "geometry": {"type": "Point", "coordinates": [1.869757, 44.67468]}}, {"type": "Feature", "properties": {"start": "Martel", "stop_name": "Gramat", "type": "Gare accessible", "transport": "TER", "nombre_trajet_moyen": 0.02, "transport_legende": "\ud83d\udeb2 \u2764\ufe0f Train TER \ud83d\ude86"}, "geometry": {"type": "Point", "coordinates": [1.722343, 44.773549]}}, {"type": "Feature", "properties": {"start": "Martel", "stop_name": "Rocamadour - Padirac", "type": "Gare accessible", "transport": "TER", "nombre_trajet_moyen": 0.02, "transport_legende": "\ud83d\udeb2 \u2764\ufe0f Train TER \ud83d\ude86"}, "geometry": {"type": "Point", "coordinates": [1.657104, 44.818243]}}, {"type": "Feature", "properties": {"start": "Martel", "stop_name": "Brive-la-Gaillarde", "type": "Gare accessible", "transport": "TER", "nombre_trajet_moyen": 0.02, "transport_legende": "\ud83d\udeb2 \u2764\ufe0f Train TER \ud83d\ude86"}, "geometry": {"type": "Point", "coordinates": [1.528634, 45.152601]}}]}