{"type": "FeatureCollection", "features": [{"type": "Feature", "properties": {"start": "Mennetou-sur-Cher", "stop_name": "Mennetou-sur-Cher", "type": "Gare s\u00e9lectionn\u00e9e", "transport": "TER", "nombre_trajet_moyen": 2.46, "transport_legende": "\ud83d\udeb2 \u2764\ufe0f Train TER \ud83d\ude86"}, "geometry": {"type": "Point", "coordinates": [1.876461, 47.268938]}}, {"type": "Feature", "properties": {"start": "Mennetou-sur-Cher", "stop_name": "Tours", "type": "Gare accessible", "transport": "TER", "nombre_trajet_moyen": 2.46, "transport_legende": "\ud83d\udeb2 \u2764\ufe0f Train TER \ud83d\ude86"}, "geometry": {"type": "Point", "coordinates": [0.692831, 47.389866]}}, {"type": "Feature", "properties": {"start": "Mennetou-sur-Cher", "stop_name": "Saint-Pierre-des-Corps", "type": "Gare accessible", "transport": "TER", "nombre_trajet_moyen": 2.46, "transport_legende": "\ud83d\udeb2 \u2764\ufe0f Train TER \ud83d\ude86"}, "geometry": {"type": "Point", "coordinates": [0.723539, 47.38614]}}, {"type": "Feature", "properties": {"start": "Mennetou-sur-Cher", "stop_name": "Bl\u00e9r\u00e9 - la Croix", "type": "Gare accessible", "transport": "TER", "nombre_trajet_moyen": 2.46, "transport_legende": "\ud83d\udeb2 \u2764\ufe0f Train TER \ud83d\ude86"}, "geometry": {"type": "Point", "coordinates": [0.987745, 47.337741]}}, {"type": "Feature", "properties": {"start": "Mennetou-sur-Cher", "stop_name": "Chenonceaux", "type": "Gare accessible", "transport": "TER", "nombre_trajet_moyen": 2.46, "transport_legende": "\ud83d\udeb2 \u2764\ufe0f Train TER \ud83d\ude86"}, "geometry": {"type": "Point", "coordinates": [1.065446, 47.330631]}}, {"type": "Feature", "properties": {"start": "Mennetou-sur-Cher", "stop_name": "Montrichard", "type": "Gare accessible", "transport": "TER", "nombre_trajet_moyen": 2.46, "transport_legende": "\ud83d\udeb2 \u2764\ufe0f Train TER \ud83d\ude86"}, "geometry": {"type": "Point", "coordinates": [1.171782, 47.343572]}}, {"type": "Feature", "properties": {"start": "Mennetou-sur-Cher", "stop_name": "Saint-Aignan - Noyers", "type": "Gare accessible", "transport": "TER", "nombre_trajet_moyen": 2.46, "transport_legende": "\ud83d\udeb2 \u2764\ufe0f Train TER \ud83d\ude86"}, "geometry": {"type": "Point", "coordinates": [1.383626, 47.286724]}}, {"type": "Feature", "properties": {"start": "Mennetou-sur-Cher", "stop_name": "Selles-sur-Cher", "type": "Gare accessible", "transport": "TER", "nombre_trajet_moyen": 2.46, "transport_legende": "\ud83d\udeb2 \u2764\ufe0f Train TER \ud83d\ude86"}, "geometry": {"type": "Point", "coordinates": [1.546045, 47.281511]}}, {"type": "Feature", "properties": {"start": "Mennetou-sur-Cher", "stop_name": "Gi\u00e8vres", "type": "Gare accessible", "transport": "TER", "nombre_trajet_moyen": 2.46, "transport_legende": "\ud83d\udeb2 \u2764\ufe0f Train TER \ud83d\ude86"}, "geometry": {"type": "Point", "coordinates": [1.667814, 47.27878]}}, {"type": "Feature", "properties": {"start": "Mennetou-sur-Cher", "stop_name": "Villefranche-sur-Cher", "type": "Gare accessible", "transport": "TER", "nombre_trajet_moyen": 2.46, "transport_legende": "\ud83d\udeb2 \u2764\ufe0f Train TER \ud83d\ude86"}, "geometry": {"type": "Point", "coordinates": [1.768056, 47.29478]}}, {"type": "Feature", "properties": {"start": "Mennetou-sur-Cher", "stop_name": "Vierzon", "type": "Gare accessible", "transport": "TER", "nombre_trajet_moyen": 2.46, "transport_legende": "\ud83d\udeb2 \u2764\ufe0f Train TER \ud83d\ude86"}, "geometry": {"type": "Point", "coordinates": [2.059869, 47.226474]}}, {"type": "Feature", "properties": {"start": "Mennetou-sur-Cher", "stop_name": "Bourges", "type": "Gare accessible", "transport": "TER", "nombre_trajet_moyen": 2.46, "transport_legende": "\ud83d\udeb2 \u2764\ufe0f Train TER \ud83d\ude86"}, "geometry": {"type": "Point", "coordinates": [2.394236, 47.094129]}}, {"type": "Feature", "properties": {"start": "Mennetou-sur-Cher", "stop_name": "Saint-Germain-du-Puy", "type": "Gare accessible", "transport": "TER", "nombre_trajet_moyen": 0.85, "transport_legende": "\ud83d\udeb2 \u2764\ufe0f Train TER \ud83d\ude86"}, "geometry": {"type": "Point", "coordinates": [2.484833, 47.096554]}}, {"type": "Feature", "properties": {"start": "Mennetou-sur-Cher", "stop_name": "Avord", "type": "Gare accessible", "transport": "TER", "nombre_trajet_moyen": 2.09, "transport_legende": "\ud83d\udeb2 \u2764\ufe0f Train TER \ud83d\ude86"}, "geometry": {"type": "Point", "coordinates": [2.652335, 47.034874]}}, {"type": "Feature", "properties": {"start": "Mennetou-sur-Cher", "stop_name": "Bengy", "type": "Gare accessible", "transport": "TER", "nombre_trajet_moyen": 0.8, "transport_legende": "\ud83d\udeb2 \u2764\ufe0f Train TER \ud83d\ude86"}, "geometry": {"type": "Point", "coordinates": [2.749149, 47.000438]}}, {"type": "Feature", "properties": {"start": "Mennetou-sur-Cher", "stop_name": "N\u00e9rondes", "type": "Gare accessible", "transport": "TER", "nombre_trajet_moyen": 0.85, "transport_legende": "\ud83d\udeb2 \u2764\ufe0f Train TER \ud83d\ude86"}, "geometry": {"type": "Point", "coordinates": [2.82217, 46.99969]}}, {"type": "Feature", "properties": {"start": "Mennetou-sur-Cher", "stop_name": "La Guerche-sur-l'Aubois", "type": "Gare accessible", "transport": "TER", "nombre_trajet_moyen": 0.85, "transport_legende": "\ud83d\udeb2 \u2764\ufe0f Train TER \ud83d\ude86"}, "geometry": {"type": "Point", "coordinates": [2.948536, 46.947816]}}, {"type": "Feature", "properties": {"start": "Mennetou-sur-Cher", "stop_name": "Nevers", "type": "Gare accessible", "transport": "TER", "nombre_trajet_moyen": 2.46, "transport_legende": "\ud83d\udeb2 \u2764\ufe0f Train TER \ud83d\ude86"}, "geometry": {"type": "Point", "coordinates": [3.150743, 46.987282]}}, {"type": "Feature", "properties": {"start": "Mennetou-sur-Cher", "stop_name": "Chissay-en-Touraine", "type": "Gare accessible", "transport": "TER", "nombre_trajet_moyen": 0.69, "transport_legende": "\ud83d\udeb2 \u2764\ufe0f Train TER \ud83d\ude86"}, "geometry": {"type": "Point", "coordinates": [1.133761, 47.334852]}}]}