{"type": "FeatureCollection", "features": [{"type": "Feature", "properties": {"start": "Modane", "stop_name": "Modane", "type": "Gare s\u00e9lectionn\u00e9e", "transport": "TER", "nombre_trajet_moyen": 8.01, "transport_legende": "\ud83d\udeb2 \u2764\ufe0f Train TER \ud83d\ude86"}, "geometry": {"type": "Point", "coordinates": [6.659139, 45.193555]}}, {"type": "Feature", "properties": {"start": "Modane", "stop_name": "Saint-Michel - Valloire", "type": "Gare accessible", "transport": "TER", "nombre_trajet_moyen": 8.01, "transport_legende": "\ud83d\udeb2 \u2764\ufe0f Train TER \ud83d\ude86"}, "geometry": {"type": "Point", "coordinates": [6.471914, 45.216916]}}, {"type": "Feature", "properties": {"start": "Modane", "stop_name": "Saint-Jean-de-Maurienne Arvan", "type": "Gare accessible", "transport": "TER", "nombre_trajet_moyen": 8.01, "transport_legende": "\ud83d\udeb2 \u2764\ufe0f Train TER \ud83d\ude86"}, "geometry": {"type": "Point", "coordinates": [6.354716, 45.277542]}}, {"type": "Feature", "properties": {"start": "Modane", "stop_name": "Saint-Avre - La Chambre", "type": "Gare accessible", "transport": "TER", "nombre_trajet_moyen": 8.01, "transport_legende": "\ud83d\udeb2 \u2764\ufe0f Train TER \ud83d\ude86"}, "geometry": {"type": "Point", "coordinates": [6.302867, 45.35312]}}, {"type": "Feature", "properties": {"start": "Modane", "stop_name": "\u00c9pierre - Saint-L\u00e9ger", "type": "Gare accessible", "transport": "TER", "nombre_trajet_moyen": 6.42, "transport_legende": "\ud83d\udeb2 \u2764\ufe0f Train TER \ud83d\ude86"}, "geometry": {"type": "Point", "coordinates": [6.292486, 45.457008]}}, {"type": "Feature", "properties": {"start": "Modane", "stop_name": "Aiguebelle", "type": "Gare accessible", "transport": "TER", "nombre_trajet_moyen": 6.69, "transport_legende": "\ud83d\udeb2 \u2764\ufe0f Train TER \ud83d\ude86"}, "geometry": {"type": "Point", "coordinates": [6.306737, 45.543703]}}, {"type": "Feature", "properties": {"start": "Modane", "stop_name": "Chamousset", "type": "Gare accessible", "transport": "TER", "nombre_trajet_moyen": 6.42, "transport_legende": "\ud83d\udeb2 \u2764\ufe0f Train TER \ud83d\ude86"}, "geometry": {"type": "Point", "coordinates": [6.206743, 45.557574]}}, {"type": "Feature", "properties": {"start": "Modane", "stop_name": "Saint-Pierre-d'Albigny", "type": "Gare accessible", "transport": "TER", "nombre_trajet_moyen": 6.66, "transport_legende": "\ud83d\udeb2 \u2764\ufe0f Train TER \ud83d\ude86"}, "geometry": {"type": "Point", "coordinates": [6.156289, 45.557399]}}, {"type": "Feature", "properties": {"start": "Modane", "stop_name": "Montm\u00e9lian", "type": "Gare accessible", "transport": "TER", "nombre_trajet_moyen": 6.66, "transport_legende": "\ud83d\udeb2 \u2764\ufe0f Train TER \ud83d\ude86"}, "geometry": {"type": "Point", "coordinates": [6.043175, 45.503082]}}, {"type": "Feature", "properties": {"start": "Modane", "stop_name": "Chamb\u00e9ry - Challes-les-Eaux", "type": "Gare accessible", "transport": "TER", "nombre_trajet_moyen": 8.01, "transport_legende": "\ud83d\udeb2 \u2764\ufe0f Train TER \ud83d\ude86"}, "geometry": {"type": "Point", "coordinates": [5.919547, 45.571302]}}, {"type": "Feature", "properties": {"start": "Modane", "stop_name": "Lyon Part Dieu", "type": "Gare accessible", "transport": "TER", "nombre_trajet_moyen": 0.4, "transport_legende": "\ud83d\udeb2 \u2764\ufe0f Train TER \ud83d\ude86"}, "geometry": {"type": "Point", "coordinates": [4.859409, 45.760596]}}, {"type": "Feature", "properties": {"start": "Modane", "stop_name": "Bourgoin-Jallieu", "type": "Gare accessible", "transport": "TER", "nombre_trajet_moyen": 0.4, "transport_legende": "\ud83d\udeb2 \u2764\ufe0f Train TER \ud83d\ude86"}, "geometry": {"type": "Point", "coordinates": [5.273362, 45.583982]}}, {"type": "Feature", "properties": {"start": "Modane", "stop_name": "La Tour-du-Pin", "type": "Gare accessible", "transport": "TER", "nombre_trajet_moyen": 0.4, "transport_legende": "\ud83d\udeb2 \u2764\ufe0f Train TER \ud83d\ude86"}, "geometry": {"type": "Point", "coordinates": [5.449582, 45.560287]}}, {"type": "Feature", "properties": {"start": "Modane", "stop_name": "Pont-de-Beauvoisin", "type": "Gare accessible", "transport": "TER", "nombre_trajet_moyen": 0.4, "transport_legende": "\ud83d\udeb2 \u2764\ufe0f Train TER \ud83d\ude86"}, "geometry": {"type": "Point", "coordinates": [5.680801, 45.524597]}}, {"type": "Feature", "properties": {"start": "Modane", "stop_name": "L\u00e9pin-le-Lac - La Bauche", "type": "Gare accessible", "transport": "TER", "nombre_trajet_moyen": 0.4, "transport_legende": "\ud83d\udeb2 \u2764\ufe0f Train TER \ud83d\ude86"}, "geometry": {"type": "Point", "coordinates": [5.764584, 45.541547]}}]}