{"type": "FeatureCollection", "features": [{"type": "Feature", "properties": {"start": "Monnerville", "stop_name": "Monnerville", "type": "Gare s\u00e9lectionn\u00e9e", "transport": "TER", "transport_legende": "\ud83d\udeb2 \u2764\ufe0f Train TER \ud83d\ude86"}, "geometry": {"type": "Point", "coordinates": [2.032059, 48.348492]}}, {"type": "Feature", "properties": {"start": "Monnerville", "stop_name": "Paris Austerlitz", "type": "Gare accessible", "transport": "TER", "transport_legende": "\ud83d\udeb2 \u2764\ufe0f Train TER \ud83d\ude86"}, "geometry": {"type": "Point", "coordinates": [2.364891, 48.842285]}}, {"type": "Feature", "properties": {"start": "Monnerville", "stop_name": "\u00c9tampes", "type": "Gare accessible", "transport": "TER", "transport_legende": "\ud83d\udeb2 \u2764\ufe0f Train TER \ud83d\ude86"}, "geometry": {"type": "Point", "coordinates": [2.159487, 48.436625]}}, {"type": "Feature", "properties": {"start": "Monnerville", "stop_name": "Guillerval", "type": "Gare accessible", "transport": "TER", "transport_legende": "\ud83d\udeb2 \u2764\ufe0f Train TER \ud83d\ude86"}, "geometry": {"type": "Point", "coordinates": [2.059875, 48.374745]}}, {"type": "Feature", "properties": {"start": "Monnerville", "stop_name": "Angerville", "type": "Gare accessible", "transport": "TER", "transport_legende": "\ud83d\udeb2 \u2764\ufe0f Train TER \ud83d\ude86"}, "geometry": {"type": "Point", "coordinates": [2.003526, 48.311632]}}, {"type": "Feature", "properties": {"start": "Monnerville", "stop_name": "Boisseaux", "type": "Gare accessible", "transport": "TER", "transport_legende": "\ud83d\udeb2 \u2764\ufe0f Train TER \ud83d\ude86"}, "geometry": {"type": "Point", "coordinates": [1.973296, 48.256418]}}, {"type": "Feature", "properties": {"start": "Monnerville", "stop_name": "Toury", "type": "Gare accessible", "transport": "TER", "transport_legende": "\ud83d\udeb2 \u2764\ufe0f Train TER \ud83d\ude86"}, "geometry": {"type": "Point", "coordinates": [1.939565, 48.193606]}}, {"type": "Feature", "properties": {"start": "Monnerville", "stop_name": "Ch\u00e2teau-Gaillard", "type": "Gare accessible", "transport": "TER", "transport_legende": "\ud83d\udeb2 \u2764\ufe0f Train TER \ud83d\ude86"}, "geometry": {"type": "Point", "coordinates": [1.912815, 48.14169]}}, {"type": "Feature", "properties": {"start": "Monnerville", "stop_name": "Artenay", "type": "Gare accessible", "transport": "TER", "transport_legende": "\ud83d\udeb2 \u2764\ufe0f Train TER \ud83d\ude86"}, "geometry": {"type": "Point", "coordinates": [1.883226, 48.081057]}}, {"type": "Feature", "properties": {"start": "Monnerville", "stop_name": "Chevilly", "type": "Gare accessible", "transport": "TER", "transport_legende": "\ud83d\udeb2 \u2764\ufe0f Train TER \ud83d\ude86"}, "geometry": {"type": "Point", "coordinates": [1.879113, 48.026672]}}, {"type": "Feature", "properties": {"start": "Monnerville", "stop_name": "Cercottes", "type": "Gare accessible", "transport": "TER", "transport_legende": "\ud83d\udeb2 \u2764\ufe0f Train TER \ud83d\ude86"}, "geometry": {"type": "Point", "coordinates": [1.884981, 47.986155]}}, {"type": "Feature", "properties": {"start": "Monnerville", "stop_name": "Les Aubrais", "type": "Gare accessible", "transport": "TER", "transport_legende": "\ud83d\udeb2 \u2764\ufe0f Train TER \ud83d\ude86"}, "geometry": {"type": "Point", "coordinates": [1.906629, 47.926801]}}, {"type": "Feature", "properties": {"start": "Monnerville", "stop_name": "Orl\u00e9ans", "type": "Gare accessible", "transport": "TER", "transport_legende": "\ud83d\udeb2 \u2764\ufe0f Train TER \ud83d\ude86"}, "geometry": {"type": "Point", "coordinates": [1.904242, 47.907891]}}]}