{"type": "FeatureCollection", "features": [{"type": "Feature", "properties": {"start": "Mont de Terre", "stop_name": "Mont de Terre", "type": "Gare s\u00e9lectionn\u00e9e", "transport": "TER", "transport_legende": "\ud83d\udeb2 \u2764\ufe0f Train TER \ud83d\ude86"}, "geometry": {"type": "Point", "coordinates": [3.096004, 50.618045]}}, {"type": "Feature", "properties": {"start": "Mont de Terre", "stop_name": "Valenciennes", "type": "Gare accessible", "transport": "TER", "transport_legende": "\ud83d\udeb2 \u2764\ufe0f Train TER \ud83d\ude86"}, "geometry": {"type": "Point", "coordinates": [3.517124, 50.363187]}}, {"type": "Feature", "properties": {"start": "Mont de Terre", "stop_name": "Saint-Amand-les-Eaux", "type": "Gare accessible", "transport": "TER", "transport_legende": "\ud83d\udeb2 \u2764\ufe0f Train TER \ud83d\ude86"}, "geometry": {"type": "Point", "coordinates": [3.419371, 50.443342]}}, {"type": "Feature", "properties": {"start": "Mont de Terre", "stop_name": "Rosult", "type": "Gare accessible", "transport": "TER", "transport_legende": "\ud83d\udeb2 \u2764\ufe0f Train TER \ud83d\ude86"}, "geometry": {"type": "Point", "coordinates": [3.348995, 50.456425]}}, {"type": "Feature", "properties": {"start": "Mont de Terre", "stop_name": "Landas", "type": "Gare accessible", "transport": "TER", "transport_legende": "\ud83d\udeb2 \u2764\ufe0f Train TER \ud83d\ude86"}, "geometry": {"type": "Point", "coordinates": [3.290617, 50.46879]}}, {"type": "Feature", "properties": {"start": "Mont de Terre", "stop_name": "Orchies", "type": "Gare accessible", "transport": "TER", "transport_legende": "\ud83d\udeb2 \u2764\ufe0f Train TER \ud83d\ude86"}, "geometry": {"type": "Point", "coordinates": [3.248871, 50.477028]}}, {"type": "Feature", "properties": {"start": "Mont de Terre", "stop_name": "Nomain", "type": "Gare accessible", "transport": "TER", "transport_legende": "\ud83d\udeb2 \u2764\ufe0f Train TER \ud83d\ude86"}, "geometry": {"type": "Point", "coordinates": [3.205983, 50.50252]}}, {"type": "Feature", "properties": {"start": "Mont de Terre", "stop_name": "Templeuve", "type": "Gare accessible", "transport": "TER", "transport_legende": "\ud83d\udeb2 \u2764\ufe0f Train TER \ud83d\ude86"}, "geometry": {"type": "Point", "coordinates": [3.175668, 50.528694]}}, {"type": "Feature", "properties": {"start": "Mont de Terre", "stop_name": "Fretin", "type": "Gare accessible", "transport": "TER", "transport_legende": "\ud83d\udeb2 \u2764\ufe0f Train TER \ud83d\ude86"}, "geometry": {"type": "Point", "coordinates": [3.149396, 50.55996]}}, {"type": "Feature", "properties": {"start": "Mont de Terre", "stop_name": "Lesquin", "type": "Gare accessible", "transport": "TER", "transport_legende": "\ud83d\udeb2 \u2764\ufe0f Train TER \ud83d\ude86"}, "geometry": {"type": "Point", "coordinates": [3.117714, 50.590685]}}, {"type": "Feature", "properties": {"start": "Mont de Terre", "stop_name": "Lille Flandres", "type": "Gare accessible", "transport": "TER", "transport_legende": "\ud83d\udeb2 \u2764\ufe0f Train TER \ud83d\ude86"}, "geometry": {"type": "Point", "coordinates": [3.06987, 50.636577]}}, {"type": "Feature", "properties": {"start": "Mont de Terre", "stop_name": "Ennevelin", "type": "Gare accessible", "transport": "TER", "transport_legende": "\ud83d\udeb2 \u2764\ufe0f Train TER \ud83d\ude86"}, "geometry": {"type": "Point", "coordinates": [3.158711, 50.549123]}}]}