{"type": "FeatureCollection", "features": [{"type": "Feature", "properties": {"start": "Montreuil-sur-Ille", "stop_name": "Montreuil-sur-Ille", "type": "Gare s\u00e9lectionn\u00e9e", "transport": "TER", "nombre_trajet_moyen": 7.8, "transport_legende": "\ud83d\udeb2 \u2764\ufe0f Train TER \ud83d\ude86"}, "geometry": {"type": "Point", "coordinates": [-1.674155, 48.307292]}}, {"type": "Feature", "properties": {"start": "Montreuil-sur-Ille", "stop_name": "Saint-Malo", "type": "Gare accessible", "transport": "TER", "nombre_trajet_moyen": 6.92, "transport_legende": "\ud83d\udeb2 \u2764\ufe0f Train TER \ud83d\ude86"}, "geometry": {"type": "Point", "coordinates": [-2.004158, 48.646859]}}, {"type": "Feature", "properties": {"start": "Montreuil-sur-Ille", "stop_name": "La Gouesni\u00e8re - Cancale", "type": "Gare accessible", "transport": "TER", "nombre_trajet_moyen": 5.19, "transport_legende": "\ud83d\udeb2 \u2764\ufe0f Train TER \ud83d\ude86"}, "geometry": {"type": "Point", "coordinates": [-1.905688, 48.614456]}}, {"type": "Feature", "properties": {"start": "Montreuil-sur-Ille", "stop_name": "Dol-de-Bretagne", "type": "Gare accessible", "transport": "TER", "nombre_trajet_moyen": 6.92, "transport_legende": "\ud83d\udeb2 \u2764\ufe0f Train TER \ud83d\ude86"}, "geometry": {"type": "Point", "coordinates": [-1.750536, 48.54425]}}, {"type": "Feature", "properties": {"start": "Montreuil-sur-Ille", "stop_name": "Combourg", "type": "Gare accessible", "transport": "TER", "nombre_trajet_moyen": 6.92, "transport_legende": "\ud83d\udeb2 \u2764\ufe0f Train TER \ud83d\ude86"}, "geometry": {"type": "Point", "coordinates": [-1.72792, 48.41609]}}, {"type": "Feature", "properties": {"start": "Montreuil-sur-Ille", "stop_name": "Pontchaillou", "type": "Gare accessible", "transport": "TER", "nombre_trajet_moyen": 7.8, "transport_legende": "\ud83d\udeb2 \u2764\ufe0f Train TER \ud83d\ude86"}, "geometry": {"type": "Point", "coordinates": [-1.691118, 48.118641]}}, {"type": "Feature", "properties": {"start": "Montreuil-sur-Ille", "stop_name": "Rennes", "type": "Gare accessible", "transport": "TER", "nombre_trajet_moyen": 7.8, "transport_legende": "\ud83d\udeb2 \u2764\ufe0f Train TER \ud83d\ude86"}, "geometry": {"type": "Point", "coordinates": [-1.672744, 48.103517]}}, {"type": "Feature", "properties": {"start": "Montreuil-sur-Ille", "stop_name": "Betton", "type": "Gare accessible", "transport": "TER", "nombre_trajet_moyen": 2.45, "transport_legende": "\ud83d\udeb2 \u2764\ufe0f Train TER \ud83d\ude86"}, "geometry": {"type": "Point", "coordinates": [-1.634475, 48.18148]}}, {"type": "Feature", "properties": {"start": "Montreuil-sur-Ille", "stop_name": "Chevaign\u00e9", "type": "Gare accessible", "transport": "TER", "nombre_trajet_moyen": 2.71, "transport_legende": "\ud83d\udeb2 \u2764\ufe0f Train TER \ud83d\ude86"}, "geometry": {"type": "Point", "coordinates": [-1.63036, 48.208582]}}, {"type": "Feature", "properties": {"start": "Montreuil-sur-Ille", "stop_name": "Saint-Germain-sur-Ille", "type": "Gare accessible", "transport": "TER", "nombre_trajet_moyen": 2.71, "transport_legende": "\ud83d\udeb2 \u2764\ufe0f Train TER \ud83d\ude86"}, "geometry": {"type": "Point", "coordinates": [-1.653885, 48.239662]}}, {"type": "Feature", "properties": {"start": "Montreuil-sur-Ille", "stop_name": "Saint-M\u00e9dard-sur-Ille", "type": "Gare accessible", "transport": "TER", "nombre_trajet_moyen": 2.71, "transport_legende": "\ud83d\udeb2 \u2764\ufe0f Train TER \ud83d\ude86"}, "geometry": {"type": "Point", "coordinates": [-1.667489, 48.274222]}}, {"type": "Feature", "properties": {"start": "Montreuil-sur-Ille", "stop_name": "La Fresnais", "type": "Gare accessible", "transport": "TER", "nombre_trajet_moyen": 2.53, "transport_legende": "\ud83d\udeb2 \u2764\ufe0f Train TER \ud83d\ude86"}, "geometry": {"type": "Point", "coordinates": [-1.843107, 48.593647]}}, {"type": "Feature", "properties": {"start": "Montreuil-sur-Ille", "stop_name": "Ding\u00e9", "type": "Gare accessible", "transport": "TER", "nombre_trajet_moyen": 1.68, "transport_legende": "\ud83d\udeb2 \u2764\ufe0f Train TER \ud83d\ude86"}, "geometry": {"type": "Point", "coordinates": [-1.685973, 48.350738]}}, {"type": "Feature", "properties": {"start": "Montreuil-sur-Ille", "stop_name": "Bonnemain", "type": "Gare accessible", "transport": "TER", "nombre_trajet_moyen": 0.99, "transport_legende": "\ud83d\udeb2 \u2764\ufe0f Train TER \ud83d\ude86"}, "geometry": {"type": "Point", "coordinates": [-1.765413, 48.476405]}}]}