{"type": "FeatureCollection", "features": [{"type": "Feature", "properties": {"start": "Montendre", "stop_name": "Montendre", "type": "Gare s\u00e9lectionn\u00e9e", "transport": "TER", "nombre_trajet_moyen": 3.81, "transport_legende": "\ud83d\udeb2 \u2764\ufe0f Train TER \ud83d\ude86"}, "geometry": {"type": "Point", "coordinates": [-0.396233, 45.280514]}}, {"type": "Feature", "properties": {"start": "Montendre", "stop_name": "Bordeaux Saint-Jean", "type": "Gare accessible", "transport": "TER", "nombre_trajet_moyen": 3.81, "transport_legende": "\ud83d\udeb2 \u2764\ufe0f Train TER \ud83d\ude86"}, "geometry": {"type": "Point", "coordinates": [-0.556697, 44.825873]}}, {"type": "Feature", "properties": {"start": "Montendre", "stop_name": "Cenon", "type": "Gare accessible", "transport": "TER", "nombre_trajet_moyen": 3.81, "transport_legende": "\ud83d\udeb2 \u2764\ufe0f Train TER \ud83d\ude86"}, "geometry": {"type": "Point", "coordinates": [-0.533649, 44.856347]}}, {"type": "Feature", "properties": {"start": "Montendre", "stop_name": "Saint-Andr\u00e9-de-Cubzac", "type": "Gare accessible", "transport": "TER", "nombre_trajet_moyen": 3.81, "transport_legende": "\ud83d\udeb2 \u2764\ufe0f Train TER \ud83d\ude86"}, "geometry": {"type": "Point", "coordinates": [-0.44048, 44.99122]}}, {"type": "Feature", "properties": {"start": "Montendre", "stop_name": "Saint-Mariens - Saint-Yzan", "type": "Gare accessible", "transport": "TER", "nombre_trajet_moyen": 3.81, "transport_legende": "\ud83d\udeb2 \u2764\ufe0f Train TER \ud83d\ude86"}, "geometry": {"type": "Point", "coordinates": [-0.391834, 45.139057]}}, {"type": "Feature", "properties": {"start": "Montendre", "stop_name": "Jonzac", "type": "Gare accessible", "transport": "TER", "nombre_trajet_moyen": 3.81, "transport_legende": "\ud83d\udeb2 \u2764\ufe0f Train TER \ud83d\ude86"}, "geometry": {"type": "Point", "coordinates": [-0.44164, 45.438746]}}, {"type": "Feature", "properties": {"start": "Montendre", "stop_name": "Pons", "type": "Gare accessible", "transport": "TER", "nombre_trajet_moyen": 3.81, "transport_legende": "\ud83d\udeb2 \u2764\ufe0f Train TER \ud83d\ude86"}, "geometry": {"type": "Point", "coordinates": [-0.539021, 45.578213]}}, {"type": "Feature", "properties": {"start": "Montendre", "stop_name": "Saintes", "type": "Gare accessible", "transport": "TER", "nombre_trajet_moyen": 3.81, "transport_legende": "\ud83d\udeb2 \u2764\ufe0f Train TER \ud83d\ude86"}, "geometry": {"type": "Point", "coordinates": [-0.6179, 45.74874]}}, {"type": "Feature", "properties": {"start": "Montendre", "stop_name": "Bussac", "type": "Gare accessible", "transport": "TER", "nombre_trajet_moyen": 0.69, "transport_legende": "\ud83d\udeb2 \u2764\ufe0f Train TER \ud83d\ude86"}, "geometry": {"type": "Point", "coordinates": [-0.368249, 45.212034]}}, {"type": "Feature", "properties": {"start": "Montendre", "stop_name": "Rochefort", "type": "Gare accessible", "transport": "TER", "nombre_trajet_moyen": 3.68, "transport_legende": "\ud83d\udeb2 \u2764\ufe0f Train TER \ud83d\ude86"}, "geometry": {"type": "Point", "coordinates": [-0.963556, 45.947189]}}, {"type": "Feature", "properties": {"start": "Montendre", "stop_name": "Ch\u00e2telaillon", "type": "Gare accessible", "transport": "TER", "nombre_trajet_moyen": 3.68, "transport_legende": "\ud83d\udeb2 \u2764\ufe0f Train TER \ud83d\ude86"}, "geometry": {"type": "Point", "coordinates": [-1.091118, 46.078282]}}, {"type": "Feature", "properties": {"start": "Montendre", "stop_name": "La Rochelle", "type": "Gare accessible", "transport": "TER", "nombre_trajet_moyen": 3.68, "transport_legende": "\ud83d\udeb2 \u2764\ufe0f Train TER \ud83d\ude86"}, "geometry": {"type": "Point", "coordinates": [-1.145853, 46.152705]}}, {"type": "Feature", "properties": {"start": "Montendre", "stop_name": "La Rochelle Porte Dauphine", "type": "Gare accessible", "transport": "TER", "nombre_trajet_moyen": 1.25, "transport_legende": "\ud83d\udeb2 \u2764\ufe0f Train TER \ud83d\ude86"}, "geometry": {"type": "Point", "coordinates": [-1.151875, 46.167616]}}]}