{"type": "FeatureCollection", "features": [{"type": "Feature", "properties": {"start": "Mutzig Porte Centre", "stop_name": "Mutzig Porte Centre", "type": "Gare s\u00e9lectionn\u00e9e", "transport": "TER", "transport_legende": "\ud83d\udeb2 \u2764\ufe0f Train TER \ud83d\ude86"}, "geometry": {"type": "Point", "coordinates": [7.456477, 48.538565]}}, {"type": "Feature", "properties": {"start": "Mutzig Porte Centre", "stop_name": "Strasbourg", "type": "Gare accessible", "transport": "TER", "transport_legende": "\ud83d\udeb2 \u2764\ufe0f Train TER \ud83d\ude86"}, "geometry": {"type": "Point", "coordinates": [7.734793, 48.584532]}}, {"type": "Feature", "properties": {"start": "Mutzig Porte Centre", "stop_name": "Molsheim", "type": "Gare accessible", "transport": "TER", "transport_legende": "\ud83d\udeb2 \u2764\ufe0f Train TER \ud83d\ude86"}, "geometry": {"type": "Point", "coordinates": [7.500284, 48.537151]}}, {"type": "Feature", "properties": {"start": "Mutzig Porte Centre", "stop_name": "Mutzig Passage \u00e0 Niveau", "type": "Gare accessible", "transport": "TER", "transport_legende": "\ud83d\udeb2 \u2764\ufe0f Train TER \ud83d\ude86"}, "geometry": {"type": "Point", "coordinates": [7.46108, 48.533919]}}, {"type": "Feature", "properties": {"start": "Mutzig Porte Centre", "stop_name": "Gresswiller Abri", "type": "Gare accessible", "transport": "TER", "transport_legende": "\ud83d\udeb2 \u2764\ufe0f Train TER \ud83d\ude86"}, "geometry": {"type": "Point", "coordinates": [7.42571, 48.535956]}}, {"type": "Feature", "properties": {"start": "Mutzig Porte Centre", "stop_name": "Heiligenberg - Mollkirch", "type": "Gare accessible", "transport": "TER", "transport_legende": "\ud83d\udeb2 \u2764\ufe0f Train TER \ud83d\ude86"}, "geometry": {"type": "Point", "coordinates": [7.381576, 48.52747]}}, {"type": "Feature", "properties": {"start": "Mutzig Porte Centre", "stop_name": "Urmatt", "type": "Gare accessible", "transport": "TER", "transport_legende": "\ud83d\udeb2 \u2764\ufe0f Train TER \ud83d\ude86"}, "geometry": {"type": "Point", "coordinates": [7.338299, 48.525984]}}, {"type": "Feature", "properties": {"start": "Mutzig Porte Centre", "stop_name": "Lutzelhouse Abri \u00c9glise", "type": "Gare accessible", "transport": "TER", "transport_legende": "\ud83d\udeb2 \u2764\ufe0f Train TER \ud83d\ude86"}, "geometry": {"type": "Point", "coordinates": [7.287589, 48.519287]}}, {"type": "Feature", "properties": {"start": "Mutzig Porte Centre", "stop_name": "Wisches \u00c9glise", "type": "Gare accessible", "transport": "TER", "transport_legende": "\ud83d\udeb2 \u2764\ufe0f Train TER \ud83d\ude86"}, "geometry": {"type": "Point", "coordinates": [7.268896, 48.508635]}}, {"type": "Feature", "properties": {"start": "Mutzig Porte Centre", "stop_name": "Russ-Hersbach", "type": "Gare accessible", "transport": "TER", "transport_legende": "\ud83d\udeb2 \u2764\ufe0f Train TER \ud83d\ude86"}, "geometry": {"type": "Point", "coordinates": [7.251925, 48.498221]}}, {"type": "Feature", "properties": {"start": "Mutzig Porte Centre", "stop_name": "Schirmeck - La Broque", "type": "Gare accessible", "transport": "TER", "transport_legende": "\ud83d\udeb2 \u2764\ufe0f Train TER \ud83d\ude86"}, "geometry": {"type": "Point", "coordinates": [7.216339, 48.479989]}}, {"type": "Feature", "properties": {"start": "Mutzig Porte Centre", "stop_name": "Rothau", "type": "Gare accessible", "transport": "TER", "transport_legende": "\ud83d\udeb2 \u2764\ufe0f Train TER \ud83d\ude86"}, "geometry": {"type": "Point", "coordinates": [7.207709, 48.459232]}}, {"type": "Feature", "properties": {"start": "Mutzig Porte Centre", "stop_name": "Entzheim A\u00e9roport", "type": "Gare accessible", "transport": "TER", "transport_legende": "\ud83d\udeb2 \u2764\ufe0f Train TER \ud83d\ude86"}, "geometry": {"type": "Point", "coordinates": [7.62794, 48.54699]}}, {"type": "Feature", "properties": {"start": "Mutzig Porte Centre", "stop_name": "Duppigheim", "type": "Gare accessible", "transport": "TER", "transport_legende": "\ud83d\udeb2 \u2764\ufe0f Train TER \ud83d\ude86"}, "geometry": {"type": "Point", "coordinates": [7.586809, 48.543967]}}, {"type": "Feature", "properties": {"start": "Mutzig Porte Centre", "stop_name": "Duttlenheim", "type": "Gare accessible", "transport": "TER", "transport_legende": "\ud83d\udeb2 \u2764\ufe0f Train TER \ud83d\ude86"}, "geometry": {"type": "Point", "coordinates": [7.566289, 48.545379]}}, {"type": "Feature", "properties": {"start": "Mutzig Porte Centre", "stop_name": "Dachstein", "type": "Gare accessible", "transport": "TER", "transport_legende": "\ud83d\udeb2 \u2764\ufe0f Train TER \ud83d\ude86"}, "geometry": {"type": "Point", "coordinates": [7.533004, 48.542855]}}, {"type": "Feature", "properties": {"start": "Mutzig Porte Centre", "stop_name": "Saint-Blaise-la-Roche", "type": "Gare accessible", "transport": "TER", "transport_legende": "\ud83d\udeb2 \u2764\ufe0f Train TER \ud83d\ude86"}, "geometry": {"type": "Point", "coordinates": [7.165336, 48.407333]}}, {"type": "Feature", "properties": {"start": "Mutzig Porte Centre", "stop_name": "Bourg-Bruche \u00c9glise", "type": "Gare accessible", "transport": "TER", "transport_legende": "\ud83d\udeb2 \u2764\ufe0f Train TER \ud83d\ude86"}, "geometry": {"type": "Point", "coordinates": [7.13517, 48.359044]}}, {"type": "Feature", "properties": {"start": "Mutzig Porte Centre", "stop_name": "Saales", "type": "Gare accessible", "transport": "TER", "transport_legende": "\ud83d\udeb2 \u2764\ufe0f Train TER \ud83d\ude86"}, "geometry": {"type": "Point", "coordinates": [7.110225, 48.347315]}}, {"type": "Feature", "properties": {"start": "Mutzig Porte Centre", "stop_name": "Molsheim Lyc\u00e9e Henri Meck", "type": "Gare accessible", "transport": "TER", "transport_legende": "\ud83d\udeb2 \u2764\ufe0f Train TER \ud83d\ude86"}, "geometry": {"type": "Point", "coordinates": [7.491254, 48.535658]}}]}