{"type": "FeatureCollection", "features": [{"type": "Feature", "properties": {"start": "Neuville", "stop_name": "Neuville", "type": "Gare s\u00e9lectionn\u00e9e", "transport": "TER", "nombre_trajet_moyen": 3.85, "transport_legende": "\ud83d\udeb2 \u2764\ufe0f Train TER \ud83d\ude86"}, "geometry": {"type": "Point", "coordinates": [0.199597, 48.07048]}}, {"type": "Feature", "properties": {"start": "Neuville", "stop_name": "Caen", "type": "Gare accessible", "transport": "TER", "nombre_trajet_moyen": 1.4, "transport_legende": "\ud83d\udeb2 \u2764\ufe0f Train TER \ud83d\ude86"}, "geometry": {"type": "Point", "coordinates": [-0.347613, 49.176354]}}, {"type": "Feature", "properties": {"start": "Neuville", "stop_name": "M\u00e9zidon - Canon", "type": "Gare accessible", "transport": "TER", "nombre_trajet_moyen": 1.4, "transport_legende": "\ud83d\udeb2 \u2764\ufe0f Train TER \ud83d\ude86"}, "geometry": {"type": "Point", "coordinates": [-0.074914, 49.070914]}}, {"type": "Feature", "properties": {"start": "Neuville", "stop_name": "Saint-Pierre-sur-Dives", "type": "Gare accessible", "transport": "TER", "nombre_trajet_moyen": 1.4, "transport_legende": "\ud83d\udeb2 \u2764\ufe0f Train TER \ud83d\ude86"}, "geometry": {"type": "Point", "coordinates": [-0.040585, 49.023106]}}, {"type": "Feature", "properties": {"start": "Neuville", "stop_name": "Argentan", "type": "Gare accessible", "transport": "TER", "nombre_trajet_moyen": 1.4, "transport_legende": "\ud83d\udeb2 \u2764\ufe0f Train TER \ud83d\ude86"}, "geometry": {"type": "Point", "coordinates": [-0.025291, 48.738545]}}, {"type": "Feature", "properties": {"start": "Neuville", "stop_name": "Surdon", "type": "Gare accessible", "transport": "TER", "nombre_trajet_moyen": 1.4, "transport_legende": "\ud83d\udeb2 \u2764\ufe0f Train TER \ud83d\ude86"}, "geometry": {"type": "Point", "coordinates": [0.13441, 48.664769]}}, {"type": "Feature", "properties": {"start": "Neuville", "stop_name": "S\u00e9es", "type": "Gare accessible", "transport": "TER", "nombre_trajet_moyen": 1.4, "transport_legende": "\ud83d\udeb2 \u2764\ufe0f Train TER \ud83d\ude86"}, "geometry": {"type": "Point", "coordinates": [0.166408, 48.599966]}}, {"type": "Feature", "properties": {"start": "Neuville", "stop_name": "Alen\u00e7on", "type": "Gare accessible", "transport": "TER", "nombre_trajet_moyen": 3.85, "transport_legende": "\ud83d\udeb2 \u2764\ufe0f Train TER \ud83d\ude86"}, "geometry": {"type": "Point", "coordinates": [0.098531, 48.433884]}}, {"type": "Feature", "properties": {"start": "Neuville", "stop_name": "La Hutte Coulombiers", "type": "Gare accessible", "transport": "TER", "nombre_trajet_moyen": 3.85, "transport_legende": "\ud83d\udeb2 \u2764\ufe0f Train TER \ud83d\ude86"}, "geometry": {"type": "Point", "coordinates": [0.105451, 48.303256]}}, {"type": "Feature", "properties": {"start": "Neuville", "stop_name": "Vivoin - Beaumont", "type": "Gare accessible", "transport": "TER", "nombre_trajet_moyen": 3.85, "transport_legende": "\ud83d\udeb2 \u2764\ufe0f Train TER \ud83d\ude86"}, "geometry": {"type": "Point", "coordinates": [0.144845, 48.230194]}}, {"type": "Feature", "properties": {"start": "Neuville", "stop_name": "Teill\u00e9", "type": "Gare accessible", "transport": "TER", "nombre_trajet_moyen": 3.85, "transport_legende": "\ud83d\udeb2 \u2764\ufe0f Train TER \ud83d\ude86"}, "geometry": {"type": "Point", "coordinates": [0.191443, 48.181339]}}, {"type": "Feature", "properties": {"start": "Neuville", "stop_name": "Montbizot", "type": "Gare accessible", "transport": "TER", "nombre_trajet_moyen": 3.85, "transport_legende": "\ud83d\udeb2 \u2764\ufe0f Train TER \ud83d\ude86"}, "geometry": {"type": "Point", "coordinates": [0.190823, 48.151323]}}, {"type": "Feature", "properties": {"start": "Neuville", "stop_name": "La Guierche", "type": "Gare accessible", "transport": "TER", "nombre_trajet_moyen": 3.85, "transport_legende": "\ud83d\udeb2 \u2764\ufe0f Train TER \ud83d\ude86"}, "geometry": {"type": "Point", "coordinates": [0.193108, 48.113941]}}, {"type": "Feature", "properties": {"start": "Neuville", "stop_name": "Le Mans", "type": "Gare accessible", "transport": "TER", "nombre_trajet_moyen": 3.85, "transport_legende": "\ud83d\udeb2 \u2764\ufe0f Train TER \ud83d\ude86"}, "geometry": {"type": "Point", "coordinates": [0.192614, 47.995615]}}, {"type": "Feature", "properties": {"start": "Neuville", "stop_name": "Tours", "type": "Gare accessible", "transport": "TER", "nombre_trajet_moyen": 0.69, "transport_legende": "\ud83d\udeb2 \u2764\ufe0f Train TER \ud83d\ude86"}, "geometry": {"type": "Point", "coordinates": [0.692831, 47.389866]}}, {"type": "Feature", "properties": {"start": "Neuville", "stop_name": "Neuill\u00e9-Pont-Pierre", "type": "Gare accessible", "transport": "TER", "nombre_trajet_moyen": 0.69, "transport_legende": "\ud83d\udeb2 \u2764\ufe0f Train TER \ud83d\ude86"}, "geometry": {"type": "Point", "coordinates": [0.564769, 47.557898]}}, {"type": "Feature", "properties": {"start": "Neuville", "stop_name": "Saint-Paterne", "type": "Gare accessible", "transport": "TER", "nombre_trajet_moyen": 0.69, "transport_legende": "\ud83d\udeb2 \u2764\ufe0f Train TER \ud83d\ude86"}, "geometry": {"type": "Point", "coordinates": [0.478455, 47.603993]}}, {"type": "Feature", "properties": {"start": "Neuville", "stop_name": "Ch\u00e2teau-du-Loir", "type": "Gare accessible", "transport": "TER", "nombre_trajet_moyen": 1.52, "transport_legende": "\ud83d\udeb2 \u2764\ufe0f Train TER \ud83d\ude86"}, "geometry": {"type": "Point", "coordinates": [0.414959, 47.683334]}}, {"type": "Feature", "properties": {"start": "Neuville", "stop_name": "Vaas", "type": "Gare accessible", "transport": "TER", "nombre_trajet_moyen": 1.52, "transport_legende": "\ud83d\udeb2 \u2764\ufe0f Train TER \ud83d\ude86"}, "geometry": {"type": "Point", "coordinates": [0.316452, 47.670707]}}, {"type": "Feature", "properties": {"start": "Neuville", "stop_name": "Aubign\u00e9-Racan", "type": "Gare accessible", "transport": "TER", "nombre_trajet_moyen": 1.52, "transport_legende": "\ud83d\udeb2 \u2764\ufe0f Train TER \ud83d\ude86"}, "geometry": {"type": "Point", "coordinates": [0.265866, 47.687014]}}, {"type": "Feature", "properties": {"start": "Neuville", "stop_name": "Mayet", "type": "Gare accessible", "transport": "TER", "nombre_trajet_moyen": 1.52, "transport_legende": "\ud83d\udeb2 \u2764\ufe0f Train TER \ud83d\ude86"}, "geometry": {"type": "Point", "coordinates": [0.265995, 47.760124]}}, {"type": "Feature", "properties": {"start": "Neuville", "stop_name": "\u00c9commoy", "type": "Gare accessible", "transport": "TER", "nombre_trajet_moyen": 1.52, "transport_legende": "\ud83d\udeb2 \u2764\ufe0f Train TER \ud83d\ude86"}, "geometry": {"type": "Point", "coordinates": [0.26907, 47.824548]}}, {"type": "Feature", "properties": {"start": "Neuville", "stop_name": "Laign\u00e9 - Saint-Gervais", "type": "Gare accessible", "transport": "TER", "nombre_trajet_moyen": 1.52, "transport_legende": "\ud83d\udeb2 \u2764\ufe0f Train TER \ud83d\ude86"}, "geometry": {"type": "Point", "coordinates": [0.217125, 47.874051]}}, {"type": "Feature", "properties": {"start": "Neuville", "stop_name": "Arnage", "type": "Gare accessible", "transport": "TER", "nombre_trajet_moyen": 1.52, "transport_legende": "\ud83d\udeb2 \u2764\ufe0f Train TER \ud83d\ude86"}, "geometry": {"type": "Point", "coordinates": [0.189882, 47.928541]}}, {"type": "Feature", "properties": {"start": "Neuville", "stop_name": "La Membrolle-sur-Choisille", "type": "Gare accessible", "transport": "TER", "nombre_trajet_moyen": 0.69, "transport_legende": "\ud83d\udeb2 \u2764\ufe0f Train TER \ud83d\ude86"}, "geometry": {"type": "Point", "coordinates": [0.640737, 47.431335]}}, {"type": "Feature", "properties": {"start": "Neuville", "stop_name": "Saint-Antoine-du-Rocher", "type": "Gare accessible", "transport": "TER", "nombre_trajet_moyen": 0.69, "transport_legende": "\ud83d\udeb2 \u2764\ufe0f Train TER \ud83d\ude86"}, "geometry": {"type": "Point", "coordinates": [0.616347, 47.503699]}}]}