{"type": "FeatureCollection", "features": [{"type": "Feature", "properties": {"start": "Noyon", "stop_name": "Noyon", "type": "Gare s\u00e9lectionn\u00e9e", "transport": "TER", "nombre_trajet_moyen": 9.95, "transport_legende": "\ud83d\udeb2 \u2764\ufe0f Train TER \ud83d\ude86"}, "geometry": {"type": "Point", "coordinates": [3.006434, 49.577351]}}, {"type": "Feature", "properties": {"start": "Noyon", "stop_name": "Paris Gare du Nord", "type": "Gare accessible", "transport": "TER", "nombre_trajet_moyen": 8.37, "transport_legende": "\ud83d\udeb2 \u2764\ufe0f Train TER \ud83d\ude86"}, "geometry": {"type": "Point", "coordinates": [2.354851, 48.880136]}}, {"type": "Feature", "properties": {"start": "Noyon", "stop_name": "Creil", "type": "Gare accessible", "transport": "TER", "nombre_trajet_moyen": 8.41, "transport_legende": "\ud83d\udeb2 \u2764\ufe0f Train TER \ud83d\ude86"}, "geometry": {"type": "Point", "coordinates": [2.469293, 49.263775]}}, {"type": "Feature", "properties": {"start": "Noyon", "stop_name": "Pont-Sainte-Maxence", "type": "Gare accessible", "transport": "TER", "nombre_trajet_moyen": 8.41, "transport_legende": "\ud83d\udeb2 \u2764\ufe0f Train TER \ud83d\ude86"}, "geometry": {"type": "Point", "coordinates": [2.602893, 49.309736]}}, {"type": "Feature", "properties": {"start": "Noyon", "stop_name": "Compi\u00e8gne", "type": "Gare accessible", "transport": "TER", "nombre_trajet_moyen": 9.95, "transport_legende": "\ud83d\udeb2 \u2764\ufe0f Train TER \ud83d\ude86"}, "geometry": {"type": "Point", "coordinates": [2.823693, 49.421977]}}, {"type": "Feature", "properties": {"start": "Noyon", "stop_name": "Chauny", "type": "Gare accessible", "transport": "TER", "nombre_trajet_moyen": 9.95, "transport_legende": "\ud83d\udeb2 \u2764\ufe0f Train TER \ud83d\ude86"}, "geometry": {"type": "Point", "coordinates": [3.223484, 49.611165]}}, {"type": "Feature", "properties": {"start": "Noyon", "stop_name": "Tergnier", "type": "Gare accessible", "transport": "TER", "nombre_trajet_moyen": 9.95, "transport_legende": "\ud83d\udeb2 \u2764\ufe0f Train TER \ud83d\ude86"}, "geometry": {"type": "Point", "coordinates": [3.297253, 49.659129]}}, {"type": "Feature", "properties": {"start": "Noyon", "stop_name": "Saint-Quentin", "type": "Gare accessible", "transport": "TER", "nombre_trajet_moyen": 9.95, "transport_legende": "\ud83d\udeb2 \u2764\ufe0f Train TER \ud83d\ude86"}, "geometry": {"type": "Point", "coordinates": [3.296958, 49.840025]}}, {"type": "Feature", "properties": {"start": "Noyon", "stop_name": "Aulnoye-Aymeries", "type": "Gare accessible", "transport": "TER", "nombre_trajet_moyen": 0.33, "transport_legende": "\ud83d\udeb2 \u2764\ufe0f Train TER \ud83d\ude86"}, "geometry": {"type": "Point", "coordinates": [3.843333, 50.197477]}}, {"type": "Feature", "properties": {"start": "Noyon", "stop_name": "Maubeuge", "type": "Gare accessible", "transport": "TER", "nombre_trajet_moyen": 0.33, "transport_legende": "\ud83d\udeb2 \u2764\ufe0f Train TER \ud83d\ude86"}, "geometry": {"type": "Point", "coordinates": [3.966765, 50.272952]}}, {"type": "Feature", "properties": {"start": "Noyon", "stop_name": "Cambrai", "type": "Gare accessible", "transport": "TER", "nombre_trajet_moyen": 0.25, "transport_legende": "\ud83d\udeb2 \u2764\ufe0f Train TER \ud83d\ude86"}, "geometry": {"type": "Point", "coordinates": [3.241197, 50.176582]}}, {"type": "Feature", "properties": {"start": "Noyon", "stop_name": "Caudry", "type": "Gare accessible", "transport": "TER", "nombre_trajet_moyen": 0.25, "transport_legende": "\ud83d\udeb2 \u2764\ufe0f Train TER \ud83d\ude86"}, "geometry": {"type": "Point", "coordinates": [3.40971, 50.111473]}}, {"type": "Feature", "properties": {"start": "Noyon", "stop_name": "Busigny", "type": "Gare accessible", "transport": "TER", "nombre_trajet_moyen": 0.25, "transport_legende": "\ud83d\udeb2 \u2764\ufe0f Train TER \ud83d\ude86"}, "geometry": {"type": "Point", "coordinates": [3.446436, 50.039547]}}, {"type": "Feature", "properties": {"start": "Noyon", "stop_name": "Rib\u00e9court", "type": "Gare accessible", "transport": "TER", "nombre_trajet_moyen": 4.35, "transport_legende": "\ud83d\udeb2 \u2764\ufe0f Train TER \ud83d\ude86"}, "geometry": {"type": "Point", "coordinates": [2.927092, 49.506302]}}, {"type": "Feature", "properties": {"start": "Noyon", "stop_name": "Thourotte", "type": "Gare accessible", "transport": "TER", "nombre_trajet_moyen": 4.35, "transport_legende": "\ud83d\udeb2 \u2764\ufe0f Train TER \ud83d\ude86"}, "geometry": {"type": "Point", "coordinates": [2.881771, 49.475429]}}, {"type": "Feature", "properties": {"start": "Noyon", "stop_name": "Longueil-Annel", "type": "Gare accessible", "transport": "TER", "nombre_trajet_moyen": 4.35, "transport_legende": "\ud83d\udeb2 \u2764\ufe0f Train TER \ud83d\ude86"}, "geometry": {"type": "Point", "coordinates": [2.862877, 49.466991]}}, {"type": "Feature", "properties": {"start": "Noyon", "stop_name": "Orry-la-Ville - Coye", "type": "Gare accessible", "transport": "TER", "nombre_trajet_moyen": 0.84, "transport_legende": "\ud83d\udeb2 \u2764\ufe0f Train TER \ud83d\ude86"}, "geometry": {"type": "Point", "coordinates": [2.489997, 49.13893]}}, {"type": "Feature", "properties": {"start": "Noyon", "stop_name": "Chantilly - Gouvieux", "type": "Gare accessible", "transport": "TER", "nombre_trajet_moyen": 0.84, "transport_legende": "\ud83d\udeb2 \u2764\ufe0f Train TER \ud83d\ude86"}, "geometry": {"type": "Point", "coordinates": [2.459771, 49.187219]}}, {"type": "Feature", "properties": {"start": "Noyon", "stop_name": "Rieux - Angicourt", "type": "Gare accessible", "transport": "TER", "nombre_trajet_moyen": 0.69, "transport_legende": "\ud83d\udeb2 \u2764\ufe0f Train TER \ud83d\ude86"}, "geometry": {"type": "Point", "coordinates": [2.521185, 49.298581]}}, {"type": "Feature", "properties": {"start": "Noyon", "stop_name": "Chevri\u00e8res", "type": "Gare accessible", "transport": "TER", "nombre_trajet_moyen": 0.69, "transport_legende": "\ud83d\udeb2 \u2764\ufe0f Train TER \ud83d\ude86"}, "geometry": {"type": "Point", "coordinates": [2.682515, 49.337314]}}, {"type": "Feature", "properties": {"start": "Noyon", "stop_name": "Longueil-Sainte-Marie", "type": "Gare accessible", "transport": "TER", "nombre_trajet_moyen": 0.69, "transport_legende": "\ud83d\udeb2 \u2764\ufe0f Train TER \ud83d\ude86"}, "geometry": {"type": "Point", "coordinates": [2.717636, 49.342407]}}, {"type": "Feature", "properties": {"start": "Noyon", "stop_name": "Le Meux - La Croix-Saint-Ouen", "type": "Gare accessible", "transport": "TER", "nombre_trajet_moyen": 0.69, "transport_legende": "\ud83d\udeb2 \u2764\ufe0f Train TER \ud83d\ude86"}, "geometry": {"type": "Point", "coordinates": [2.753483, 49.35949]}}, {"type": "Feature", "properties": {"start": "Noyon", "stop_name": "Ourscamps", "type": "Gare accessible", "transport": "TER", "nombre_trajet_moyen": 4.35, "transport_legende": "\ud83d\udeb2 \u2764\ufe0f Train TER \ud83d\ude86"}, "geometry": {"type": "Point", "coordinates": [2.954338, 49.533927]}}, {"type": "Feature", "properties": {"start": "Noyon", "stop_name": "Appilly", "type": "Gare accessible", "transport": "TER", "nombre_trajet_moyen": 4.16, "transport_legende": "\ud83d\udeb2 \u2764\ufe0f Train TER \ud83d\ude86"}, "geometry": {"type": "Point", "coordinates": [3.120772, 49.580466]}}, {"type": "Feature", "properties": {"start": "Noyon", "stop_name": "Mennessis", "type": "Gare accessible", "transport": "TER", "nombre_trajet_moyen": 4.35, "transport_legende": "\ud83d\udeb2 \u2764\ufe0f Train TER \ud83d\ude86"}, "geometry": {"type": "Point", "coordinates": [3.270562, 49.692061]}}, {"type": "Feature", "properties": {"start": "Noyon", "stop_name": "Montescourt", "type": "Gare accessible", "transport": "TER", "nombre_trajet_moyen": 4.35, "transport_legende": "\ud83d\udeb2 \u2764\ufe0f Train TER \ud83d\ude86"}, "geometry": {"type": "Point", "coordinates": [3.25206, 49.738786]}}, {"type": "Feature", "properties": {"start": "Noyon", "stop_name": "Viry-Noureuil", "type": "Gare accessible", "transport": "TER", "nombre_trajet_moyen": 2.71, "transport_legende": "\ud83d\udeb2 \u2764\ufe0f Train TER \ud83d\ude86"}, "geometry": {"type": "Point", "coordinates": [3.250169, 49.627357]}}]}