{"type": "FeatureCollection", "features": [{"type": "Feature", "properties": {"start": "Orl\u00e9ans Avenue de Paris", "stop_name": "Orl\u00e9ans Avenue de Paris", "type": "Gare s\u00e9lectionn\u00e9e", "transport": "TER", "nombre_trajet_moyen": 1.07, "transport_legende": "\ud83d\udeb2 \u2764\ufe0f Train TER \ud83d\ude86"}, "geometry": {"type": "Point", "coordinates": [1.904229, 47.908277]}}, {"type": "Feature", "properties": {"start": "Orl\u00e9ans Avenue de Paris", "stop_name": "Blois - Chambord", "type": "Gare accessible", "transport": "TER", "nombre_trajet_moyen": 0.01, "transport_legende": "\ud83d\udeb2 \u2764\ufe0f Train TER \ud83d\ude86"}, "geometry": {"type": "Point", "coordinates": [1.323759, 47.585449]}}, {"type": "Feature", "properties": {"start": "Orl\u00e9ans Avenue de Paris", "stop_name": "Tours", "type": "Gare accessible", "transport": "TER", "nombre_trajet_moyen": 0.01, "transport_legende": "\ud83d\udeb2 \u2764\ufe0f Train TER \ud83d\ude86"}, "geometry": {"type": "Point", "coordinates": [0.692831, 47.389866]}}, {"type": "Feature", "properties": {"start": "Orl\u00e9ans Avenue de Paris", "stop_name": "Vierzon", "type": "Gare accessible", "transport": "TER", "nombre_trajet_moyen": 0.12, "transport_legende": "\ud83d\udeb2 \u2764\ufe0f Train TER \ud83d\ude86"}, "geometry": {"type": "Point", "coordinates": [2.059869, 47.226474]}}, {"type": "Feature", "properties": {"start": "Orl\u00e9ans Avenue de Paris", "stop_name": "Salbris", "type": "Gare accessible", "transport": "TER", "nombre_trajet_moyen": 0.1, "transport_legende": "\ud83d\udeb2 \u2764\ufe0f Train TER \ud83d\ude86"}, "geometry": {"type": "Point", "coordinates": [2.047751, 47.425186]}}, {"type": "Feature", "properties": {"start": "Orl\u00e9ans Avenue de Paris", "stop_name": "Lamotte-Beuvron", "type": "Gare accessible", "transport": "TER", "nombre_trajet_moyen": 0.04, "transport_legende": "\ud83d\udeb2 \u2764\ufe0f Train TER \ud83d\ude86"}, "geometry": {"type": "Point", "coordinates": [2.022077, 47.59411]}}, {"type": "Feature", "properties": {"start": "Orl\u00e9ans Avenue de Paris", "stop_name": "La Fert\u00e9-Saint-Aubin", "type": "Gare accessible", "transport": "TER", "nombre_trajet_moyen": 0.04, "transport_legende": "\ud83d\udeb2 \u2764\ufe0f Train TER \ud83d\ude86"}, "geometry": {"type": "Point", "coordinates": [1.932344, 47.721008]}}, {"type": "Feature", "properties": {"start": "Orl\u00e9ans Avenue de Paris", "stop_name": "Les Aubrais Gare Routi\u00e8re", "type": "Gare accessible", "transport": "TER", "nombre_trajet_moyen": 1.05, "transport_legende": "\ud83d\udeb2 \u2764\ufe0f Train TER \ud83d\ude86"}, "geometry": {"type": "Point", "coordinates": [1.907464, 47.926667]}}, {"type": "Feature", "properties": {"start": "Orl\u00e9ans Avenue de Paris", "stop_name": "Paris-Austerlitz Routiere", "type": "Gare accessible", "transport": "TER", "nombre_trajet_moyen": 1.05, "transport_legende": "\ud83d\udeb2 \u2764\ufe0f Train TER \ud83d\ude86"}, "geometry": {"type": "Point", "coordinates": [2.367945, 48.841536]}}]}