{"type": "FeatureCollection", "features": [{"type": "Feature", "properties": {"start": "Pont de Sallaumines", "stop_name": "Pont de Sallaumines", "type": "Gare s\u00e9lectionn\u00e9e", "transport": "TER", "nombre_trajet_moyen": 1.53, "transport_legende": "\ud83d\udeb2 \u2764\ufe0f Train TER \ud83d\ude86"}, "geometry": {"type": "Point", "coordinates": [2.863086, 50.415772]}}, {"type": "Feature", "properties": {"start": "Pont de Sallaumines", "stop_name": "Douai", "type": "Gare accessible", "transport": "TER", "nombre_trajet_moyen": 1.53, "transport_legende": "\ud83d\udeb2 \u2764\ufe0f Train TER \ud83d\ude86"}, "geometry": {"type": "Point", "coordinates": [3.089958, 50.371673]}}, {"type": "Feature", "properties": {"start": "Pont de Sallaumines", "stop_name": "Ostricourt", "type": "Gare accessible", "transport": "TER", "nombre_trajet_moyen": 1.53, "transport_legende": "\ud83d\udeb2 \u2764\ufe0f Train TER \ud83d\ude86"}, "geometry": {"type": "Point", "coordinates": [3.032414, 50.445501]}}, {"type": "Feature", "properties": {"start": "Pont de Sallaumines", "stop_name": "Dourges", "type": "Gare accessible", "transport": "TER", "nombre_trajet_moyen": 1.53, "transport_legende": "\ud83d\udeb2 \u2764\ufe0f Train TER \ud83d\ude86"}, "geometry": {"type": "Point", "coordinates": [2.987013, 50.431922]}}, {"type": "Feature", "properties": {"start": "Pont de Sallaumines", "stop_name": "H\u00e9nin-Beaumont", "type": "Gare accessible", "transport": "TER", "nombre_trajet_moyen": 1.53, "transport_legende": "\ud83d\udeb2 \u2764\ufe0f Train TER \ud83d\ude86"}, "geometry": {"type": "Point", "coordinates": [2.952082, 50.417084]}}, {"type": "Feature", "properties": {"start": "Pont de Sallaumines", "stop_name": "Billy-Montigny", "type": "Gare accessible", "transport": "TER", "nombre_trajet_moyen": 1.53, "transport_legende": "\ud83d\udeb2 \u2764\ufe0f Train TER \ud83d\ude86"}, "geometry": {"type": "Point", "coordinates": [2.91187, 50.415551]}}, {"type": "Feature", "properties": {"start": "Pont de Sallaumines", "stop_name": "Coron de M\u00e9ricourt", "type": "Gare accessible", "transport": "TER", "nombre_trajet_moyen": 1.53, "transport_legende": "\ud83d\udeb2 \u2764\ufe0f Train TER \ud83d\ude86"}, "geometry": {"type": "Point", "coordinates": [2.886156, 50.414934]}}, {"type": "Feature", "properties": {"start": "Pont de Sallaumines", "stop_name": "Lens", "type": "Gare accessible", "transport": "TER", "nombre_trajet_moyen": 1.53, "transport_legende": "\ud83d\udeb2 \u2764\ufe0f Train TER \ud83d\ude86"}, "geometry": {"type": "Point", "coordinates": [2.828301, 50.426866]}}]}