{"type": "FeatureCollection", "features": [{"type": "Feature", "properties": {"start": "Roanne", "stop_name": "Roanne", "type": "Gare s\u00e9lectionn\u00e9e", "transport": "TER", "nombre_trajet_moyen": 15.24, "transport_legende": "\ud83d\udeb2 \u2764\ufe0f Train TER \ud83d\ude86"}, "geometry": {"type": "Point", "coordinates": [4.063207, 46.039383]}}, {"type": "Feature", "properties": {"start": "Roanne", "stop_name": "Lyon Perrache", "type": "Gare accessible", "transport": "TER", "nombre_trajet_moyen": 11.82, "transport_legende": "\ud83d\udeb2 \u2764\ufe0f Train TER \ud83d\ude86"}, "geometry": {"type": "Point", "coordinates": [4.825777, 45.748508]}}, {"type": "Feature", "properties": {"start": "Roanne", "stop_name": "Lyon Gorge de Loup", "type": "Gare accessible", "transport": "TER", "nombre_trajet_moyen": 0.01, "transport_legende": "\ud83d\udeb2 \u2764\ufe0f Train TER \ud83d\ude86"}, "geometry": {"type": "Point", "coordinates": [4.804697, 45.766095]}}, {"type": "Feature", "properties": {"start": "Roanne", "stop_name": "L'Arbresle", "type": "Gare accessible", "transport": "TER", "nombre_trajet_moyen": 6.77, "transport_legende": "\ud83d\udeb2 \u2764\ufe0f Train TER \ud83d\ude86"}, "geometry": {"type": "Point", "coordinates": [4.618262, 45.833285]}}, {"type": "Feature", "properties": {"start": "Roanne", "stop_name": "Tarare", "type": "Gare accessible", "transport": "TER", "nombre_trajet_moyen": 11.82, "transport_legende": "\ud83d\udeb2 \u2764\ufe0f Train TER \ud83d\ude86"}, "geometry": {"type": "Point", "coordinates": [4.439175, 45.889866]}}, {"type": "Feature", "properties": {"start": "Roanne", "stop_name": "Amplepuis", "type": "Gare accessible", "transport": "TER", "nombre_trajet_moyen": 6.77, "transport_legende": "\ud83d\udeb2 \u2764\ufe0f Train TER \ud83d\ude86"}, "geometry": {"type": "Point", "coordinates": [4.326763, 45.971014]}}, {"type": "Feature", "properties": {"start": "Roanne", "stop_name": "Le Coteau", "type": "Gare accessible", "transport": "TER", "nombre_trajet_moyen": 10.38, "transport_legende": "\ud83d\udeb2 \u2764\ufe0f Train TER \ud83d\ude86"}, "geometry": {"type": "Point", "coordinates": [4.086281, 46.023988]}}, {"type": "Feature", "properties": {"start": "Roanne", "stop_name": "Lyon-Part-Dieu Gare Routi\u00e8re", "type": "Gare accessible", "transport": "TER", "nombre_trajet_moyen": 0.01, "transport_legende": "\ud83d\udeb2 \u2764\ufe0f Train TER \ud83d\ude86"}, "geometry": {"type": "Point", "coordinates": [4.862984, 45.761064]}}, {"type": "Feature", "properties": {"start": "Roanne", "stop_name": "Clermont-Ferrand", "type": "Gare accessible", "transport": "TER", "nombre_trajet_moyen": 7.15, "transport_legende": "\ud83d\udeb2 \u2764\ufe0f Train TER \ud83d\ude86"}, "geometry": {"type": "Point", "coordinates": [3.100543, 45.778945]}}, {"type": "Feature", "properties": {"start": "Roanne", "stop_name": "Riom - Ch\u00e2tel-Guyon", "type": "Gare accessible", "transport": "TER", "nombre_trajet_moyen": 7.15, "transport_legende": "\ud83d\udeb2 \u2764\ufe0f Train TER \ud83d\ude86"}, "geometry": {"type": "Point", "coordinates": [3.120498, 45.889965]}}, {"type": "Feature", "properties": {"start": "Roanne", "stop_name": "Vichy", "type": "Gare accessible", "transport": "TER", "nombre_trajet_moyen": 7.04, "transport_legende": "\ud83d\udeb2 \u2764\ufe0f Train TER \ud83d\ude86"}, "geometry": {"type": "Point", "coordinates": [3.430476, 46.126991]}}, {"type": "Feature", "properties": {"start": "Roanne", "stop_name": "Lyon Part Dieu", "type": "Gare accessible", "transport": "TER", "nombre_trajet_moyen": 9.53, "transport_legende": "\ud83d\udeb2 \u2764\ufe0f Train TER \ud83d\ude86"}, "geometry": {"type": "Point", "coordinates": [4.859409, 45.760596]}}, {"type": "Feature", "properties": {"start": "Roanne", "stop_name": "Gannat", "type": "Gare accessible", "transport": "TER", "nombre_trajet_moyen": 0.11, "transport_legende": "\ud83d\udeb2 \u2764\ufe0f Train TER \ud83d\ude86"}, "geometry": {"type": "Point", "coordinates": [3.204773, 46.097592]}}, {"type": "Feature", "properties": {"start": "Roanne", "stop_name": "Albigny - Neuville", "type": "Gare accessible", "transport": "TER", "nombre_trajet_moyen": 4.48, "transport_legende": "\ud83d\udeb2 \u2764\ufe0f Train TER \ud83d\ude86"}, "geometry": {"type": "Point", "coordinates": [4.832852, 45.874897]}}, {"type": "Feature", "properties": {"start": "Roanne", "stop_name": "Lozanne", "type": "Gare accessible", "transport": "TER", "nombre_trajet_moyen": 6.77, "transport_legende": "\ud83d\udeb2 \u2764\ufe0f Train TER \ud83d\ude86"}, "geometry": {"type": "Point", "coordinates": [4.681474, 45.854174]}}, {"type": "Feature", "properties": {"start": "Roanne", "stop_name": "Saint-Romain-de-Popey", "type": "Gare accessible", "transport": "TER", "nombre_trajet_moyen": 4.98, "transport_legende": "\ud83d\udeb2 \u2764\ufe0f Train TER \ud83d\ude86"}, "geometry": {"type": "Point", "coordinates": [4.542447, 45.861414]}}, {"type": "Feature", "properties": {"start": "Roanne", "stop_name": "Lyon Vaise", "type": "Gare accessible", "transport": "TER", "nombre_trajet_moyen": 4.82, "transport_legende": "\ud83d\udeb2 \u2764\ufe0f Train TER \ud83d\ude86"}, "geometry": {"type": "Point", "coordinates": [4.804186, 45.77976]}}, {"type": "Feature", "properties": {"start": "Roanne", "stop_name": "Saint-Germain-au-Mont-d'Or", "type": "Gare accessible", "transport": "TER", "nombre_trajet_moyen": 5.23, "transport_legende": "\ud83d\udeb2 \u2764\ufe0f Train TER \ud83d\ude86"}, "geometry": {"type": "Point", "coordinates": [4.804206, 45.888431]}}, {"type": "Feature", "properties": {"start": "Roanne", "stop_name": "Chazay - Marcilly", "type": "Gare accessible", "transport": "TER", "nombre_trajet_moyen": 4.98, "transport_legende": "\ud83d\udeb2 \u2764\ufe0f Train TER \ud83d\ude86"}, "geometry": {"type": "Point", "coordinates": [4.725253, 45.873252]}}, {"type": "Feature", "properties": {"start": "Roanne", "stop_name": "Pontcharra - Saint-Forgeux", "type": "Gare accessible", "transport": "TER", "nombre_trajet_moyen": 4.98, "transport_legende": "\ud83d\udeb2 \u2764\ufe0f Train TER \ud83d\ude86"}, "geometry": {"type": "Point", "coordinates": [4.492904, 45.871541]}}, {"type": "Feature", "properties": {"start": "Roanne", "stop_name": "Saint-Victor - Thizy", "type": "Gare accessible", "transport": "TER", "nombre_trajet_moyen": 5.23, "transport_legende": "\ud83d\udeb2 \u2764\ufe0f Train TER \ud83d\ude86"}, "geometry": {"type": "Point", "coordinates": [4.281106, 46.002585]}}, {"type": "Feature", "properties": {"start": "Roanne", "stop_name": "R\u00e9gny", "type": "Gare accessible", "transport": "TER", "nombre_trajet_moyen": 5.23, "transport_legende": "\ud83d\udeb2 \u2764\ufe0f Train TER \ud83d\ude86"}, "geometry": {"type": "Point", "coordinates": [4.215263, 45.987743]}}, {"type": "Feature", "properties": {"start": "Roanne", "stop_name": "Saint-\u00c9tienne Ch\u00e2teaucreux", "type": "Gare accessible", "transport": "TER", "nombre_trajet_moyen": 6.65, "transport_legende": "\ud83d\udeb2 \u2764\ufe0f Train TER \ud83d\ude86"}, "geometry": {"type": "Point", "coordinates": [4.399722, 45.443366]}}, {"type": "Feature", "properties": {"start": "Roanne", "stop_name": "Saint-\u00c9tienne La Terrasse", "type": "Gare accessible", "transport": "TER", "nombre_trajet_moyen": 6.65, "transport_legende": "\ud83d\udeb2 \u2764\ufe0f Train TER \ud83d\ude86"}, "geometry": {"type": "Point", "coordinates": [4.379554, 45.464868]}}, {"type": "Feature", "properties": {"start": "Roanne", "stop_name": "Bouth\u00e9on", "type": "Gare accessible", "transport": "TER", "nombre_trajet_moyen": 6.65, "transport_legende": "\ud83d\udeb2 \u2764\ufe0f Train TER \ud83d\ude86"}, "geometry": {"type": "Point", "coordinates": [4.278182, 45.525002]}}, {"type": "Feature", "properties": {"start": "Roanne", "stop_name": "Veauche - Saint-Galmier", "type": "Gare accessible", "transport": "TER", "nombre_trajet_moyen": 6.65, "transport_legende": "\ud83d\udeb2 \u2764\ufe0f Train TER \ud83d\ude86"}, "geometry": {"type": "Point", "coordinates": [4.293438, 45.565928]}}, {"type": "Feature", "properties": {"start": "Roanne", "stop_name": "Montrond-les-Bains", "type": "Gare accessible", "transport": "TER", "nombre_trajet_moyen": 6.65, "transport_legende": "\ud83d\udeb2 \u2764\ufe0f Train TER \ud83d\ude86"}, "geometry": {"type": "Point", "coordinates": [4.248826, 45.644431]}}, {"type": "Feature", "properties": {"start": "Roanne", "stop_name": "Feurs", "type": "Gare accessible", "transport": "TER", "nombre_trajet_moyen": 6.65, "transport_legende": "\ud83d\udeb2 \u2764\ufe0f Train TER \ud83d\ude86"}, "geometry": {"type": "Point", "coordinates": [4.230487, 45.744145]}}, {"type": "Feature", "properties": {"start": "Roanne", "stop_name": "Balbigny", "type": "Gare accessible", "transport": "TER", "nombre_trajet_moyen": 6.65, "transport_legende": "\ud83d\udeb2 \u2764\ufe0f Train TER \ud83d\ude86"}, "geometry": {"type": "Point", "coordinates": [4.187427, 45.817868]}}, {"type": "Feature", "properties": {"start": "Roanne", "stop_name": "Saint-Jodard", "type": "Gare accessible", "transport": "TER", "nombre_trajet_moyen": 6.65, "transport_legende": "\ud83d\udeb2 \u2764\ufe0f Train TER \ud83d\ude86"}, "geometry": {"type": "Point", "coordinates": [4.125243, 45.88568]}}]}