{"type": "FeatureCollection", "features": [{"type": "Feature", "properties": {"start": "Rochefort", "stop_name": "Rochefort", "type": "Gare s\u00e9lectionn\u00e9e", "transport": "TER", "nombre_trajet_moyen": 5.6, "transport_legende": "\ud83d\udeb2 \u2764\ufe0f Train TER \ud83d\ude86"}, "geometry": {"type": "Point", "coordinates": [-0.963556, 45.947189]}}, {"type": "Feature", "properties": {"start": "Rochefort", "stop_name": "La Rochelle", "type": "Gare accessible", "transport": "TER", "nombre_trajet_moyen": 5.6, "transport_legende": "\ud83d\udeb2 \u2764\ufe0f Train TER \ud83d\ude86"}, "geometry": {"type": "Point", "coordinates": [-1.145853, 46.152705]}}, {"type": "Feature", "properties": {"start": "Rochefort", "stop_name": "Aytr\u00e9 Plage", "type": "Gare accessible", "transport": "TER", "nombre_trajet_moyen": 4.41, "transport_legende": "\ud83d\udeb2 \u2764\ufe0f Train TER \ud83d\ude86"}, "geometry": {"type": "Point", "coordinates": [-1.128293, 46.12761]}}, {"type": "Feature", "properties": {"start": "Rochefort", "stop_name": "Angoulins sur Mer", "type": "Gare accessible", "transport": "TER", "nombre_trajet_moyen": 4.41, "transport_legende": "\ud83d\udeb2 \u2764\ufe0f Train TER \ud83d\ude86"}, "geometry": {"type": "Point", "coordinates": [-1.115622, 46.107785]}}, {"type": "Feature", "properties": {"start": "Rochefort", "stop_name": "Ch\u00e2telaillon", "type": "Gare accessible", "transport": "TER", "nombre_trajet_moyen": 5.6, "transport_legende": "\ud83d\udeb2 \u2764\ufe0f Train TER \ud83d\ude86"}, "geometry": {"type": "Point", "coordinates": [-1.091118, 46.078282]}}, {"type": "Feature", "properties": {"start": "Rochefort", "stop_name": "Saint-Laurent-de-la-Pr\u00e9e - Fouras", "type": "Gare accessible", "transport": "TER", "nombre_trajet_moyen": 4.41, "transport_legende": "\ud83d\udeb2 \u2764\ufe0f Train TER \ud83d\ude86"}, "geometry": {"type": "Point", "coordinates": [-1.026912, 45.992563]}}, {"type": "Feature", "properties": {"start": "Rochefort", "stop_name": "La Rochelle Porte Dauphine", "type": "Gare accessible", "transport": "TER", "nombre_trajet_moyen": 5.03, "transport_legende": "\ud83d\udeb2 \u2764\ufe0f Train TER \ud83d\ude86"}, "geometry": {"type": "Point", "coordinates": [-1.151875, 46.167616]}}, {"type": "Feature", "properties": {"start": "Rochefort", "stop_name": "Saint-Savinien", "type": "Gare accessible", "transport": "TER", "nombre_trajet_moyen": 2.8, "transport_legende": "\ud83d\udeb2 \u2764\ufe0f Train TER \ud83d\ude86"}, "geometry": {"type": "Point", "coordinates": [-0.677878, 45.876038]}}, {"type": "Feature", "properties": {"start": "Rochefort", "stop_name": "Saintes", "type": "Gare accessible", "transport": "TER", "nombre_trajet_moyen": 4.77, "transport_legende": "\ud83d\udeb2 \u2764\ufe0f Train TER \ud83d\ude86"}, "geometry": {"type": "Point", "coordinates": [-0.6179, 45.74874]}}, {"type": "Feature", "properties": {"start": "Rochefort", "stop_name": "Angoul\u00eame", "type": "Gare accessible", "transport": "TER", "nombre_trajet_moyen": 1.42, "transport_legende": "\ud83d\udeb2 \u2764\ufe0f Train TER \ud83d\ude86"}, "geometry": {"type": "Point", "coordinates": [0.164608, 45.653572]}}, {"type": "Feature", "properties": {"start": "Rochefort", "stop_name": "Ch\u00e2teauneuf-sur-Charente", "type": "Gare accessible", "transport": "TER", "nombre_trajet_moyen": 1.42, "transport_legende": "\ud83d\udeb2 \u2764\ufe0f Train TER \ud83d\ude86"}, "geometry": {"type": "Point", "coordinates": [-0.050217, 45.59978]}}, {"type": "Feature", "properties": {"start": "Rochefort", "stop_name": "Jarnac", "type": "Gare accessible", "transport": "TER", "nombre_trajet_moyen": 1.42, "transport_legende": "\ud83d\udeb2 \u2764\ufe0f Train TER \ud83d\ude86"}, "geometry": {"type": "Point", "coordinates": [-0.17736, 45.671147]}}, {"type": "Feature", "properties": {"start": "Rochefort", "stop_name": "Cognac", "type": "Gare accessible", "transport": "TER", "nombre_trajet_moyen": 1.42, "transport_legende": "\ud83d\udeb2 \u2764\ufe0f Train TER \ud83d\ude86"}, "geometry": {"type": "Point", "coordinates": [-0.326037, 45.684587]}}, {"type": "Feature", "properties": {"start": "Rochefort", "stop_name": "Beillant", "type": "Gare accessible", "transport": "TER", "nombre_trajet_moyen": 0.69, "transport_legende": "\ud83d\udeb2 \u2764\ufe0f Train TER \ud83d\ude86"}, "geometry": {"type": "Point", "coordinates": [-0.526508, 45.7008]}}, {"type": "Feature", "properties": {"start": "Rochefort", "stop_name": "Bords", "type": "Gare accessible", "transport": "TER", "nombre_trajet_moyen": 2.8, "transport_legende": "\ud83d\udeb2 \u2764\ufe0f Train TER \ud83d\ude86"}, "geometry": {"type": "Point", "coordinates": [-0.798115, 45.894237]}}, {"type": "Feature", "properties": {"start": "Rochefort", "stop_name": "Tonnay-Charente", "type": "Gare accessible", "transport": "TER", "nombre_trajet_moyen": 2.8, "transport_legende": "\ud83d\udeb2 \u2764\ufe0f Train TER \ud83d\ude86"}, "geometry": {"type": "Point", "coordinates": [-0.897789, 45.943401]}}, {"type": "Feature", "properties": {"start": "Rochefort", "stop_name": "Bordeaux Saint-Jean", "type": "Gare accessible", "transport": "TER", "nombre_trajet_moyen": 3.68, "transport_legende": "\ud83d\udeb2 \u2764\ufe0f Train TER \ud83d\ude86"}, "geometry": {"type": "Point", "coordinates": [-0.556697, 44.825873]}}, {"type": "Feature", "properties": {"start": "Rochefort", "stop_name": "Cenon", "type": "Gare accessible", "transport": "TER", "nombre_trajet_moyen": 3.68, "transport_legende": "\ud83d\udeb2 \u2764\ufe0f Train TER \ud83d\ude86"}, "geometry": {"type": "Point", "coordinates": [-0.533649, 44.856347]}}, {"type": "Feature", "properties": {"start": "Rochefort", "stop_name": "Saint-Andr\u00e9-de-Cubzac", "type": "Gare accessible", "transport": "TER", "nombre_trajet_moyen": 3.68, "transport_legende": "\ud83d\udeb2 \u2764\ufe0f Train TER \ud83d\ude86"}, "geometry": {"type": "Point", "coordinates": [-0.44048, 44.99122]}}, {"type": "Feature", "properties": {"start": "Rochefort", "stop_name": "Saint-Mariens - Saint-Yzan", "type": "Gare accessible", "transport": "TER", "nombre_trajet_moyen": 3.68, "transport_legende": "\ud83d\udeb2 \u2764\ufe0f Train TER \ud83d\ude86"}, "geometry": {"type": "Point", "coordinates": [-0.391834, 45.139057]}}, {"type": "Feature", "properties": {"start": "Rochefort", "stop_name": "Montendre", "type": "Gare accessible", "transport": "TER", "nombre_trajet_moyen": 3.68, "transport_legende": "\ud83d\udeb2 \u2764\ufe0f Train TER \ud83d\ude86"}, "geometry": {"type": "Point", "coordinates": [-0.396233, 45.280514]}}, {"type": "Feature", "properties": {"start": "Rochefort", "stop_name": "Jonzac", "type": "Gare accessible", "transport": "TER", "nombre_trajet_moyen": 3.68, "transport_legende": "\ud83d\udeb2 \u2764\ufe0f Train TER \ud83d\ude86"}, "geometry": {"type": "Point", "coordinates": [-0.44164, 45.438746]}}, {"type": "Feature", "properties": {"start": "Rochefort", "stop_name": "Pons", "type": "Gare accessible", "transport": "TER", "nombre_trajet_moyen": 3.68, "transport_legende": "\ud83d\udeb2 \u2764\ufe0f Train TER \ud83d\ude86"}, "geometry": {"type": "Point", "coordinates": [-0.539021, 45.578213]}}]}