{"type": "FeatureCollection", "features": [{"type": "Feature", "properties": {"start": "Roques\u00e9ri\u00e8re - Buzet", "stop_name": "Roques\u00e9ri\u00e8re - Buzet", "type": "Gare s\u00e9lectionn\u00e9e", "transport": "TER", "transport_legende": "\ud83d\udeb2 \u2764\ufe0f Train TER \ud83d\ude86"}, "geometry": {"type": "Point", "coordinates": [1.619875, 43.751247]}}, {"type": "Feature", "properties": {"start": "Roques\u00e9ri\u00e8re - Buzet", "stop_name": "Carmaux", "type": "Gare accessible", "transport": "TER", "transport_legende": "\ud83d\udeb2 \u2764\ufe0f Train TER \ud83d\ude86"}, "geometry": {"type": "Point", "coordinates": [2.152401, 44.048782]}}, {"type": "Feature", "properties": {"start": "Roques\u00e9ri\u00e8re - Buzet", "stop_name": "Albi Madeleine", "type": "Gare accessible", "transport": "TER", "transport_legende": "\ud83d\udeb2 \u2764\ufe0f Train TER \ud83d\ude86"}, "geometry": {"type": "Point", "coordinates": [2.141209, 43.938137]}}, {"type": "Feature", "properties": {"start": "Roques\u00e9ri\u00e8re - Buzet", "stop_name": "Albi Ville", "type": "Gare accessible", "transport": "TER", "transport_legende": "\ud83d\udeb2 \u2764\ufe0f Train TER \ud83d\ude86"}, "geometry": {"type": "Point", "coordinates": [2.137958, 43.92238]}}, {"type": "Feature", "properties": {"start": "Roques\u00e9ri\u00e8re - Buzet", "stop_name": "Marssac-sur-tarn", "type": "Gare accessible", "transport": "TER", "transport_legende": "\ud83d\udeb2 \u2764\ufe0f Train TER \ud83d\ude86"}, "geometry": {"type": "Point", "coordinates": [2.02678, 43.91523]}}, {"type": "Feature", "properties": {"start": "Roques\u00e9ri\u00e8re - Buzet", "stop_name": "Tessonni\u00e8res", "type": "Gare accessible", "transport": "TER", "transport_legende": "\ud83d\udeb2 \u2764\ufe0f Train TER \ud83d\ude86"}, "geometry": {"type": "Point", "coordinates": [1.936953, 43.928421]}}, {"type": "Feature", "properties": {"start": "Roques\u00e9ri\u00e8re - Buzet", "stop_name": "Gaillac", "type": "Gare accessible", "transport": "TER", "transport_legende": "\ud83d\udeb2 \u2764\ufe0f Train TER \ud83d\ude86"}, "geometry": {"type": "Point", "coordinates": [1.89483, 43.905984]}}, {"type": "Feature", "properties": {"start": "Roques\u00e9ri\u00e8re - Buzet", "stop_name": "Lisle-sur-Tarn", "type": "Gare accessible", "transport": "TER", "transport_legende": "\ud83d\udeb2 \u2764\ufe0f Train TER \ud83d\ude86"}, "geometry": {"type": "Point", "coordinates": [1.80823, 43.85639]}}, {"type": "Feature", "properties": {"start": "Roques\u00e9ri\u00e8re - Buzet", "stop_name": "Rabastens - Coufouleux", "type": "Gare accessible", "transport": "TER", "transport_legende": "\ud83d\udeb2 \u2764\ufe0f Train TER \ud83d\ude86"}, "geometry": {"type": "Point", "coordinates": [1.730455, 43.819654]}}, {"type": "Feature", "properties": {"start": "Roques\u00e9ri\u00e8re - Buzet", "stop_name": "Saint-Sulpice", "type": "Gare accessible", "transport": "TER", "transport_legende": "\ud83d\udeb2 \u2764\ufe0f Train TER \ud83d\ude86"}, "geometry": {"type": "Point", "coordinates": [1.680702, 43.775073]}}, {"type": "Feature", "properties": {"start": "Roques\u00e9ri\u00e8re - Buzet", "stop_name": "Montastruc-la-Conseill\u00e8re", "type": "Gare accessible", "transport": "TER", "transport_legende": "\ud83d\udeb2 \u2764\ufe0f Train TER \ud83d\ude86"}, "geometry": {"type": "Point", "coordinates": [1.598016, 43.715984]}}, {"type": "Feature", "properties": {"start": "Roques\u00e9ri\u00e8re - Buzet", "stop_name": "Gragnague", "type": "Gare accessible", "transport": "TER", "transport_legende": "\ud83d\udeb2 \u2764\ufe0f Train TER \ud83d\ude86"}, "geometry": {"type": "Point", "coordinates": [1.567514, 43.695951]}}, {"type": "Feature", "properties": {"start": "Roques\u00e9ri\u00e8re - Buzet", "stop_name": "Montrab\u00e9", "type": "Gare accessible", "transport": "TER", "transport_legende": "\ud83d\udeb2 \u2764\ufe0f Train TER \ud83d\ude86"}, "geometry": {"type": "Point", "coordinates": [1.524006, 43.644907]}}, {"type": "Feature", "properties": {"start": "Roques\u00e9ri\u00e8re - Buzet", "stop_name": "Toulouse Matabiau", "type": "Gare accessible", "transport": "TER", "transport_legende": "\ud83d\udeb2 \u2764\ufe0f Train TER \ud83d\ude86"}, "geometry": {"type": "Point", "coordinates": [1.453616, 43.611206]}}]}