{"type": "FeatureCollection", "features": [{"type": "Feature", "properties": {"start": "Saint-Dizier", "stop_name": "Saint-Dizier", "type": "Gare s\u00e9lectionn\u00e9e", "transport": "TER", "transport_legende": "\ud83d\udeb2 \u2764\ufe0f Train TER \ud83d\ude86"}, "geometry": {"type": "Point", "coordinates": [4.947855, 48.642404]}}, {"type": "Feature", "properties": {"start": "Saint-Dizier", "stop_name": "Chaumont", "type": "Gare accessible", "transport": "TER", "transport_legende": "\ud83d\udeb2 \u2764\ufe0f Train TER \ud83d\ude86"}, "geometry": {"type": "Point", "coordinates": [5.1346, 48.10976]}}, {"type": "Feature", "properties": {"start": "Saint-Dizier", "stop_name": "Froncles", "type": "Gare accessible", "transport": "TER", "transport_legende": "\ud83d\udeb2 \u2764\ufe0f Train TER \ud83d\ude86"}, "geometry": {"type": "Point", "coordinates": [5.141939, 48.296415]}}, {"type": "Feature", "properties": {"start": "Saint-Dizier", "stop_name": "Joinville", "type": "Gare accessible", "transport": "TER", "transport_legende": "\ud83d\udeb2 \u2764\ufe0f Train TER \ud83d\ude86"}, "geometry": {"type": "Point", "coordinates": [5.143259, 48.44433]}}, {"type": "Feature", "properties": {"start": "Saint-Dizier", "stop_name": "Vitry-le-Fran\u00e7ois", "type": "Gare accessible", "transport": "TER", "transport_legende": "\ud83d\udeb2 \u2764\ufe0f Train TER \ud83d\ude86"}, "geometry": {"type": "Point", "coordinates": [4.587515, 48.717913]}}, {"type": "Feature", "properties": {"start": "Saint-Dizier", "stop_name": "Ch\u00e2lons-en-Champagne", "type": "Gare accessible", "transport": "TER", "transport_legende": "\ud83d\udeb2 \u2764\ufe0f Train TER \ud83d\ude86"}, "geometry": {"type": "Point", "coordinates": [4.348656, 48.955252]}}, {"type": "Feature", "properties": {"start": "Saint-Dizier", "stop_name": "Donjeux", "type": "Gare accessible", "transport": "TER", "transport_legende": "\ud83d\udeb2 \u2764\ufe0f Train TER \ud83d\ude86"}, "geometry": {"type": "Point", "coordinates": [5.151358, 48.365945]}}, {"type": "Feature", "properties": {"start": "Saint-Dizier", "stop_name": "Vignory", "type": "Gare accessible", "transport": "TER", "transport_legende": "\ud83d\udeb2 \u2764\ufe0f Train TER \ud83d\ude86"}, "geometry": {"type": "Point", "coordinates": [5.124249, 48.270681]}}, {"type": "Feature", "properties": {"start": "Saint-Dizier", "stop_name": "Bologne", "type": "Gare accessible", "transport": "TER", "transport_legende": "\ud83d\udeb2 \u2764\ufe0f Train TER \ud83d\ude86"}, "geometry": {"type": "Point", "coordinates": [5.134467, 48.198677]}}, {"type": "Feature", "properties": {"start": "Saint-Dizier", "stop_name": "Langres", "type": "Gare accessible", "transport": "TER", "transport_legende": "\ud83d\udeb2 \u2764\ufe0f Train TER \ud83d\ude86"}, "geometry": {"type": "Point", "coordinates": [5.344406, 47.876947]}}, {"type": "Feature", "properties": {"start": "Saint-Dizier", "stop_name": "Culmont - Chalindrey", "type": "Gare accessible", "transport": "TER", "transport_legende": "\ud83d\udeb2 \u2764\ufe0f Train TER \ud83d\ude86"}, "geometry": {"type": "Point", "coordinates": [5.443219, 47.810202]}}, {"type": "Feature", "properties": {"start": "Saint-Dizier", "stop_name": "\u00c9pernay", "type": "Gare accessible", "transport": "TER", "transport_legende": "\ud83d\udeb2 \u2764\ufe0f Train TER \ud83d\ude86"}, "geometry": {"type": "Point", "coordinates": [3.959798, 49.046289]}}, {"type": "Feature", "properties": {"start": "Saint-Dizier", "stop_name": "Bar-le-Duc", "type": "Gare accessible", "transport": "TER", "transport_legende": "\ud83d\udeb2 \u2764\ufe0f Train TER \ud83d\ude86"}, "geometry": {"type": "Point", "coordinates": [5.167053, 48.773598]}}, {"type": "Feature", "properties": {"start": "Saint-Dizier", "stop_name": "Troyes", "type": "Gare accessible", "transport": "TER", "transport_legende": "\ud83d\udeb2 \u2764\ufe0f Train TER \ud83d\ude86"}, "geometry": {"type": "Point", "coordinates": [4.065281, 48.296069]}}, {"type": "Feature", "properties": {"start": "Saint-Dizier", "stop_name": "Paris Est", "type": "Gare accessible", "transport": "TER", "transport_legende": "\ud83d\udeb2 \u2764\ufe0f Train TER \ud83d\ude86"}, "geometry": {"type": "Point", "coordinates": [2.358424, 48.876742]}}, {"type": "Feature", "properties": {"start": "Saint-Dizier", "stop_name": "Ch\u00e2teau-Thierry", "type": "Gare accessible", "transport": "TER", "transport_legende": "\ud83d\udeb2 \u2764\ufe0f Train TER \ud83d\ude86"}, "geometry": {"type": "Point", "coordinates": [3.409302, 49.03814]}}, {"type": "Feature", "properties": {"start": "Saint-Dizier", "stop_name": "Dormans", "type": "Gare accessible", "transport": "TER", "transport_legende": "\ud83d\udeb2 \u2764\ufe0f Train TER \ud83d\ude86"}, "geometry": {"type": "Point", "coordinates": [3.641835, 49.07908]}}, {"type": "Feature", "properties": {"start": "Saint-Dizier", "stop_name": "La Fert\u00e9-sous-Jouarre", "type": "Gare accessible", "transport": "TER", "transport_legende": "\ud83d\udeb2 \u2764\ufe0f Train TER \ud83d\ude86"}, "geometry": {"type": "Point", "coordinates": [3.125466, 48.95078]}}, {"type": "Feature", "properties": {"start": "Saint-Dizier", "stop_name": "Mourmelon-le-Petit", "type": "Gare accessible", "transport": "TER", "transport_legende": "\ud83d\udeb2 \u2764\ufe0f Train TER \ud83d\ude86"}, "geometry": {"type": "Point", "coordinates": [4.318098, 49.131308]}}, {"type": "Feature", "properties": {"start": "Saint-Dizier", "stop_name": "Sept-Saulx", "type": "Gare accessible", "transport": "TER", "transport_legende": "\ud83d\udeb2 \u2764\ufe0f Train TER \ud83d\ude86"}, "geometry": {"type": "Point", "coordinates": [4.256974, 49.151133]}}, {"type": "Feature", "properties": {"start": "Saint-Dizier", "stop_name": "Val-de-Vesle", "type": "Gare accessible", "transport": "TER", "transport_legende": "\ud83d\udeb2 \u2764\ufe0f Train TER \ud83d\ude86"}, "geometry": {"type": "Point", "coordinates": [4.22221, 49.17792]}}, {"type": "Feature", "properties": {"start": "Saint-Dizier", "stop_name": "Prunay", "type": "Gare accessible", "transport": "TER", "transport_legende": "\ud83d\udeb2 \u2764\ufe0f Train TER \ud83d\ude86"}, "geometry": {"type": "Point", "coordinates": [4.183629, 49.198839]}}, {"type": "Feature", "properties": {"start": "Saint-Dizier", "stop_name": "Reims", "type": "Gare accessible", "transport": "TER", "transport_legende": "\ud83d\udeb2 \u2764\ufe0f Train TER \ud83d\ude86"}, "geometry": {"type": "Point", "coordinates": [4.021994, 49.258934]}}, {"type": "Feature", "properties": {"start": "Saint-Dizier", "stop_name": "Chevillon", "type": "Gare accessible", "transport": "TER", "transport_legende": "\ud83d\udeb2 \u2764\ufe0f Train TER \ud83d\ude86"}, "geometry": {"type": "Point", "coordinates": [5.113277, 48.523946]}}, {"type": "Feature", "properties": {"start": "Saint-Dizier", "stop_name": "Is-sur-Tille", "type": "Gare accessible", "transport": "TER", "transport_legende": "\ud83d\udeb2 \u2764\ufe0f Train TER \ud83d\ude86"}, "geometry": {"type": "Point", "coordinates": [5.129481, 47.520454]}}, {"type": "Feature", "properties": {"start": "Saint-Dizier", "stop_name": "Dijon", "type": "Gare accessible", "transport": "TER", "transport_legende": "\ud83d\udeb2 \u2764\ufe0f Train TER \ud83d\ude86"}, "geometry": {"type": "Point", "coordinates": [5.027256, 47.323411]}}]}