{"type": "FeatureCollection", "features": [{"type": "Feature", "properties": {"start": "Saint-Yrieix", "stop_name": "Saint-Yrieix", "type": "Gare s\u00e9lectionn\u00e9e", "transport": "TER", "transport_legende": "\ud83d\udeb2 \u2764\ufe0f Train TER \ud83d\ude86"}, "geometry": {"type": "Point", "coordinates": [1.205454, 45.519263]}}, {"type": "Feature", "properties": {"start": "Saint-Yrieix", "stop_name": "Coussac-Bonneval", "type": "Gare accessible", "transport": "TER", "transport_legende": "\ud83d\udeb2 \u2764\ufe0f Train TER \ud83d\ude86"}, "geometry": {"type": "Point", "coordinates": [1.31101, 45.507706]}}, {"type": "Feature", "properties": {"start": "Saint-Yrieix", "stop_name": "Lubersac", "type": "Gare accessible", "transport": "TER", "transport_legende": "\ud83d\udeb2 \u2764\ufe0f Train TER \ud83d\ude86"}, "geometry": {"type": "Point", "coordinates": [1.388928, 45.444608]}}, {"type": "Feature", "properties": {"start": "Saint-Yrieix", "stop_name": "Pompadour", "type": "Gare accessible", "transport": "TER", "transport_legende": "\ud83d\udeb2 \u2764\ufe0f Train TER \ud83d\ude86"}, "geometry": {"type": "Point", "coordinates": [1.386962, 45.395268]}}, {"type": "Feature", "properties": {"start": "Saint-Yrieix", "stop_name": "Limoges B\u00e9n\u00e9dictins", "type": "Gare accessible", "transport": "TER", "transport_legende": "\ud83d\udeb2 \u2764\ufe0f Train TER \ud83d\ude86"}, "geometry": {"type": "Point", "coordinates": [1.267419, 45.836207]}}, {"type": "Feature", "properties": {"start": "Saint-Yrieix", "stop_name": "Nexon", "type": "Gare accessible", "transport": "TER", "transport_legende": "\ud83d\udeb2 \u2764\ufe0f Train TER \ud83d\ude86"}, "geometry": {"type": "Point", "coordinates": [1.178431, 45.691565]}}, {"type": "Feature", "properties": {"start": "Saint-Yrieix", "stop_name": "L'Aiguille", "type": "Gare accessible", "transport": "TER", "transport_legende": "\ud83d\udeb2 \u2764\ufe0f Train TER \ud83d\ude86"}, "geometry": {"type": "Point", "coordinates": [1.205044, 45.778372]}}, {"type": "Feature", "properties": {"start": "Saint-Yrieix", "stop_name": "La Meyze", "type": "Gare accessible", "transport": "TER", "transport_legende": "\ud83d\udeb2 \u2764\ufe0f Train TER \ud83d\ude86"}, "geometry": {"type": "Point", "coordinates": [1.212164, 45.621443]}}]}