{"type": "FeatureCollection", "features": [{"type": "Feature", "properties": {"start": "Saint-Pol-sur-Ternoise", "stop_name": "Saint-Pol-sur-Ternoise", "type": "Gare s\u00e9lectionn\u00e9e", "transport": "TER", "transport_legende": "\ud83d\udeb2 \u2764\ufe0f Train TER \ud83d\ude86"}, "geometry": {"type": "Point", "coordinates": [2.33934, 50.379156]}}, {"type": "Feature", "properties": {"start": "Saint-Pol-sur-Ternoise", "stop_name": "B\u00e9thune", "type": "Gare accessible", "transport": "TER", "transport_legende": "\ud83d\udeb2 \u2764\ufe0f Train TER \ud83d\ude86"}, "geometry": {"type": "Point", "coordinates": [2.640509, 50.521454]}}, {"type": "Feature", "properties": {"start": "Saint-Pol-sur-Ternoise", "stop_name": "Vis \u00e0 Marles", "type": "Gare accessible", "transport": "TER", "transport_legende": "\ud83d\udeb2 \u2764\ufe0f Train TER \ud83d\ude86"}, "geometry": {"type": "Point", "coordinates": [2.517363, 50.50509]}}, {"type": "Feature", "properties": {"start": "Saint-Pol-sur-Ternoise", "stop_name": "Calonne-Ricouart", "type": "Gare accessible", "transport": "TER", "transport_legende": "\ud83d\udeb2 \u2764\ufe0f Train TER \ud83d\ude86"}, "geometry": {"type": "Point", "coordinates": [2.481062, 50.482799]}}, {"type": "Feature", "properties": {"start": "Saint-Pol-sur-Ternoise", "stop_name": "Pernes - Camblain", "type": "Gare accessible", "transport": "TER", "transport_legende": "\ud83d\udeb2 \u2764\ufe0f Train TER \ud83d\ude86"}, "geometry": {"type": "Point", "coordinates": [2.431076, 50.480353]}}, {"type": "Feature", "properties": {"start": "Saint-Pol-sur-Ternoise", "stop_name": "Arras", "type": "Gare accessible", "transport": "TER", "transport_legende": "\ud83d\udeb2 \u2764\ufe0f Train TER \ud83d\ude86"}, "geometry": {"type": "Point", "coordinates": [2.781314, 50.286971]}}, {"type": "Feature", "properties": {"start": "Saint-Pol-sur-Ternoise", "stop_name": "Maroeuil", "type": "Gare accessible", "transport": "TER", "transport_legende": "\ud83d\udeb2 \u2764\ufe0f Train TER \ud83d\ude86"}, "geometry": {"type": "Point", "coordinates": [2.698498, 50.322431]}}, {"type": "Feature", "properties": {"start": "Saint-Pol-sur-Ternoise", "stop_name": "Aubigny-en-Artois", "type": "Gare accessible", "transport": "TER", "transport_legende": "\ud83d\udeb2 \u2764\ufe0f Train TER \ud83d\ude86"}, "geometry": {"type": "Point", "coordinates": [2.592519, 50.3529]}}, {"type": "Feature", "properties": {"start": "Saint-Pol-sur-Ternoise", "stop_name": "Tincques", "type": "Gare accessible", "transport": "TER", "transport_legende": "\ud83d\udeb2 \u2764\ufe0f Train TER \ud83d\ude86"}, "geometry": {"type": "Point", "coordinates": [2.49804, 50.357153]}}, {"type": "Feature", "properties": {"start": "Saint-Pol-sur-Ternoise", "stop_name": "Savy-Berlette", "type": "Gare accessible", "transport": "TER", "transport_legende": "\ud83d\udeb2 \u2764\ufe0f Train TER \ud83d\ude86"}, "geometry": {"type": "Point", "coordinates": [2.558068, 50.353862]}}, {"type": "Feature", "properties": {"start": "Saint-Pol-sur-Ternoise", "stop_name": "Fr\u00e9vin-Capelle", "type": "Gare accessible", "transport": "TER", "transport_legende": "\ud83d\udeb2 \u2764\ufe0f Train TER \ud83d\ude86"}, "geometry": {"type": "Point", "coordinates": [2.63317, 50.347208]}}, {"type": "Feature", "properties": {"start": "Saint-Pol-sur-Ternoise", "stop_name": "Anvin", "type": "Gare accessible", "transport": "TER", "transport_legende": "\ud83d\udeb2 \u2764\ufe0f Train TER \ud83d\ude86"}, "geometry": {"type": "Point", "coordinates": [2.255089, 50.446779]}}, {"type": "Feature", "properties": {"start": "Saint-Pol-sur-Ternoise", "stop_name": "Auchy-l\u00e8s-Hesdin", "type": "Gare accessible", "transport": "TER", "transport_legende": "\ud83d\udeb2 \u2764\ufe0f Train TER \ud83d\ude86"}, "geometry": {"type": "Point", "coordinates": [2.102353, 50.396249]}}, {"type": "Feature", "properties": {"start": "Saint-Pol-sur-Ternoise", "stop_name": "Hesdin", "type": "Gare accessible", "transport": "TER", "transport_legende": "\ud83d\udeb2 \u2764\ufe0f Train TER \ud83d\ude86"}, "geometry": {"type": "Point", "coordinates": [2.0353, 50.378181]}}, {"type": "Feature", "properties": {"start": "Saint-Pol-sur-Ternoise", "stop_name": "Beaurainville", "type": "Gare accessible", "transport": "TER", "transport_legende": "\ud83d\udeb2 \u2764\ufe0f Train TER \ud83d\ude86"}, "geometry": {"type": "Point", "coordinates": [1.895193, 50.422895]}}, {"type": "Feature", "properties": {"start": "Saint-Pol-sur-Ternoise", "stop_name": "Montreuil sur Mer", "type": "Gare accessible", "transport": "TER", "transport_legende": "\ud83d\udeb2 \u2764\ufe0f Train TER \ud83d\ude86"}, "geometry": {"type": "Point", "coordinates": [1.768935, 50.466155]}}, {"type": "Feature", "properties": {"start": "Saint-Pol-sur-Ternoise", "stop_name": "\u00c9taples - Le Touquet", "type": "Gare accessible", "transport": "TER", "transport_legende": "\ud83d\udeb2 \u2764\ufe0f Train TER \ud83d\ude86"}, "geometry": {"type": "Point", "coordinates": [1.642582, 50.516544]}}, {"type": "Feature", "properties": {"start": "Saint-Pol-sur-Ternoise", "stop_name": "Brimeux", "type": "Gare accessible", "transport": "TER", "transport_legende": "\ud83d\udeb2 \u2764\ufe0f Train TER \ud83d\ude86"}, "geometry": {"type": "Point", "coordinates": [1.833896, 50.446741]}}, {"type": "Feature", "properties": {"start": "Saint-Pol-sur-Ternoise", "stop_name": "Maresquel", "type": "Gare accessible", "transport": "TER", "transport_legende": "\ud83d\udeb2 \u2764\ufe0f Train TER \ud83d\ude86"}, "geometry": {"type": "Point", "coordinates": [1.930836, 50.408076]}}, {"type": "Feature", "properties": {"start": "Saint-Pol-sur-Ternoise", "stop_name": "Aubin-Saint-Vaast", "type": "Gare accessible", "transport": "TER", "transport_legende": "\ud83d\udeb2 \u2764\ufe0f Train TER \ud83d\ude86"}, "geometry": {"type": "Point", "coordinates": [1.969989, 50.394778]}}, {"type": "Feature", "properties": {"start": "Saint-Pol-sur-Ternoise", "stop_name": "Blangy-sur-Ternoise", "type": "Gare accessible", "transport": "TER", "transport_legende": "\ud83d\udeb2 \u2764\ufe0f Train TER \ud83d\ude86"}, "geometry": {"type": "Point", "coordinates": [2.1723, 50.424662]}}, {"type": "Feature", "properties": {"start": "Saint-Pol-sur-Ternoise", "stop_name": "La Bass\u00e9e", "type": "Gare accessible", "transport": "TER", "transport_legende": "\ud83d\udeb2 \u2764\ufe0f Train TER \ud83d\ude86"}, "geometry": {"type": "Point", "coordinates": [2.80477, 50.527937]}}, {"type": "Feature", "properties": {"start": "Saint-Pol-sur-Ternoise", "stop_name": "Lille Centre Hospitalier R\u00e9gional", "type": "Gare accessible", "transport": "TER", "transport_legende": "\ud83d\udeb2 \u2764\ufe0f Train TER \ud83d\ude86"}, "geometry": {"type": "Point", "coordinates": [3.034278, 50.614297]}}, {"type": "Feature", "properties": {"start": "Saint-Pol-sur-Ternoise", "stop_name": "Lille Flandres", "type": "Gare accessible", "transport": "TER", "transport_legende": "\ud83d\udeb2 \u2764\ufe0f Train TER \ud83d\ude86"}, "geometry": {"type": "Point", "coordinates": [3.06987, 50.636577]}}, {"type": "Feature", "properties": {"start": "Saint-Pol-sur-Ternoise", "stop_name": "Lens", "type": "Gare accessible", "transport": "TER", "transport_legende": "\ud83d\udeb2 \u2764\ufe0f Train TER \ud83d\ude86"}, "geometry": {"type": "Point", "coordinates": [2.828301, 50.426866]}}, {"type": "Feature", "properties": {"start": "Saint-Pol-sur-Ternoise", "stop_name": "Beuvry l\u00e8s B\u00e9thune", "type": "Gare accessible", "transport": "TER", "transport_legende": "\ud83d\udeb2 \u2764\ufe0f Train TER \ud83d\ude86"}, "geometry": {"type": "Point", "coordinates": [2.692329, 50.535523]}}, {"type": "Feature", "properties": {"start": "Saint-Pol-sur-Ternoise", "stop_name": "Cuinchy", "type": "Gare accessible", "transport": "TER", "transport_legende": "\ud83d\udeb2 \u2764\ufe0f Train TER \ud83d\ude86"}, "geometry": {"type": "Point", "coordinates": [2.74743, 50.521851]}}, {"type": "Feature", "properties": {"start": "Saint-Pol-sur-Ternoise", "stop_name": "Salom\u00e9", "type": "Gare accessible", "transport": "TER", "transport_legende": "\ud83d\udeb2 \u2764\ufe0f Train TER \ud83d\ude86"}, "geometry": {"type": "Point", "coordinates": [2.838268, 50.541881]}}, {"type": "Feature", "properties": {"start": "Saint-Pol-sur-Ternoise", "stop_name": "Marquillies", "type": "Gare accessible", "transport": "TER", "transport_legende": "\ud83d\udeb2 \u2764\ufe0f Train TER \ud83d\ude86"}, "geometry": {"type": "Point", "coordinates": [2.867373, 50.548145]}}, {"type": "Feature", "properties": {"start": "Saint-Pol-sur-Ternoise", "stop_name": "Don - Sainghin", "type": "Gare accessible", "transport": "TER", "transport_legende": "\ud83d\udeb2 \u2764\ufe0f Train TER \ud83d\ude86"}, "geometry": {"type": "Point", "coordinates": [2.914402, 50.551726]}}, {"type": "Feature", "properties": {"start": "Saint-Pol-sur-Ternoise", "stop_name": "Wavrin", "type": "Gare accessible", "transport": "TER", "transport_legende": "\ud83d\udeb2 \u2764\ufe0f Train TER \ud83d\ude86"}, "geometry": {"type": "Point", "coordinates": [2.936654, 50.574424]}}, {"type": "Feature", "properties": {"start": "Saint-Pol-sur-Ternoise", "stop_name": "Santes", "type": "Gare accessible", "transport": "TER", "transport_legende": "\ud83d\udeb2 \u2764\ufe0f Train TER \ud83d\ude86"}, "geometry": {"type": "Point", "coordinates": [2.961977, 50.592063]}}, {"type": "Feature", "properties": {"start": "Saint-Pol-sur-Ternoise", "stop_name": "Haubourdin", "type": "Gare accessible", "transport": "TER", "transport_legende": "\ud83d\udeb2 \u2764\ufe0f Train TER \ud83d\ude86"}, "geometry": {"type": "Point", "coordinates": [2.990145, 50.60707]}}, {"type": "Feature", "properties": {"start": "Saint-Pol-sur-Ternoise", "stop_name": "Loos lez Lille", "type": "Gare accessible", "transport": "TER", "transport_legende": "\ud83d\udeb2 \u2764\ufe0f Train TER \ud83d\ude86"}, "geometry": {"type": "Point", "coordinates": [3.016976, 50.612936]}}, {"type": "Feature", "properties": {"start": "Saint-Pol-sur-Ternoise", "stop_name": "Lille Porte de Douai", "type": "Gare accessible", "transport": "TER", "transport_legende": "\ud83d\udeb2 \u2764\ufe0f Train TER \ud83d\ude86"}, "geometry": {"type": "Point", "coordinates": [3.075075, 50.612114]}}]}