{"type": "FeatureCollection", "features": [{"type": "Feature", "properties": {"start": "Saint-Cyprien Ar\u00e8nes", "stop_name": "Saint-Cyprien Ar\u00e8nes", "type": "Gare s\u00e9lectionn\u00e9e", "transport": "TER", "nombre_trajet_moyen": 14.42, "transport_legende": "\ud83d\udeb2 \u2764\ufe0f Train TER \ud83d\ude86"}, "geometry": {"type": "Point", "coordinates": [1.416493, 43.594048]}}, {"type": "Feature", "properties": {"start": "Saint-Cyprien Ar\u00e8nes", "stop_name": "Auch", "type": "Gare accessible", "transport": "TER", "nombre_trajet_moyen": 8.48, "transport_legende": "\ud83d\udeb2 \u2764\ufe0f Train TER \ud83d\ude86"}, "geometry": {"type": "Point", "coordinates": [0.596661, 43.647488]}}, {"type": "Feature", "properties": {"start": "Saint-Cyprien Ar\u00e8nes", "stop_name": "Aubiet", "type": "Gare accessible", "transport": "TER", "nombre_trajet_moyen": 8.48, "transport_legende": "\ud83d\udeb2 \u2764\ufe0f Train TER \ud83d\ude86"}, "geometry": {"type": "Point", "coordinates": [0.789173, 43.650192]}}, {"type": "Feature", "properties": {"start": "Saint-Cyprien Ar\u00e8nes", "stop_name": "Gimont Cahuzac", "type": "Gare accessible", "transport": "TER", "nombre_trajet_moyen": 8.48, "transport_legende": "\ud83d\udeb2 \u2764\ufe0f Train TER \ud83d\ude86"}, "geometry": {"type": "Point", "coordinates": [0.867711, 43.633194]}}, {"type": "Feature", "properties": {"start": "Saint-Cyprien Ar\u00e8nes", "stop_name": "L'Isle-Jourdain", "type": "Gare accessible", "transport": "TER", "nombre_trajet_moyen": 9.65, "transport_legende": "\ud83d\udeb2 \u2764\ufe0f Train TER \ud83d\ude86"}, "geometry": {"type": "Point", "coordinates": [1.089829, 43.617185]}}, {"type": "Feature", "properties": {"start": "Saint-Cyprien Ar\u00e8nes", "stop_name": "M\u00e9renvielle", "type": "Gare accessible", "transport": "TER", "nombre_trajet_moyen": 4.1, "transport_legende": "\ud83d\udeb2 \u2764\ufe0f Train TER \ud83d\ude86"}, "geometry": {"type": "Point", "coordinates": [1.15033, 43.636505]}}, {"type": "Feature", "properties": {"start": "Saint-Cyprien Ar\u00e8nes", "stop_name": "Brax - L\u00e9guevin", "type": "Gare accessible", "transport": "TER", "nombre_trajet_moyen": 9.65, "transport_legende": "\ud83d\udeb2 \u2764\ufe0f Train TER \ud83d\ude86"}, "geometry": {"type": "Point", "coordinates": [1.236922, 43.614887]}}, {"type": "Feature", "properties": {"start": "Saint-Cyprien Ar\u00e8nes", "stop_name": "Pibrac", "type": "Gare accessible", "transport": "TER", "nombre_trajet_moyen": 9.65, "transport_legende": "\ud83d\udeb2 \u2764\ufe0f Train TER \ud83d\ude86"}, "geometry": {"type": "Point", "coordinates": [1.289117, 43.621329]}}, {"type": "Feature", "properties": {"start": "Saint-Cyprien Ar\u00e8nes", "stop_name": "Colomiers Lyc\u00e9e International", "type": "Gare accessible", "transport": "TER", "nombre_trajet_moyen": 9.65, "transport_legende": "\ud83d\udeb2 \u2764\ufe0f Train TER \ud83d\ude86"}, "geometry": {"type": "Point", "coordinates": [1.314116, 43.616306]}}, {"type": "Feature", "properties": {"start": "Saint-Cyprien Ar\u00e8nes", "stop_name": "Colomiers", "type": "Gare accessible", "transport": "TER", "nombre_trajet_moyen": 14.42, "transport_legende": "\ud83d\udeb2 \u2764\ufe0f Train TER \ud83d\ude86"}, "geometry": {"type": "Point", "coordinates": [1.334221, 43.603734]}}, {"type": "Feature", "properties": {"start": "Saint-Cyprien Ar\u00e8nes", "stop_name": "Gallieni-Canc\u00e9rop\u00f4le", "type": "Gare accessible", "transport": "TER", "nombre_trajet_moyen": 9.33, "transport_legende": "\ud83d\udeb2 \u2764\ufe0f Train TER \ud83d\ude86"}, "geometry": {"type": "Point", "coordinates": [1.41958, 43.573088]}}, {"type": "Feature", "properties": {"start": "Saint-Cyprien Ar\u00e8nes", "stop_name": "Saint-Agne", "type": "Gare accessible", "transport": "TER", "nombre_trajet_moyen": 9.33, "transport_legende": "\ud83d\udeb2 \u2764\ufe0f Train TER \ud83d\ude86"}, "geometry": {"type": "Point", "coordinates": [1.45012, 43.579477]}}, {"type": "Feature", "properties": {"start": "Saint-Cyprien Ar\u00e8nes", "stop_name": "Toulouse Matabiau", "type": "Gare accessible", "transport": "TER", "nombre_trajet_moyen": 9.33, "transport_legende": "\ud83d\udeb2 \u2764\ufe0f Train TER \ud83d\ude86"}, "geometry": {"type": "Point", "coordinates": [1.453616, 43.611206]}}, {"type": "Feature", "properties": {"start": "Saint-Cyprien Ar\u00e8nes", "stop_name": "Lardenne", "type": "Gare accessible", "transport": "TER", "nombre_trajet_moyen": 7.3, "transport_legende": "\ud83d\udeb2 \u2764\ufe0f Train TER \ud83d\ude86"}, "geometry": {"type": "Point", "coordinates": [1.383056, 43.596688]}}, {"type": "Feature", "properties": {"start": "Saint-Cyprien Ar\u00e8nes", "stop_name": "Les Ramassiers", "type": "Gare accessible", "transport": "TER", "nombre_trajet_moyen": 6.58, "transport_legende": "\ud83d\udeb2 \u2764\ufe0f Train TER \ud83d\ude86"}, "geometry": {"type": "Point", "coordinates": [1.352946, 43.602399]}}, {"type": "Feature", "properties": {"start": "Saint-Cyprien Ar\u00e8nes", "stop_name": "Saint-Martin du Touch", "type": "Gare accessible", "transport": "TER", "nombre_trajet_moyen": 6.58, "transport_legende": "\ud83d\udeb2 \u2764\ufe0f Train TER \ud83d\ude86"}, "geometry": {"type": "Point", "coordinates": [1.371855, 43.599788]}}, {"type": "Feature", "properties": {"start": "Saint-Cyprien Ar\u00e8nes", "stop_name": "Le Toec", "type": "Gare accessible", "transport": "TER", "nombre_trajet_moyen": 6.58, "transport_legende": "\ud83d\udeb2 \u2764\ufe0f Train TER \ud83d\ude86"}, "geometry": {"type": "Point", "coordinates": [1.401371, 43.595554]}}]}