{"type": "FeatureCollection", "features": [{"type": "Feature", "properties": {"start": "Saint-Louis", "stop_name": "Saint-Louis", "type": "Gare s\u00e9lectionn\u00e9e", "transport": "TER", "nombre_trajet_moyen": 7.48, "transport_legende": "\ud83d\udeb2 \u2764\ufe0f Train TER \ud83d\ude86"}, "geometry": {"type": "Point", "coordinates": [7.555988, 47.590609]}}, {"type": "Feature", "properties": {"start": "Saint-Louis", "stop_name": "Basel SBB", "type": "Gare accessible", "transport": "TER", "nombre_trajet_moyen": 4.05, "transport_legende": "\ud83d\udeb2 \u2764\ufe0f Train TER \ud83d\ude86"}, "geometry": {"type": "Point", "coordinates": [7.58956, 47.5474]}}, {"type": "Feature", "properties": {"start": "Saint-Louis", "stop_name": "Bartenheim Pharmacie", "type": "Gare accessible", "transport": "TER", "nombre_trajet_moyen": 0.68, "transport_legende": "\ud83d\udeb2 \u2764\ufe0f Train TER \ud83d\ude86"}, "geometry": {"type": "Point", "coordinates": [7.476127, 47.635011]}}, {"type": "Feature", "properties": {"start": "Saint-Louis", "stop_name": "Sierentz Restaurant Au Soleil", "type": "Gare accessible", "transport": "TER", "nombre_trajet_moyen": 0.68, "transport_legende": "\ud83d\udeb2 \u2764\ufe0f Train TER \ud83d\ude86"}, "geometry": {"type": "Point", "coordinates": [7.454857, 47.654216]}}, {"type": "Feature", "properties": {"start": "Saint-Louis", "stop_name": "Habsheim", "type": "Gare accessible", "transport": "TER", "nombre_trajet_moyen": 6.05, "transport_legende": "\ud83d\udeb2 \u2764\ufe0f Train TER \ud83d\ude86"}, "geometry": {"type": "Point", "coordinates": [7.418008, 47.737689]}}, {"type": "Feature", "properties": {"start": "Saint-Louis", "stop_name": "Rixheim Arr\u00eat Sol\u00e9a Barri\u00e8res", "type": "Gare accessible", "transport": "TER", "nombre_trajet_moyen": 0.68, "transport_legende": "\ud83d\udeb2 \u2764\ufe0f Train TER \ud83d\ude86"}, "geometry": {"type": "Point", "coordinates": [7.409291, 47.748244]}}, {"type": "Feature", "properties": {"start": "Saint-Louis", "stop_name": "Mulhouse", "type": "Gare accessible", "transport": "TER", "nombre_trajet_moyen": 7.48, "transport_legende": "\ud83d\udeb2 \u2764\ufe0f Train TER \ud83d\ude86"}, "geometry": {"type": "Point", "coordinates": [7.34316, 47.742691]}}, {"type": "Feature", "properties": {"start": "Saint-Louis", "stop_name": "B\u00e2le Saint-Jean", "type": "Gare accessible", "transport": "TER", "nombre_trajet_moyen": 6.05, "transport_legende": "\ud83d\udeb2 \u2764\ufe0f Train TER \ud83d\ude86"}, "geometry": {"type": "Point", "coordinates": [7.572745, 47.57031]}}, {"type": "Feature", "properties": {"start": "Saint-Louis", "stop_name": "Saint-Louis la Chauss\u00e9e", "type": "Gare accessible", "transport": "TER", "nombre_trajet_moyen": 6.05, "transport_legende": "\ud83d\udeb2 \u2764\ufe0f Train TER \ud83d\ude86"}, "geometry": {"type": "Point", "coordinates": [7.531278, 47.60951]}}, {"type": "Feature", "properties": {"start": "Saint-Louis", "stop_name": "Bartenheim", "type": "Gare accessible", "transport": "TER", "nombre_trajet_moyen": 6.05, "transport_legende": "\ud83d\udeb2 \u2764\ufe0f Train TER \ud83d\ude86"}, "geometry": {"type": "Point", "coordinates": [7.487256, 47.634931]}}, {"type": "Feature", "properties": {"start": "Saint-Louis", "stop_name": "Sierentz", "type": "Gare accessible", "transport": "TER", "nombre_trajet_moyen": 6.05, "transport_legende": "\ud83d\udeb2 \u2764\ufe0f Train TER \ud83d\ude86"}, "geometry": {"type": "Point", "coordinates": [7.459332, 47.65589]}}, {"type": "Feature", "properties": {"start": "Saint-Louis", "stop_name": "Rixheim", "type": "Gare accessible", "transport": "TER", "nombre_trajet_moyen": 6.05, "transport_legende": "\ud83d\udeb2 \u2764\ufe0f Train TER \ud83d\ude86"}, "geometry": {"type": "Point", "coordinates": [7.406144, 47.748695]}}, {"type": "Feature", "properties": {"start": "Saint-Louis", "stop_name": "Strasbourg", "type": "Gare accessible", "transport": "TER", "nombre_trajet_moyen": 4.88, "transport_legende": "\ud83d\udeb2 \u2764\ufe0f Train TER \ud83d\ude86"}, "geometry": {"type": "Point", "coordinates": [7.734793, 48.584532]}}, {"type": "Feature", "properties": {"start": "Saint-Louis", "stop_name": "S\u00e9lestat", "type": "Gare accessible", "transport": "TER", "nombre_trajet_moyen": 4.88, "transport_legende": "\ud83d\udeb2 \u2764\ufe0f Train TER \ud83d\ude86"}, "geometry": {"type": "Point", "coordinates": [7.443157, 48.259824]}}, {"type": "Feature", "properties": {"start": "Saint-Louis", "stop_name": "Colmar", "type": "Gare accessible", "transport": "TER", "nombre_trajet_moyen": 4.88, "transport_legende": "\ud83d\udeb2 \u2764\ufe0f Train TER \ud83d\ude86"}, "geometry": {"type": "Point", "coordinates": [7.347756, 48.073527]}}, {"type": "Feature", "properties": {"start": "Saint-Louis", "stop_name": "Benfeld", "type": "Gare accessible", "transport": "TER", "nombre_trajet_moyen": 0.86, "transport_legende": "\ud83d\udeb2 \u2764\ufe0f Train TER \ud83d\ude86"}, "geometry": {"type": "Point", "coordinates": [7.583866, 48.374069]}}, {"type": "Feature", "properties": {"start": "Saint-Louis", "stop_name": "Erstein", "type": "Gare accessible", "transport": "TER", "nombre_trajet_moyen": 0.86, "transport_legende": "\ud83d\udeb2 \u2764\ufe0f Train TER \ud83d\ude86"}, "geometry": {"type": "Point", "coordinates": [7.638701, 48.422982]}}, {"type": "Feature", "properties": {"start": "Saint-Louis", "stop_name": "Bollwiller", "type": "Gare accessible", "transport": "TER", "nombre_trajet_moyen": 0.86, "transport_legende": "\ud83d\udeb2 \u2764\ufe0f Train TER \ud83d\ude86"}, "geometry": {"type": "Point", "coordinates": [7.26718, 47.856969]}}, {"type": "Feature", "properties": {"start": "Saint-Louis", "stop_name": "Rouffach", "type": "Gare accessible", "transport": "TER", "nombre_trajet_moyen": 0.86, "transport_legende": "\ud83d\udeb2 \u2764\ufe0f Train TER \ud83d\ude86"}, "geometry": {"type": "Point", "coordinates": [7.312529, 47.960188]}}]}