{"type": "FeatureCollection", "features": [{"type": "Feature", "properties": {"start": "Tessonni\u00e8res", "stop_name": "Tessonni\u00e8res", "type": "Gare s\u00e9lectionn\u00e9e", "transport": "TER", "nombre_trajet_moyen": 4.68, "transport_legende": "\ud83d\udeb2 \u2764\ufe0f Train TER \ud83d\ude86"}, "geometry": {"type": "Point", "coordinates": [1.936953, 43.928421]}}, {"type": "Feature", "properties": {"start": "Tessonni\u00e8res", "stop_name": "Toulouse Matabiau", "type": "Gare accessible", "transport": "TER", "nombre_trajet_moyen": 4.68, "transport_legende": "\ud83d\udeb2 \u2764\ufe0f Train TER \ud83d\ude86"}, "geometry": {"type": "Point", "coordinates": [1.453616, 43.611206]}}, {"type": "Feature", "properties": {"start": "Tessonni\u00e8res", "stop_name": "Gragnague", "type": "Gare accessible", "transport": "TER", "nombre_trajet_moyen": 4.15, "transport_legende": "\ud83d\udeb2 \u2764\ufe0f Train TER \ud83d\ude86"}, "geometry": {"type": "Point", "coordinates": [1.567514, 43.695951]}}, {"type": "Feature", "properties": {"start": "Tessonni\u00e8res", "stop_name": "Montastruc-la-Conseill\u00e8re", "type": "Gare accessible", "transport": "TER", "nombre_trajet_moyen": 4.15, "transport_legende": "\ud83d\udeb2 \u2764\ufe0f Train TER \ud83d\ude86"}, "geometry": {"type": "Point", "coordinates": [1.598016, 43.715984]}}, {"type": "Feature", "properties": {"start": "Tessonni\u00e8res", "stop_name": "Saint-Sulpice", "type": "Gare accessible", "transport": "TER", "nombre_trajet_moyen": 4.68, "transport_legende": "\ud83d\udeb2 \u2764\ufe0f Train TER \ud83d\ude86"}, "geometry": {"type": "Point", "coordinates": [1.680702, 43.775073]}}, {"type": "Feature", "properties": {"start": "Tessonni\u00e8res", "stop_name": "Rabastens - Coufouleux", "type": "Gare accessible", "transport": "TER", "nombre_trajet_moyen": 4.68, "transport_legende": "\ud83d\udeb2 \u2764\ufe0f Train TER \ud83d\ude86"}, "geometry": {"type": "Point", "coordinates": [1.730455, 43.819654]}}, {"type": "Feature", "properties": {"start": "Tessonni\u00e8res", "stop_name": "Lisle-sur-Tarn", "type": "Gare accessible", "transport": "TER", "nombre_trajet_moyen": 4.68, "transport_legende": "\ud83d\udeb2 \u2764\ufe0f Train TER \ud83d\ude86"}, "geometry": {"type": "Point", "coordinates": [1.80823, 43.85639]}}, {"type": "Feature", "properties": {"start": "Tessonni\u00e8res", "stop_name": "Gaillac", "type": "Gare accessible", "transport": "TER", "nombre_trajet_moyen": 4.68, "transport_legende": "\ud83d\udeb2 \u2764\ufe0f Train TER \ud83d\ude86"}, "geometry": {"type": "Point", "coordinates": [1.89483, 43.905984]}}, {"type": "Feature", "properties": {"start": "Tessonni\u00e8res", "stop_name": "Marssac-sur-Tarn RN88", "type": "Gare accessible", "transport": "TER", "nombre_trajet_moyen": 0.01, "transport_legende": "\ud83d\udeb2 \u2764\ufe0f Train TER \ud83d\ude86"}, "geometry": {"type": "Point", "coordinates": [2.028608, 43.918546]}}, {"type": "Feature", "properties": {"start": "Tessonni\u00e8res", "stop_name": "Albi Ville", "type": "Gare accessible", "transport": "TER", "nombre_trajet_moyen": 4.68, "transport_legende": "\ud83d\udeb2 \u2764\ufe0f Train TER \ud83d\ude86"}, "geometry": {"type": "Point", "coordinates": [2.137958, 43.92238]}}, {"type": "Feature", "properties": {"start": "Tessonni\u00e8res", "stop_name": "Albi Madeleine", "type": "Gare accessible", "transport": "TER", "nombre_trajet_moyen": 4.68, "transport_legende": "\ud83d\udeb2 \u2764\ufe0f Train TER \ud83d\ude86"}, "geometry": {"type": "Point", "coordinates": [2.141209, 43.938137]}}, {"type": "Feature", "properties": {"start": "Tessonni\u00e8res", "stop_name": "Carmaux", "type": "Gare accessible", "transport": "TER", "nombre_trajet_moyen": 4.68, "transport_legende": "\ud83d\udeb2 \u2764\ufe0f Train TER \ud83d\ude86"}, "geometry": {"type": "Point", "coordinates": [2.152401, 44.048782]}}, {"type": "Feature", "properties": {"start": "Tessonni\u00e8res", "stop_name": "Naucelle", "type": "Gare accessible", "transport": "TER", "nombre_trajet_moyen": 0.7, "transport_legende": "\ud83d\udeb2 \u2764\ufe0f Train TER \ud83d\ude86"}, "geometry": {"type": "Point", "coordinates": [2.363259, 44.185439]}}, {"type": "Feature", "properties": {"start": "Tessonni\u00e8res", "stop_name": "Baraqueville", "type": "Gare accessible", "transport": "TER", "nombre_trajet_moyen": 0.7, "transport_legende": "\ud83d\udeb2 \u2764\ufe0f Train TER \ud83d\ude86"}, "geometry": {"type": "Point", "coordinates": [2.4274, 44.270512]}}, {"type": "Feature", "properties": {"start": "Tessonni\u00e8res", "stop_name": "Luc-Primaube", "type": "Gare accessible", "transport": "TER", "nombre_trajet_moyen": 0.7, "transport_legende": "\ud83d\udeb2 \u2764\ufe0f Train TER \ud83d\ude86"}, "geometry": {"type": "Point", "coordinates": [2.554776, 44.2915]}}, {"type": "Feature", "properties": {"start": "Tessonni\u00e8res", "stop_name": "Rodez", "type": "Gare accessible", "transport": "TER", "nombre_trajet_moyen": 0.7, "transport_legende": "\ud83d\udeb2 \u2764\ufe0f Train TER \ud83d\ude86"}, "geometry": {"type": "Point", "coordinates": [2.58056, 44.362633]}}, {"type": "Feature", "properties": {"start": "Tessonni\u00e8res", "stop_name": "Marssac-sur-tarn", "type": "Gare accessible", "transport": "TER", "nombre_trajet_moyen": 4.14, "transport_legende": "\ud83d\udeb2 \u2764\ufe0f Train TER \ud83d\ude86"}, "geometry": {"type": "Point", "coordinates": [2.02678, 43.91523]}}, {"type": "Feature", "properties": {"start": "Tessonni\u00e8res", "stop_name": "Roques\u00e9ri\u00e8re - Buzet", "type": "Gare accessible", "transport": "TER", "nombre_trajet_moyen": 1.68, "transport_legende": "\ud83d\udeb2 \u2764\ufe0f Train TER \ud83d\ude86"}, "geometry": {"type": "Point", "coordinates": [1.619875, 43.751247]}}, {"type": "Feature", "properties": {"start": "Tessonni\u00e8res", "stop_name": "Montrab\u00e9", "type": "Gare accessible", "transport": "TER", "nombre_trajet_moyen": 2.32, "transport_legende": "\ud83d\udeb2 \u2764\ufe0f Train TER \ud83d\ude86"}, "geometry": {"type": "Point", "coordinates": [1.524006, 43.644907]}}]}