{"type": "FeatureCollection", "features": [{"type": "Feature", "properties": {"start": "Torfou", "stop_name": "Torfou", "type": "Gare s\u00e9lectionn\u00e9e", "transport": "TER", "nombre_trajet_moyen": 3.26, "transport_legende": "\ud83d\udeb2 \u2764\ufe0f Train TER \ud83d\ude86"}, "geometry": {"type": "Point", "coordinates": [-1.117492, 47.03319]}}, {"type": "Feature", "properties": {"start": "Torfou", "stop_name": "Cholet", "type": "Gare accessible", "transport": "TER", "nombre_trajet_moyen": 3.26, "transport_legende": "\ud83d\udeb2 \u2764\ufe0f Train TER \ud83d\ude86"}, "geometry": {"type": "Point", "coordinates": [-0.869897, 47.065702]}}, {"type": "Feature", "properties": {"start": "Torfou", "stop_name": "Boussay - La Bruffi\u00e8re", "type": "Gare accessible", "transport": "TER", "nombre_trajet_moyen": 3.26, "transport_legende": "\ud83d\udeb2 \u2764\ufe0f Train TER \ud83d\ude86"}, "geometry": {"type": "Point", "coordinates": [-1.182615, 47.050453]}}, {"type": "Feature", "properties": {"start": "Torfou", "stop_name": "Cugand", "type": "Gare accessible", "transport": "TER", "nombre_trajet_moyen": 3.26, "transport_legende": "\ud83d\udeb2 \u2764\ufe0f Train TER \ud83d\ude86"}, "geometry": {"type": "Point", "coordinates": [-1.25331, 47.05837]}}, {"type": "Feature", "properties": {"start": "Torfou", "stop_name": "Clisson", "type": "Gare accessible", "transport": "TER", "nombre_trajet_moyen": 3.26, "transport_legende": "\ud83d\udeb2 \u2764\ufe0f Train TER \ud83d\ude86"}, "geometry": {"type": "Point", "coordinates": [-1.286292, 47.086015]}}, {"type": "Feature", "properties": {"start": "Torfou", "stop_name": "Nantes", "type": "Gare accessible", "transport": "TER", "nombre_trajet_moyen": 3.26, "transport_legende": "\ud83d\udeb2 \u2764\ufe0f Train TER \ud83d\ude86"}, "geometry": {"type": "Point", "coordinates": [-1.542077, 47.217491]}}]}