{"type": "FeatureCollection", "features": [{"type": "Feature", "properties": {"start": "Urcay H\u00f4tel du Lyon d'Or", "stop_name": "Urcay H\u00f4tel du Lyon d'Or", "type": "Gare s\u00e9lectionn\u00e9e", "transport": "TER", "nombre_trajet_moyen": 1.68, "transport_legende": "\ud83d\udeb2 \u2764\ufe0f Train TER \ud83d\ude86"}, "geometry": {"type": "Point", "coordinates": [2.589442, 46.626834]}}, {"type": "Feature", "properties": {"start": "Urcay H\u00f4tel du Lyon d'Or", "stop_name": "Meaulne Place Centrale", "type": "Gare accessible", "transport": "TER", "nombre_trajet_moyen": 1.68, "transport_legende": "\ud83d\udeb2 \u2764\ufe0f Train TER \ud83d\ude86"}, "geometry": {"type": "Point", "coordinates": [2.613322, 46.598954]}}, {"type": "Feature", "properties": {"start": "Urcay H\u00f4tel du Lyon d'Or", "stop_name": "Vallon-en-Sully", "type": "Gare accessible", "transport": "TER", "nombre_trajet_moyen": 1.68, "transport_legende": "\ud83d\udeb2 \u2764\ufe0f Train TER \ud83d\ude86"}, "geometry": {"type": "Point", "coordinates": [2.610766, 46.536481]}}, {"type": "Feature", "properties": {"start": "Urcay H\u00f4tel du Lyon d'Or", "stop_name": "La Grave Carrefour", "type": "Gare accessible", "transport": "TER", "nombre_trajet_moyen": 1.68, "transport_legende": "\ud83d\udeb2 \u2764\ufe0f Train TER \ud83d\ude86"}, "geometry": {"type": "Point", "coordinates": [2.61985, 46.533453]}}, {"type": "Feature", "properties": {"start": "Urcay H\u00f4tel du Lyon d'Or", "stop_name": "Reugny RN144", "type": "Gare accessible", "transport": "TER", "nombre_trajet_moyen": 0.96, "transport_legende": "\ud83d\udeb2 \u2764\ufe0f Train TER \ud83d\ude86"}, "geometry": {"type": "Point", "coordinates": [2.615508, 46.462027]}}, {"type": "Feature", "properties": {"start": "Urcay H\u00f4tel du Lyon d'Or", "stop_name": "La Ville Gozet Square H. Duna", "type": "Gare accessible", "transport": "TER", "nombre_trajet_moyen": 1.68, "transport_legende": "\ud83d\udeb2 \u2764\ufe0f Train TER \ud83d\ude86"}, "geometry": {"type": "Point", "coordinates": [2.593626, 46.347927]}}, {"type": "Feature", "properties": {"start": "Urcay H\u00f4tel du Lyon d'Or", "stop_name": "Montlu\u00e7on", "type": "Gare accessible", "transport": "TER", "nombre_trajet_moyen": 1.68, "transport_legende": "\ud83d\udeb2 \u2764\ufe0f Train TER \ud83d\ude86"}, "geometry": {"type": "Point", "coordinates": [2.596159, 46.338101]}}, {"type": "Feature", "properties": {"start": "Urcay H\u00f4tel du Lyon d'Or", "stop_name": "Magnette", "type": "Gare accessible", "transport": "TER", "nombre_trajet_moyen": 0.84, "transport_legende": "\ud83d\udeb2 \u2764\ufe0f Train TER \ud83d\ude86"}, "geometry": {"type": "Point", "coordinates": [2.602987, 46.464146]}}, {"type": "Feature", "properties": {"start": "Urcay H\u00f4tel du Lyon d'Or", "stop_name": "Reugny Rue De La Bascul", "type": "Gare accessible", "transport": "TER", "nombre_trajet_moyen": 0.84, "transport_legende": "\ud83d\udeb2 \u2764\ufe0f Train TER \ud83d\ude86"}, "geometry": {"type": "Point", "coordinates": [2.61546, 46.462807]}}, {"type": "Feature", "properties": {"start": "Urcay H\u00f4tel du Lyon d'Or", "stop_name": "Saint-Amand-Montrond - Orval", "type": "Gare accessible", "transport": "TER", "nombre_trajet_moyen": 0.31, "transport_legende": "\ud83d\udeb2 \u2764\ufe0f Train TER \ud83d\ude86"}, "geometry": {"type": "Point", "coordinates": [2.485989, 46.726508]}}, {"type": "Feature", "properties": {"start": "Urcay H\u00f4tel du Lyon d'Or", "stop_name": "Ch\u00e2teauneuf-sur-Cher", "type": "Gare accessible", "transport": "TER", "nombre_trajet_moyen": 0.14, "transport_legende": "\ud83d\udeb2 \u2764\ufe0f Train TER \ud83d\ude86"}, "geometry": {"type": "Point", "coordinates": [2.310173, 46.856682]}}, {"type": "Feature", "properties": {"start": "Urcay H\u00f4tel du Lyon d'Or", "stop_name": "Saint-Florent Place de la Gare", "type": "Gare accessible", "transport": "TER", "nombre_trajet_moyen": 0.14, "transport_legende": "\ud83d\udeb2 \u2764\ufe0f Train TER \ud83d\ude86"}, "geometry": {"type": "Point", "coordinates": [2.252213, 46.99219]}}, {"type": "Feature", "properties": {"start": "Urcay H\u00f4tel du Lyon d'Or", "stop_name": "Vierzon", "type": "Gare accessible", "transport": "TER", "nombre_trajet_moyen": 0.14, "transport_legende": "\ud83d\udeb2 \u2764\ufe0f Train TER \ud83d\ude86"}, "geometry": {"type": "Point", "coordinates": [2.059869, 47.226474]}}]}