{"type": "FeatureCollection", "features": [{"type": "Feature", "properties": {"start": "Valleiry", "stop_name": "Valleiry", "type": "Gare s\u00e9lectionn\u00e9e", "transport": "TER", "nombre_trajet_moyen": 8.08, "transport_legende": "\ud83d\udeb2 \u2764\ufe0f Train TER \ud83d\ude86"}, "geometry": {"type": "Point", "coordinates": [5.967379, 46.109343]}}, {"type": "Feature", "properties": {"start": "Valleiry", "stop_name": "Bellegarde", "type": "Gare accessible", "transport": "TER", "nombre_trajet_moyen": 8.08, "transport_legende": "\ud83d\udeb2 \u2764\ufe0f Train TER \ud83d\ude86"}, "geometry": {"type": "Point", "coordinates": [5.823483, 46.109425]}}, {"type": "Feature", "properties": {"start": "Valleiry", "stop_name": "Saint-Julien-en-Genevois", "type": "Gare accessible", "transport": "TER", "nombre_trajet_moyen": 8.08, "transport_legende": "\ud83d\udeb2 \u2764\ufe0f Train TER \ud83d\ude86"}, "geometry": {"type": "Point", "coordinates": [6.085527, 46.142075]}}, {"type": "Feature", "properties": {"start": "Valleiry", "stop_name": "Annemasse", "type": "Gare accessible", "transport": "TER", "nombre_trajet_moyen": 8.08, "transport_legende": "\ud83d\udeb2 \u2764\ufe0f Train TER \ud83d\ude86"}, "geometry": {"type": "Point", "coordinates": [6.236431, 46.199245]}}, {"type": "Feature", "properties": {"start": "Valleiry", "stop_name": "Machilly", "type": "Gare accessible", "transport": "TER", "nombre_trajet_moyen": 3.89, "transport_legende": "\ud83d\udeb2 \u2764\ufe0f Train TER \ud83d\ude86"}, "geometry": {"type": "Point", "coordinates": [6.328197, 46.251292]}}, {"type": "Feature", "properties": {"start": "Valleiry", "stop_name": "Bons-en-Chablais", "type": "Gare accessible", "transport": "TER", "nombre_trajet_moyen": 3.89, "transport_legende": "\ud83d\udeb2 \u2764\ufe0f Train TER \ud83d\ude86"}, "geometry": {"type": "Point", "coordinates": [6.36647, 46.27011]}}, {"type": "Feature", "properties": {"start": "Valleiry", "stop_name": "Perrignier", "type": "Gare accessible", "transport": "TER", "nombre_trajet_moyen": 3.89, "transport_legende": "\ud83d\udeb2 \u2764\ufe0f Train TER \ud83d\ude86"}, "geometry": {"type": "Point", "coordinates": [6.424888, 46.303341]}}, {"type": "Feature", "properties": {"start": "Valleiry", "stop_name": "Thonon-les-Bains", "type": "Gare accessible", "transport": "TER", "nombre_trajet_moyen": 3.89, "transport_legende": "\ud83d\udeb2 \u2764\ufe0f Train TER \ud83d\ude86"}, "geometry": {"type": "Point", "coordinates": [6.481673, 46.368989]}}, {"type": "Feature", "properties": {"start": "Valleiry", "stop_name": "\u00c9vian-les-Bains", "type": "Gare accessible", "transport": "TER", "nombre_trajet_moyen": 3.89, "transport_legende": "\ud83d\udeb2 \u2764\ufe0f Train TER \ud83d\ude86"}, "geometry": {"type": "Point", "coordinates": [6.577469, 46.397916]}}, {"type": "Feature", "properties": {"start": "Valleiry", "stop_name": "Reignier", "type": "Gare accessible", "transport": "TER", "nombre_trajet_moyen": 4.11, "transport_legende": "\ud83d\udeb2 \u2764\ufe0f Train TER \ud83d\ude86"}, "geometry": {"type": "Point", "coordinates": [6.267539, 46.125636]}}, {"type": "Feature", "properties": {"start": "Valleiry", "stop_name": "La Roche-sur-Foron", "type": "Gare accessible", "transport": "TER", "nombre_trajet_moyen": 4.11, "transport_legende": "\ud83d\udeb2 \u2764\ufe0f Train TER \ud83d\ude86"}, "geometry": {"type": "Point", "coordinates": [6.30384, 46.067542]}}, {"type": "Feature", "properties": {"start": "Valleiry", "stop_name": "Saint-Pierre-en-Faucigny", "type": "Gare accessible", "transport": "TER", "nombre_trajet_moyen": 4.11, "transport_legende": "\ud83d\udeb2 \u2764\ufe0f Train TER \ud83d\ude86"}, "geometry": {"type": "Point", "coordinates": [6.375782, 46.059357]}}, {"type": "Feature", "properties": {"start": "Valleiry", "stop_name": "Bonneville", "type": "Gare accessible", "transport": "TER", "nombre_trajet_moyen": 4.11, "transport_legende": "\ud83d\udeb2 \u2764\ufe0f Train TER \ud83d\ude86"}, "geometry": {"type": "Point", "coordinates": [6.416493, 46.077752]}}, {"type": "Feature", "properties": {"start": "Valleiry", "stop_name": "Marignier", "type": "Gare accessible", "transport": "TER", "nombre_trajet_moyen": 4.11, "transport_legende": "\ud83d\udeb2 \u2764\ufe0f Train TER \ud83d\ude86"}, "geometry": {"type": "Point", "coordinates": [6.507849, 46.088786]}}, {"type": "Feature", "properties": {"start": "Valleiry", "stop_name": "Cluses", "type": "Gare accessible", "transport": "TER", "nombre_trajet_moyen": 4.11, "transport_legende": "\ud83d\udeb2 \u2764\ufe0f Train TER \ud83d\ude86"}, "geometry": {"type": "Point", "coordinates": [6.582771, 46.061468]}}, {"type": "Feature", "properties": {"start": "Valleiry", "stop_name": "Magland", "type": "Gare accessible", "transport": "TER", "nombre_trajet_moyen": 4.11, "transport_legende": "\ud83d\udeb2 \u2764\ufe0f Train TER \ud83d\ude86"}, "geometry": {"type": "Point", "coordinates": [6.621524, 46.016951]}}, {"type": "Feature", "properties": {"start": "Valleiry", "stop_name": "Sallanches - Combloux - Meg\u00e8ve", "type": "Gare accessible", "transport": "TER", "nombre_trajet_moyen": 4.11, "transport_legende": "\ud83d\udeb2 \u2764\ufe0f Train TER \ud83d\ude86"}, "geometry": {"type": "Point", "coordinates": [6.636458, 45.935699]}}, {"type": "Feature", "properties": {"start": "Valleiry", "stop_name": "Saint-Gervais-les-Bains-Le Fayet", "type": "Gare accessible", "transport": "TER", "nombre_trajet_moyen": 4.11, "transport_legende": "\ud83d\udeb2 \u2764\ufe0f Train TER \ud83d\ude86"}, "geometry": {"type": "Point", "coordinates": [6.701331, 45.906423]}}, {"type": "Feature", "properties": {"start": "Valleiry", "stop_name": "Lyon Part Dieu", "type": "Gare accessible", "transport": "TER", "nombre_trajet_moyen": 0.03, "transport_legende": "\ud83d\udeb2 \u2764\ufe0f Train TER \ud83d\ude86"}, "geometry": {"type": "Point", "coordinates": [4.859409, 45.760596]}}, {"type": "Feature", "properties": {"start": "Valleiry", "stop_name": "Amb\u00e9rieu-en-Bugey", "type": "Gare accessible", "transport": "TER", "nombre_trajet_moyen": 0.03, "transport_legende": "\ud83d\udeb2 \u2764\ufe0f Train TER \ud83d\ude86"}, "geometry": {"type": "Point", "coordinates": [5.342402, 45.954014]}}, {"type": "Feature", "properties": {"start": "Valleiry", "stop_name": "Tenay - Hauteville", "type": "Gare accessible", "transport": "TER", "nombre_trajet_moyen": 0.03, "transport_legende": "\ud83d\udeb2 \u2764\ufe0f Train TER \ud83d\ude86"}, "geometry": {"type": "Point", "coordinates": [5.50161, 45.92221]}}, {"type": "Feature", "properties": {"start": "Valleiry", "stop_name": "Culoz", "type": "Gare accessible", "transport": "TER", "nombre_trajet_moyen": 0.03, "transport_legende": "\ud83d\udeb2 \u2764\ufe0f Train TER \ud83d\ude86"}, "geometry": {"type": "Point", "coordinates": [5.778728, 45.843278]}}, {"type": "Feature", "properties": {"start": "Valleiry", "stop_name": "Seyssel - Corbonod", "type": "Gare accessible", "transport": "TER", "nombre_trajet_moyen": 0.03, "transport_legende": "\ud83d\udeb2 \u2764\ufe0f Train TER \ud83d\ude86"}, "geometry": {"type": "Point", "coordinates": [5.831503, 45.963074]}}, {"type": "Feature", "properties": {"start": "Valleiry", "stop_name": "Virieu-le-Grand - Belley", "type": "Gare accessible", "transport": "TER", "nombre_trajet_moyen": 0.03, "transport_legende": "\ud83d\udeb2 \u2764\ufe0f Train TER \ud83d\ude86"}, "geometry": {"type": "Point", "coordinates": [5.65363, 45.848323]}}]}