{"type": "FeatureCollection", "features": [{"type": "Feature", "properties": {"start": "Vauzelles", "stop_name": "Vauzelles", "type": "Gare s\u00e9lectionn\u00e9e", "transport": "TER", "transport_legende": "\ud83d\udeb2 \u2764\ufe0f Train TER \ud83d\ude86"}, "geometry": {"type": "Point", "coordinates": [3.13488, 47.001314]}}, {"type": "Feature", "properties": {"start": "Vauzelles", "stop_name": "Nevers le Banlay", "type": "Gare accessible", "transport": "TER", "transport_legende": "\ud83d\udeb2 \u2764\ufe0f Train TER \ud83d\ude86"}, "geometry": {"type": "Point", "coordinates": [3.163687, 47.006853]}}, {"type": "Feature", "properties": {"start": "Vauzelles", "stop_name": "Les Perri\u00e8res", "type": "Gare accessible", "transport": "TER", "transport_legende": "\ud83d\udeb2 \u2764\ufe0f Train TER \ud83d\ude86"}, "geometry": {"type": "Point", "coordinates": [3.146714, 47.005521]}}, {"type": "Feature", "properties": {"start": "Vauzelles", "stop_name": "Nevers", "type": "Gare accessible", "transport": "TER", "transport_legende": "\ud83d\udeb2 \u2764\ufe0f Train TER \ud83d\ude86"}, "geometry": {"type": "Point", "coordinates": [3.150743, 46.987282]}}, {"type": "Feature", "properties": {"start": "Vauzelles", "stop_name": "Fourchambault", "type": "Gare accessible", "transport": "TER", "transport_legende": "\ud83d\udeb2 \u2764\ufe0f Train TER \ud83d\ude86"}, "geometry": {"type": "Point", "coordinates": [3.087166, 47.01896]}}, {"type": "Feature", "properties": {"start": "Vauzelles", "stop_name": "Pougues-les-Eaux", "type": "Gare accessible", "transport": "TER", "transport_legende": "\ud83d\udeb2 \u2764\ufe0f Train TER \ud83d\ude86"}, "geometry": {"type": "Point", "coordinates": [3.09403, 47.076784]}}, {"type": "Feature", "properties": {"start": "Vauzelles", "stop_name": "Tronsanges", "type": "Gare accessible", "transport": "TER", "transport_legende": "\ud83d\udeb2 \u2764\ufe0f Train TER \ud83d\ude86"}, "geometry": {"type": "Point", "coordinates": [3.053887, 47.113149]}}, {"type": "Feature", "properties": {"start": "Vauzelles", "stop_name": "La Charit\u00e9-sur-Loire", "type": "Gare accessible", "transport": "TER", "transport_legende": "\ud83d\udeb2 \u2764\ufe0f Train TER \ud83d\ude86"}, "geometry": {"type": "Point", "coordinates": [3.023883, 47.179914]}}, {"type": "Feature", "properties": {"start": "Vauzelles", "stop_name": "Mesves - Bulcy", "type": "Gare accessible", "transport": "TER", "transport_legende": "\ud83d\udeb2 \u2764\ufe0f Train TER \ud83d\ude86"}, "geometry": {"type": "Point", "coordinates": [3.006518, 47.242075]}}, {"type": "Feature", "properties": {"start": "Vauzelles", "stop_name": "Pouilly-sur-Loire", "type": "Gare accessible", "transport": "TER", "transport_legende": "\ud83d\udeb2 \u2764\ufe0f Train TER \ud83d\ude86"}, "geometry": {"type": "Point", "coordinates": [2.966276, 47.282242]}}, {"type": "Feature", "properties": {"start": "Vauzelles", "stop_name": "Tracy Sancerre", "type": "Gare accessible", "transport": "TER", "transport_legende": "\ud83d\udeb2 \u2764\ufe0f Train TER \ud83d\ude86"}, "geometry": {"type": "Point", "coordinates": [2.880298, 47.338091]}}, {"type": "Feature", "properties": {"start": "Vauzelles", "stop_name": "Cosne-sur-Loire", "type": "Gare accessible", "transport": "TER", "transport_legende": "\ud83d\udeb2 \u2764\ufe0f Train TER \ud83d\ude86"}, "geometry": {"type": "Point", "coordinates": [2.93192, 47.413966]}}, {"type": "Feature", "properties": {"start": "Vauzelles", "stop_name": "Garchizy", "type": "Gare accessible", "transport": "TER", "transport_legende": "\ud83d\udeb2 \u2764\ufe0f Train TER \ud83d\ude86"}, "geometry": {"type": "Point", "coordinates": [3.086241, 47.044078]}}, {"type": "Feature", "properties": {"start": "Vauzelles", "stop_name": "La Marche", "type": "Gare accessible", "transport": "TER", "transport_legende": "\ud83d\udeb2 \u2764\ufe0f Train TER \ud83d\ude86"}, "geometry": {"type": "Point", "coordinates": [3.039533, 47.139786]}}, {"type": "Feature", "properties": {"start": "Vauzelles", "stop_name": "Decize", "type": "Gare accessible", "transport": "TER", "transport_legende": "\ud83d\udeb2 \u2764\ufe0f Train TER \ud83d\ude86"}, "geometry": {"type": "Point", "coordinates": [3.467289, 46.83736]}}, {"type": "Feature", "properties": {"start": "Vauzelles", "stop_name": "B\u00e9ard", "type": "Gare accessible", "transport": "TER", "transport_legende": "\ud83d\udeb2 \u2764\ufe0f Train TER \ud83d\ude86"}, "geometry": {"type": "Point", "coordinates": [3.318075, 46.865293]}}, {"type": "Feature", "properties": {"start": "Vauzelles", "stop_name": "Imphy", "type": "Gare accessible", "transport": "TER", "transport_legende": "\ud83d\udeb2 \u2764\ufe0f Train TER \ud83d\ude86"}, "geometry": {"type": "Point", "coordinates": [3.259737, 46.933402]}}]}