{"type": "FeatureCollection", "features": [{"type": "Feature", "properties": {"start": "Verdun", "stop_name": "Verdun", "type": "Gare s\u00e9lectionn\u00e9e", "transport": "TER", "transport_legende": "\ud83d\udeb2 \u2764\ufe0f Train TER \ud83d\ude86"}, "geometry": {"type": "Point", "coordinates": [5.379672, 49.165441]}}, {"type": "Feature", "properties": {"start": "Verdun", "stop_name": "Clermont-en-Argonne Centre", "type": "Gare accessible", "transport": "TER", "transport_legende": "\ud83d\udeb2 \u2764\ufe0f Train TER \ud83d\ude86"}, "geometry": {"type": "Point", "coordinates": [5.069852, 49.105285]}}, {"type": "Feature", "properties": {"start": "Verdun", "stop_name": "Les Islettes Centre", "type": "Gare accessible", "transport": "TER", "transport_legende": "\ud83d\udeb2 \u2764\ufe0f Train TER \ud83d\ude86"}, "geometry": {"type": "Point", "coordinates": [5.003103, 49.109332]}}, {"type": "Feature", "properties": {"start": "Verdun", "stop_name": "Sainte-M\u00e9n\u00e9hould M\u00e9diath\u00e8que", "type": "Gare accessible", "transport": "TER", "transport_legende": "\ud83d\udeb2 \u2764\ufe0f Train TER \ud83d\ude86"}, "geometry": {"type": "Point", "coordinates": [4.898082, 49.092447]}}, {"type": "Feature", "properties": {"start": "Verdun", "stop_name": "Suippes Camp", "type": "Gare accessible", "transport": "TER", "transport_legende": "\ud83d\udeb2 \u2764\ufe0f Train TER \ud83d\ude86"}, "geometry": {"type": "Point", "coordinates": [4.54473, 49.12219]}}, {"type": "Feature", "properties": {"start": "Verdun", "stop_name": "Suippes Garage", "type": "Gare accessible", "transport": "TER", "transport_legende": "\ud83d\udeb2 \u2764\ufe0f Train TER \ud83d\ude86"}, "geometry": {"type": "Point", "coordinates": [4.527419, 49.129588]}}, {"type": "Feature", "properties": {"start": "Verdun", "stop_name": "Ch\u00e2lons-en-Champagne Marne", "type": "Gare accessible", "transport": "TER", "transport_legende": "\ud83d\udeb2 \u2764\ufe0f Train TER \ud83d\ude86"}, "geometry": {"type": "Point", "coordinates": [4.360092, 48.957151]}}, {"type": "Feature", "properties": {"start": "Verdun", "stop_name": "Ch\u00e2lons-en-Champagne", "type": "Gare accessible", "transport": "TER", "transport_legende": "\ud83d\udeb2 \u2764\ufe0f Train TER \ud83d\ude86"}, "geometry": {"type": "Point", "coordinates": [4.348656, 48.955252]}}, {"type": "Feature", "properties": {"start": "Verdun", "stop_name": "\u00c9tain", "type": "Gare accessible", "transport": "TER", "transport_legende": "\ud83d\udeb2 \u2764\ufe0f Train TER \ud83d\ude86"}, "geometry": {"type": "Point", "coordinates": [5.639808, 49.207491]}}, {"type": "Feature", "properties": {"start": "Verdun", "stop_name": "Conflans - Jarny", "type": "Gare accessible", "transport": "TER", "transport_legende": "\ud83d\udeb2 \u2764\ufe0f Train TER \ud83d\ude86"}, "geometry": {"type": "Point", "coordinates": [5.867933, 49.166118]}}, {"type": "Feature", "properties": {"start": "Verdun", "stop_name": "Hom\u00e9court", "type": "Gare accessible", "transport": "TER", "transport_legende": "\ud83d\udeb2 \u2764\ufe0f Train TER \ud83d\ude86"}, "geometry": {"type": "Point", "coordinates": [5.999031, 49.218291]}}, {"type": "Feature", "properties": {"start": "Verdun", "stop_name": "Joeuf", "type": "Gare accessible", "transport": "TER", "transport_legende": "\ud83d\udeb2 \u2764\ufe0f Train TER \ud83d\ude86"}, "geometry": {"type": "Point", "coordinates": [6.017702, 49.225008]}}, {"type": "Feature", "properties": {"start": "Verdun", "stop_name": "Moyeuvre-Grande", "type": "Gare accessible", "transport": "TER", "transport_legende": "\ud83d\udeb2 \u2764\ufe0f Train TER \ud83d\ude86"}, "geometry": {"type": "Point", "coordinates": [6.043373, 49.246909]}}, {"type": "Feature", "properties": {"start": "Verdun", "stop_name": "Rombas - Clouange", "type": "Gare accessible", "transport": "TER", "transport_legende": "\ud83d\udeb2 \u2764\ufe0f Train TER \ud83d\ude86"}, "geometry": {"type": "Point", "coordinates": [6.099188, 49.256065]}}, {"type": "Feature", "properties": {"start": "Verdun", "stop_name": "Hagondange", "type": "Gare accessible", "transport": "TER", "transport_legende": "\ud83d\udeb2 \u2764\ufe0f Train TER \ud83d\ude86"}, "geometry": {"type": "Point", "coordinates": [6.16448, 49.25356]}}, {"type": "Feature", "properties": {"start": "Verdun", "stop_name": "Metz", "type": "Gare accessible", "transport": "TER", "transport_legende": "\ud83d\udeb2 \u2764\ufe0f Train TER \ud83d\ude86"}, "geometry": {"type": "Point", "coordinates": [6.177052, 49.109466]}}, {"type": "Feature", "properties": {"start": "Verdun", "stop_name": "Walygator parc", "type": "Gare accessible", "transport": "TER", "transport_legende": "\ud83d\udeb2 \u2764\ufe0f Train TER \ud83d\ude86"}, "geometry": {"type": "Point", "coordinates": [6.15946, 49.22492]}}, {"type": "Feature", "properties": {"start": "Verdun", "stop_name": "Hatrize", "type": "Gare accessible", "transport": "TER", "transport_legende": "\ud83d\udeb2 \u2764\ufe0f Train TER \ud83d\ude86"}, "geometry": {"type": "Point", "coordinates": [5.907426, 49.193936]}}, {"type": "Feature", "properties": {"start": "Verdun", "stop_name": "Nancy", "type": "Gare accessible", "transport": "TER", "transport_legende": "\ud83d\udeb2 \u2764\ufe0f Train TER \ud83d\ude86"}, "geometry": {"type": "Point", "coordinates": [6.174579, 48.689857]}}, {"type": "Feature", "properties": {"start": "Verdun", "stop_name": "Pont-\u00e0-Mousson", "type": "Gare accessible", "transport": "TER", "transport_legende": "\ud83d\udeb2 \u2764\ufe0f Train TER \ud83d\ude86"}, "geometry": {"type": "Point", "coordinates": [6.051021, 48.900348]}}, {"type": "Feature", "properties": {"start": "Verdun", "stop_name": "Onville", "type": "Gare accessible", "transport": "TER", "transport_legende": "\ud83d\udeb2 \u2764\ufe0f Train TER \ud83d\ude86"}, "geometry": {"type": "Point", "coordinates": [5.979092, 49.013667]}}]}