{"type": "FeatureCollection", "features": [{"type": "Feature", "properties": {"start": "Verzeille", "stop_name": "Verzeille", "type": "Gare s\u00e9lectionn\u00e9e", "transport": "TER", "nombre_trajet_moyen": 1.41, "transport_legende": "\ud83d\udeb2 \u2764\ufe0f Train TER \ud83d\ude86"}, "geometry": {"type": "Point", "coordinates": [2.32155, 43.130422]}}, {"type": "Feature", "properties": {"start": "Verzeille", "stop_name": "Limoux", "type": "Gare accessible", "transport": "TER", "nombre_trajet_moyen": 1.41, "transport_legende": "\ud83d\udeb2 \u2764\ufe0f Train TER \ud83d\ude86"}, "geometry": {"type": "Point", "coordinates": [2.222783, 43.056393]}}, {"type": "Feature", "properties": {"start": "Verzeille", "stop_name": "Limoux - Flassian", "type": "Gare accessible", "transport": "TER", "nombre_trajet_moyen": 1.41, "transport_legende": "\ud83d\udeb2 \u2764\ufe0f Train TER \ud83d\ude86"}, "geometry": {"type": "Point", "coordinates": [2.218283, 43.068451]}}, {"type": "Feature", "properties": {"start": "Verzeille", "stop_name": "Pomas", "type": "Gare accessible", "transport": "TER", "nombre_trajet_moyen": 1.41, "transport_legende": "\ud83d\udeb2 \u2764\ufe0f Train TER \ud83d\ude86"}, "geometry": {"type": "Point", "coordinates": [2.28842, 43.112196]}}, {"type": "Feature", "properties": {"start": "Verzeille", "stop_name": "Couffoulens - Leuc", "type": "Gare accessible", "transport": "TER", "nombre_trajet_moyen": 1.41, "transport_legende": "\ud83d\udeb2 \u2764\ufe0f Train TER \ud83d\ude86"}, "geometry": {"type": "Point", "coordinates": [2.316421, 43.155635]}}, {"type": "Feature", "properties": {"start": "Verzeille", "stop_name": "Carcassonne", "type": "Gare accessible", "transport": "TER", "nombre_trajet_moyen": 1.41, "transport_legende": "\ud83d\udeb2 \u2764\ufe0f Train TER \ud83d\ude86"}, "geometry": {"type": "Point", "coordinates": [2.351824, 43.218029]}}]}