{"type": "FeatureCollection", "features": [{"type": "Feature", "properties": {"start": "\u00c9tang-sur-Arroux", "stop_name": "\u00c9tang-sur-Arroux", "type": "Gare s\u00e9lectionn\u00e9e", "transport": "TER", "transport_legende": "\ud83d\udeb2 \u2764\ufe0f Train TER \ud83d\ude86"}, "geometry": {"type": "Point", "coordinates": [4.183844, 46.867917]}}, {"type": "Feature", "properties": {"start": "\u00c9tang-sur-Arroux", "stop_name": "Montchanin", "type": "Gare accessible", "transport": "TER", "transport_legende": "\ud83d\udeb2 \u2764\ufe0f Train TER \ud83d\ude86"}, "geometry": {"type": "Point", "coordinates": [4.48147, 46.759211]}}, {"type": "Feature", "properties": {"start": "\u00c9tang-sur-Arroux", "stop_name": "Le Creusot", "type": "Gare accessible", "transport": "TER", "transport_legende": "\ud83d\udeb2 \u2764\ufe0f Train TER \ud83d\ude86"}, "geometry": {"type": "Point", "coordinates": [4.430433, 46.807842]}}, {"type": "Feature", "properties": {"start": "\u00c9tang-sur-Arroux", "stop_name": "Marmagne sous Creusot", "type": "Gare accessible", "transport": "TER", "transport_legende": "\ud83d\udeb2 \u2764\ufe0f Train TER \ud83d\ude86"}, "geometry": {"type": "Point", "coordinates": [4.360199, 46.833457]}}, {"type": "Feature", "properties": {"start": "\u00c9tang-sur-Arroux", "stop_name": "Saint-Symphorien-de-Marmagne", "type": "Gare accessible", "transport": "TER", "transport_legende": "\ud83d\udeb2 \u2764\ufe0f Train TER \ud83d\ude86"}, "geometry": {"type": "Point", "coordinates": [4.337749, 46.844236]}}, {"type": "Feature", "properties": {"start": "\u00c9tang-sur-Arroux", "stop_name": "Broye", "type": "Gare accessible", "transport": "TER", "transport_legende": "\ud83d\udeb2 \u2764\ufe0f Train TER \ud83d\ude86"}, "geometry": {"type": "Point", "coordinates": [4.296098, 46.862105]}}, {"type": "Feature", "properties": {"start": "\u00c9tang-sur-Arroux", "stop_name": "Mesvres", "type": "Gare accessible", "transport": "TER", "transport_legende": "\ud83d\udeb2 \u2764\ufe0f Train TER \ud83d\ude86"}, "geometry": {"type": "Point", "coordinates": [4.244961, 46.862869]}}, {"type": "Feature", "properties": {"start": "\u00c9tang-sur-Arroux", "stop_name": "Luzy (Ni\u00e8vre) B\u00e2timent Voyageurs", "type": "Gare accessible", "transport": "TER", "transport_legende": "\ud83d\udeb2 \u2764\ufe0f Train TER \ud83d\ude86"}, "geometry": {"type": "Point", "coordinates": [3.969259, 46.794073]}}, {"type": "Feature", "properties": {"start": "\u00c9tang-sur-Arroux", "stop_name": "Cercy-la-Tour", "type": "Gare accessible", "transport": "TER", "transport_legende": "\ud83d\udeb2 \u2764\ufe0f Train TER \ud83d\ude86"}, "geometry": {"type": "Point", "coordinates": [3.645085, 46.85793]}}, {"type": "Feature", "properties": {"start": "\u00c9tang-sur-Arroux", "stop_name": "Decize", "type": "Gare accessible", "transport": "TER", "transport_legende": "\ud83d\udeb2 \u2764\ufe0f Train TER \ud83d\ude86"}, "geometry": {"type": "Point", "coordinates": [3.467289, 46.83736]}}, {"type": "Feature", "properties": {"start": "\u00c9tang-sur-Arroux", "stop_name": "B\u00e9ard", "type": "Gare accessible", "transport": "TER", "transport_legende": "\ud83d\udeb2 \u2764\ufe0f Train TER \ud83d\ude86"}, "geometry": {"type": "Point", "coordinates": [3.318075, 46.865293]}}, {"type": "Feature", "properties": {"start": "\u00c9tang-sur-Arroux", "stop_name": "Imphy", "type": "Gare accessible", "transport": "TER", "transport_legende": "\ud83d\udeb2 \u2764\ufe0f Train TER \ud83d\ude86"}, "geometry": {"type": "Point", "coordinates": [3.259737, 46.933402]}}, {"type": "Feature", "properties": {"start": "\u00c9tang-sur-Arroux", "stop_name": "Nevers le Banlay", "type": "Gare accessible", "transport": "TER", "transport_legende": "\ud83d\udeb2 \u2764\ufe0f Train TER \ud83d\ude86"}, "geometry": {"type": "Point", "coordinates": [3.163687, 47.006853]}}, {"type": "Feature", "properties": {"start": "\u00c9tang-sur-Arroux", "stop_name": "Les Perri\u00e8res", "type": "Gare accessible", "transport": "TER", "transport_legende": "\ud83d\udeb2 \u2764\ufe0f Train TER \ud83d\ude86"}, "geometry": {"type": "Point", "coordinates": [3.146714, 47.005521]}}, {"type": "Feature", "properties": {"start": "\u00c9tang-sur-Arroux", "stop_name": "Nevers", "type": "Gare accessible", "transport": "TER", "transport_legende": "\ud83d\udeb2 \u2764\ufe0f Train TER \ud83d\ude86"}, "geometry": {"type": "Point", "coordinates": [3.150743, 46.987282]}}, {"type": "Feature", "properties": {"start": "\u00c9tang-sur-Arroux", "stop_name": "Dijon", "type": "Gare accessible", "transport": "TER", "transport_legende": "\ud83d\udeb2 \u2764\ufe0f Train TER \ud83d\ude86"}, "geometry": {"type": "Point", "coordinates": [5.027256, 47.323411]}}, {"type": "Feature", "properties": {"start": "\u00c9tang-sur-Arroux", "stop_name": "Beaune", "type": "Gare accessible", "transport": "TER", "transport_legende": "\ud83d\udeb2 \u2764\ufe0f Train TER \ud83d\ude86"}, "geometry": {"type": "Point", "coordinates": [4.848423, 47.023014]}}]}