{"type": "FeatureCollection", "features": [{"type": "Feature", "properties": {"start": "Andr\u00e9 Malraux", "stop_name": "Andr\u00e9 Malraux", "type": "Gare s\u00e9lectionn\u00e9e", "transport": "transilien", "nombre_trajet_moyen": 0.07, "transport_legende": "\ud83d\udeb2 \u2764\ufe0f Transilien \ud83d\ude86"}, "geometry": {"type": "Point", "coordinates": [2.6663877664727584, 48.55056268935711]}}, {"type": "Feature", "properties": {"start": "Andr\u00e9 Malraux", "stop_name": "Gare de Lyon - Van Gogh", "type": "Gare accessible", "transport": "transilien", "nombre_trajet_moyen": 0.07, "transport_legende": "\ud83d\udeb2 \u2764\ufe0f Transilien \ud83d\ude86"}, "geometry": {"type": "Point", "coordinates": [2.37177448281981, 48.84503741254108]}}, {"type": "Feature", "properties": {"start": "Andr\u00e9 Malraux", "stop_name": "Maisons-Alfort - Alfortville", "type": "Gare accessible", "transport": "transilien", "nombre_trajet_moyen": 0.07, "transport_legende": "\ud83d\udeb2 \u2764\ufe0f Transilien \ud83d\ude86"}, "geometry": {"type": "Point", "coordinates": [2.4264376603578035, 48.80217813521484]}}, {"type": "Feature", "properties": {"start": "Andr\u00e9 Malraux", "stop_name": "Le Vert de Maisons", "type": "Gare accessible", "transport": "transilien", "nombre_trajet_moyen": 0.07, "transport_legende": "\ud83d\udeb2 \u2764\ufe0f Transilien \ud83d\ude86"}, "geometry": {"type": "Point", "coordinates": [2.4321242678299977, 48.78883131123265]}}, {"type": "Feature", "properties": {"start": "Andr\u00e9 Malraux", "stop_name": "Villeneuve Prairie - Pompadour", "type": "Gare accessible", "transport": "transilien", "nombre_trajet_moyen": 0.07, "transport_legende": "\ud83d\udeb2 \u2764\ufe0f Transilien \ud83d\ude86"}, "geometry": {"type": "Point", "coordinates": [2.4417377943063947, 48.76430480258263]}}, {"type": "Feature", "properties": {"start": "Andr\u00e9 Malraux", "stop_name": "Villeneuve Triage", "type": "Gare accessible", "transport": "transilien", "nombre_trajet_moyen": 0.07, "transport_legende": "\ud83d\udeb2 \u2764\ufe0f Transilien \ud83d\ude86"}, "geometry": {"type": "Point", "coordinates": [2.438697833840877, 48.74461113914048]}}, {"type": "Feature", "properties": {"start": "Andr\u00e9 Malraux", "stop_name": "Gare de Villeneuve-Saint-Georges", "type": "Gare accessible", "transport": "transilien", "nombre_trajet_moyen": 0.07, "transport_legende": "\ud83d\udeb2 \u2764\ufe0f Transilien \ud83d\ude86"}, "geometry": {"type": "Point", "coordinates": [2.4465573674434435, 48.729339398302656]}}, {"type": "Feature", "properties": {"start": "Andr\u00e9 Malraux", "stop_name": "Pyramide de Brunoy", "type": "Gare accessible", "transport": "transilien", "nombre_trajet_moyen": 0.07, "transport_legende": "\ud83d\udeb2 \u2764\ufe0f Transilien \ud83d\ude86"}, "geometry": {"type": "Point", "coordinates": [2.490658557792752, 48.68374434168659]}}, {"type": "Feature", "properties": {"start": "Andr\u00e9 Malraux", "stop_name": "Gare de Combs-la-Ville Quincy", "type": "Gare accessible", "transport": "transilien", "nombre_trajet_moyen": 0.07, "transport_legende": "\ud83d\udeb2 \u2764\ufe0f Transilien \ud83d\ude86"}, "geometry": {"type": "Point", "coordinates": [2.5481878095615254, 48.667929510052176]}}, {"type": "Feature", "properties": {"start": "Andr\u00e9 Malraux", "stop_name": "Gare de Lieusaint Moissy", "type": "Gare accessible", "transport": "transilien", "nombre_trajet_moyen": 0.07, "transport_legende": "\ud83d\udeb2 \u2764\ufe0f Transilien \ud83d\ude86"}, "geometry": {"type": "Point", "coordinates": [2.567876832369949, 48.6287034880494]}}, {"type": "Feature", "properties": {"start": "Andr\u00e9 Malraux", "stop_name": "Savigny le Temple Nandy", "type": "Gare accessible", "transport": "transilien", "nombre_trajet_moyen": 0.07, "transport_legende": "\ud83d\udeb2 \u2764\ufe0f Transilien \ud83d\ude86"}, "geometry": {"type": "Point", "coordinates": [2.5842448949552064, 48.59586619534292]}}, {"type": "Feature", "properties": {"start": "Andr\u00e9 Malraux", "stop_name": "Cesson Gare RER", "type": "Gare accessible", "transport": "transilien", "nombre_trajet_moyen": 0.07, "transport_legende": "\ud83d\udeb2 \u2764\ufe0f Transilien \ud83d\ude86"}, "geometry": {"type": "Point", "coordinates": [2.5937588927118758, 48.56516157161317]}}, {"type": "Feature", "properties": {"start": "Andr\u00e9 Malraux", "stop_name": "Le M\u00e9e", "type": "Gare accessible", "transport": "transilien", "nombre_trajet_moyen": 0.07, "transport_legende": "\ud83d\udeb2 \u2764\ufe0f Transilien \ud83d\ude86"}, "geometry": {"type": "Point", "coordinates": [2.6255537322060074, 48.538746730738936]}}, {"type": "Feature", "properties": {"start": "Andr\u00e9 Malraux", "stop_name": "Robert Schuman", "type": "Gare accessible", "transport": "transilien", "nombre_trajet_moyen": 0.07, "transport_legende": "\ud83d\udeb2 \u2764\ufe0f Transilien \ud83d\ude86"}, "geometry": {"type": "Point", "coordinates": [2.639277614521315, 48.55035761594824]}}, {"type": "Feature", "properties": {"start": "Andr\u00e9 Malraux", "stop_name": "Gare de Melun", "type": "Gare accessible", "transport": "transilien", "nombre_trajet_moyen": 0.07, "transport_legende": "\ud83d\udeb2 \u2764\ufe0f Transilien \ud83d\ude86"}, "geometry": {"type": "Point", "coordinates": [2.655400360800461, 48.52783515481885]}}, {"type": "Feature", "properties": {"start": "Andr\u00e9 Malraux", "stop_name": "Gare de Villeneuve", "type": "Gare accessible", "transport": "transilien", "nombre_trajet_moyen": 0.0, "transport_legende": "\ud83d\udeb2 \u2764\ufe0f Transilien \ud83d\ude86"}, "geometry": {"type": "Point", "coordinates": [2.44708425278972, 48.72965664548239]}}, {"type": "Feature", "properties": {"start": "Andr\u00e9 Malraux", "stop_name": "Villeneuve Triage - Hector Berlioz", "type": "Gare accessible", "transport": "transilien", "nombre_trajet_moyen": 0.0, "transport_legende": "\ud83d\udeb2 \u2764\ufe0f Transilien \ud83d\ude86"}, "geometry": {"type": "Point", "coordinates": [2.446651015933121, 48.74616830304813]}}, {"type": "Feature", "properties": {"start": "Andr\u00e9 Malraux", "stop_name": "Gare de Maisons Alfort Alfortville", "type": "Gare accessible", "transport": "transilien", "nombre_trajet_moyen": 0.0, "transport_legende": "\ud83d\udeb2 \u2764\ufe0f Transilien \ud83d\ude86"}, "geometry": {"type": "Point", "coordinates": [2.42715143006864, 48.80165091886755]}}]}