{"type": "FeatureCollection", "features": [{"type": "Feature", "properties": {"start": "Cesson", "stop_name": "Cesson", "type": "Gare s\u00e9lectionn\u00e9e", "transport": "transilien", "nombre_trajet_moyen": 6.6, "transport_legende": "\ud83d\udeb2 \u2764\ufe0f Transilien \ud83d\ude86"}, "geometry": {"type": "Point", "coordinates": [2.5946150549367304, 48.56486314053174]}}, {"type": "Feature", "properties": {"start": "Cesson", "stop_name": "Goussainville", "type": "Gare accessible", "transport": "transilien", "nombre_trajet_moyen": 4.9, "transport_legende": "\ud83d\udeb2 \u2764\ufe0f Transilien \ud83d\ude86"}, "geometry": {"type": "Point", "coordinates": [2.46256580793126, 49.02341075826703]}}, {"type": "Feature", "properties": {"start": "Cesson", "stop_name": "Villiers-le-Bel - Gonesse - Arnouville", "type": "Gare accessible", "transport": "transilien", "nombre_trajet_moyen": 4.9, "transport_legende": "\ud83d\udeb2 \u2764\ufe0f Transilien \ud83d\ude86"}, "geometry": {"type": "Point", "coordinates": [2.416246795897305, 48.99377204005172]}}, {"type": "Feature", "properties": {"start": "Cesson", "stop_name": "Garges - Sarcelles", "type": "Gare accessible", "transport": "transilien", "nombre_trajet_moyen": 4.9, "transport_legende": "\ud83d\udeb2 \u2764\ufe0f Transilien \ud83d\ude86"}, "geometry": {"type": "Point", "coordinates": [2.3899547555239407, 48.97632635843972]}}, {"type": "Feature", "properties": {"start": "Cesson", "stop_name": "Pierrefitte - Stains", "type": "Gare accessible", "transport": "transilien", "nombre_trajet_moyen": 4.9, "transport_legende": "\ud83d\udeb2 \u2764\ufe0f Transilien \ud83d\ude86"}, "geometry": {"type": "Point", "coordinates": [2.3703314284767747, 48.96277628555098]}}, {"type": "Feature", "properties": {"start": "Cesson", "stop_name": "Saint-Denis", "type": "Gare accessible", "transport": "transilien", "nombre_trajet_moyen": 4.9, "transport_legende": "\ud83d\udeb2 \u2764\ufe0f Transilien \ud83d\ude86"}, "geometry": {"type": "Point", "coordinates": [2.345479004987329, 48.93482889939617]}}, {"type": "Feature", "properties": {"start": "Cesson", "stop_name": "Stade de France Saint-Denis", "type": "Gare accessible", "transport": "transilien", "nombre_trajet_moyen": 5.2, "transport_legende": "\ud83d\udeb2 \u2764\ufe0f Transilien \ud83d\ude86"}, "geometry": {"type": "Point", "coordinates": [2.3504430479100207, 48.91769737260247]}}, {"type": "Feature", "properties": {"start": "Cesson", "stop_name": "Gare du Nord", "type": "Gare accessible", "transport": "transilien", "nombre_trajet_moyen": 5.2, "transport_legende": "\ud83d\udeb2 \u2764\ufe0f Transilien \ud83d\ude86"}, "geometry": {"type": "Point", "coordinates": [2.356693437528564, 48.88230685842714]}}, {"type": "Feature", "properties": {"start": "Cesson", "stop_name": "Ch\u00e2telet les Halles", "type": "Gare accessible", "transport": "transilien", "nombre_trajet_moyen": 5.2, "transport_legende": "\ud83d\udeb2 \u2764\ufe0f Transilien \ud83d\ude86"}, "geometry": {"type": "Point", "coordinates": [2.34697651043533, 48.86174503191322]}}, {"type": "Feature", "properties": {"start": "Cesson", "stop_name": "Gare de Lyon", "type": "Gare accessible", "transport": "transilien", "nombre_trajet_moyen": 6.53, "transport_legende": "\ud83d\udeb2 \u2764\ufe0f Transilien \ud83d\ude86"}, "geometry": {"type": "Point", "coordinates": [2.376365660931201, 48.84340211646564]}}, {"type": "Feature", "properties": {"start": "Cesson", "stop_name": "Maisons-Alfort - Alfortville", "type": "Gare accessible", "transport": "transilien", "nombre_trajet_moyen": 6.33, "transport_legende": "\ud83d\udeb2 \u2764\ufe0f Transilien \ud83d\ude86"}, "geometry": {"type": "Point", "coordinates": [2.4264376603578035, 48.80217813521484]}}, {"type": "Feature", "properties": {"start": "Cesson", "stop_name": "Cr\u00e9teil Pompadour", "type": "Gare accessible", "transport": "transilien", "nombre_trajet_moyen": 6.17, "transport_legende": "\ud83d\udeb2 \u2764\ufe0f Transilien \ud83d\ude86"}, "geometry": {"type": "Point", "coordinates": [2.435080408386999, 48.77100562083573]}}, {"type": "Feature", "properties": {"start": "Cesson", "stop_name": "Villeneuve-Saint-Georges", "type": "Gare accessible", "transport": "transilien", "nombre_trajet_moyen": 6.53, "transport_legende": "\ud83d\udeb2 \u2764\ufe0f Transilien \ud83d\ude86"}, "geometry": {"type": "Point", "coordinates": [2.446304786739812, 48.730080267741016]}}, {"type": "Feature", "properties": {"start": "Cesson", "stop_name": "Montgeron - Crosne", "type": "Gare accessible", "transport": "transilien", "nombre_trajet_moyen": 6.53, "transport_legende": "\ud83d\udeb2 \u2764\ufe0f Transilien \ud83d\ude86"}, "geometry": {"type": "Point", "coordinates": [2.461377446437224, 48.70871108366713]}}, {"type": "Feature", "properties": {"start": "Cesson", "stop_name": "Yerres", "type": "Gare accessible", "transport": "transilien", "nombre_trajet_moyen": 6.53, "transport_legende": "\ud83d\udeb2 \u2764\ufe0f Transilien \ud83d\ude86"}, "geometry": {"type": "Point", "coordinates": [2.483187005163047, 48.7064507273249]}}, {"type": "Feature", "properties": {"start": "Cesson", "stop_name": "Brunoy", "type": "Gare accessible", "transport": "transilien", "nombre_trajet_moyen": 6.6, "transport_legende": "\ud83d\udeb2 \u2764\ufe0f Transilien \ud83d\ude86"}, "geometry": {"type": "Point", "coordinates": [2.506850312311369, 48.698914475306886]}}, {"type": "Feature", "properties": {"start": "Cesson", "stop_name": "Boussy-Saint-Antoine", "type": "Gare accessible", "transport": "transilien", "nombre_trajet_moyen": 6.53, "transport_legende": "\ud83d\udeb2 \u2764\ufe0f Transilien \ud83d\ude86"}, "geometry": {"type": "Point", "coordinates": [2.533195809235637, 48.68087387117553]}}, {"type": "Feature", "properties": {"start": "Cesson", "stop_name": "Combs-la-Ville - Quincy", "type": "Gare accessible", "transport": "transilien", "nombre_trajet_moyen": 6.53, "transport_legende": "\ud83d\udeb2 \u2764\ufe0f Transilien \ud83d\ude86"}, "geometry": {"type": "Point", "coordinates": [2.5476998823085504, 48.667819721800015]}}, {"type": "Feature", "properties": {"start": "Cesson", "stop_name": "Lieusaint - Moissy", "type": "Gare accessible", "transport": "transilien", "nombre_trajet_moyen": 6.53, "transport_legende": "\ud83d\udeb2 \u2764\ufe0f Transilien \ud83d\ude86"}, "geometry": {"type": "Point", "coordinates": [2.569507070898012, 48.62833648393033]}}, {"type": "Feature", "properties": {"start": "Cesson", "stop_name": "Savigny-le-Temple - Nandy", "type": "Gare accessible", "transport": "transilien", "nombre_trajet_moyen": 6.53, "transport_legende": "\ud83d\udeb2 \u2764\ufe0f Transilien \ud83d\ude86"}, "geometry": {"type": "Point", "coordinates": [2.5839359760934317, 48.59548998563483]}}, {"type": "Feature", "properties": {"start": "Cesson", "stop_name": "Le M\u00e9e", "type": "Gare accessible", "transport": "transilien", "nombre_trajet_moyen": 6.6, "transport_legende": "\ud83d\udeb2 \u2764\ufe0f Transilien \ud83d\ude86"}, "geometry": {"type": "Point", "coordinates": [2.6255537322060074, 48.538746730738936]}}, {"type": "Feature", "properties": {"start": "Cesson", "stop_name": "Melun", "type": "Gare accessible", "transport": "transilien", "nombre_trajet_moyen": 6.53, "transport_legende": "\ud83d\udeb2 \u2764\ufe0f Transilien \ud83d\ude86"}, "geometry": {"type": "Point", "coordinates": [2.65469836071817, 48.527491277248295]}}, {"type": "Feature", "properties": {"start": "Cesson", "stop_name": "Gare de Villeneuve", "type": "Gare accessible", "transport": "transilien", "nombre_trajet_moyen": 0.07, "transport_legende": "\ud83d\udeb2 \u2764\ufe0f Transilien \ud83d\ude86"}, "geometry": {"type": "Point", "coordinates": [2.44708425278972, 48.72965664548239]}}, {"type": "Feature", "properties": {"start": "Cesson", "stop_name": "Gare de Lieusaint Moissy", "type": "Gare accessible", "transport": "transilien", "nombre_trajet_moyen": 0.07, "transport_legende": "\ud83d\udeb2 \u2764\ufe0f Transilien \ud83d\ude86"}, "geometry": {"type": "Point", "coordinates": [2.567876832369949, 48.6287034880494]}}, {"type": "Feature", "properties": {"start": "Cesson", "stop_name": "Gare de Savigny Nandy", "type": "Gare accessible", "transport": "transilien", "nombre_trajet_moyen": 0.07, "transport_legende": "\ud83d\udeb2 \u2764\ufe0f Transilien \ud83d\ude86"}, "geometry": {"type": "Point", "coordinates": [2.584691331944299, 48.59600268392362]}}, {"type": "Feature", "properties": {"start": "Cesson", "stop_name": "Gare Melun - Quai de d\u00e9pose", "type": "Gare accessible", "transport": "transilien", "nombre_trajet_moyen": 0.07, "transport_legende": "\ud83d\udeb2 \u2764\ufe0f Transilien \ud83d\ude86"}, "geometry": {"type": "Point", "coordinates": [2.6561026290826533, 48.52607400971013]}}, {"type": "Feature", "properties": {"start": "Cesson", "stop_name": "Gare de Montgeron", "type": "Gare accessible", "transport": "transilien", "nombre_trajet_moyen": 0.07, "transport_legende": "\ud83d\udeb2 \u2764\ufe0f Transilien \ud83d\ude86"}, "geometry": {"type": "Point", "coordinates": [2.4622488481847955, 48.70804017669453]}}, {"type": "Feature", "properties": {"start": "Cesson", "stop_name": "Gare de Yerres", "type": "Gare accessible", "transport": "transilien", "nombre_trajet_moyen": 0.07, "transport_legende": "\ud83d\udeb2 \u2764\ufe0f Transilien \ud83d\ude86"}, "geometry": {"type": "Point", "coordinates": [2.483216976400423, 48.70685561343884]}}, {"type": "Feature", "properties": {"start": "Cesson", "stop_name": "Gare de Boussy Saint-Antoine", "type": "Gare accessible", "transport": "transilien", "nombre_trajet_moyen": 0.07, "transport_legende": "\ud83d\udeb2 \u2764\ufe0f Transilien \ud83d\ude86"}, "geometry": {"type": "Point", "coordinates": [2.5312891894453764, 48.682147995223694]}}, {"type": "Feature", "properties": {"start": "Cesson", "stop_name": "Gare de Combs-la-Ville Quincy", "type": "Gare accessible", "transport": "transilien", "nombre_trajet_moyen": 0.07, "transport_legende": "\ud83d\udeb2 \u2764\ufe0f Transilien \ud83d\ude86"}, "geometry": {"type": "Point", "coordinates": [2.5481878095615254, 48.667929510052176]}}, {"type": "Feature", "properties": {"start": "Cesson", "stop_name": "Gare de Melun", "type": "Gare accessible", "transport": "transilien", "nombre_trajet_moyen": 0.03, "transport_legende": "\ud83d\udeb2 \u2764\ufe0f Transilien \ud83d\ude86"}, "geometry": {"type": "Point", "coordinates": [2.655400360800461, 48.52783515481885]}}, {"type": "Feature", "properties": {"start": "Cesson", "stop_name": "Gare - H\u00f4tel de Ville", "type": "Gare accessible", "transport": "transilien", "nombre_trajet_moyen": 0.03, "transport_legende": "\ud83d\udeb2 \u2764\ufe0f Transilien \ud83d\ude86"}, "geometry": {"type": "Point", "coordinates": [2.447030327702121, 48.73089762700339]}}, {"type": "Feature", "properties": {"start": "Cesson", "stop_name": "Villeneuve Triage", "type": "Gare accessible", "transport": "transilien", "nombre_trajet_moyen": 0.3, "transport_legende": "\ud83d\udeb2 \u2764\ufe0f Transilien \ud83d\ude86"}, "geometry": {"type": "Point", "coordinates": [2.438697833840877, 48.74461113914048]}}, {"type": "Feature", "properties": {"start": "Cesson", "stop_name": "Le Vert de Maisons", "type": "Gare accessible", "transport": "transilien", "nombre_trajet_moyen": 0.3, "transport_legende": "\ud83d\udeb2 \u2764\ufe0f Transilien \ud83d\ude86"}, "geometry": {"type": "Point", "coordinates": [2.4321242678299977, 48.78883131123265]}}, {"type": "Feature", "properties": {"start": "Cesson", "stop_name": "Gare de Maisons Alfort Alfortville", "type": "Gare accessible", "transport": "transilien", "nombre_trajet_moyen": 0.03, "transport_legende": "\ud83d\udeb2 \u2764\ufe0f Transilien \ud83d\ude86"}, "geometry": {"type": "Point", "coordinates": [2.42715143006864, 48.80165091886755]}}, {"type": "Feature", "properties": {"start": "Cesson", "stop_name": "Gare de Lyon - Van Gogh", "type": "Gare accessible", "transport": "transilien", "nombre_trajet_moyen": 0.03, "transport_legende": "\ud83d\udeb2 \u2764\ufe0f Transilien \ud83d\ude86"}, "geometry": {"type": "Point", "coordinates": [2.37177448281981, 48.84503741254108]}}, {"type": "Feature", "properties": {"start": "Cesson", "stop_name": "Paris Gare de Lyon", "type": "Gare accessible", "transport": "transilien", "nombre_trajet_moyen": 0.0, "transport_legende": "\ud83d\udeb2 \u2764\ufe0f Transilien \ud83d\ude86"}, "geometry": {"type": "Point", "coordinates": [2.3754276162953336, 48.84265525074534]}}]}