{"type": "FeatureCollection", "features": [{"type": "Feature", "properties": {"start": "Chaville Rive Droite", "stop_name": "Chaville Rive Droite", "type": "Gare s\u00e9lectionn\u00e9e", "transport": "transilien", "transport_legende": "\ud83d\udeb2 \u2764\ufe0f Transilien \ud83d\ude86"}, "geometry": {"type": "Point", "coordinates": [2.1885894806735937, 48.81299614830529]}}, {"type": "Feature", "properties": {"start": "Chaville Rive Droite", "stop_name": "La Verri\u00e8re", "type": "Gare accessible", "transport": "transilien", "transport_legende": "\ud83d\udeb2 \u2764\ufe0f Transilien \ud83d\ude86"}, "geometry": {"type": "Point", "coordinates": [1.943057018064192, 48.7551716132828]}}, {"type": "Feature", "properties": {"start": "Chaville Rive Droite", "stop_name": "Trappes", "type": "Gare accessible", "transport": "transilien", "transport_legende": "\ud83d\udeb2 \u2764\ufe0f Transilien \ud83d\ude86"}, "geometry": {"type": "Point", "coordinates": [2.0065902166898377, 48.7747853970692]}}, {"type": "Feature", "properties": {"start": "Chaville Rive Droite", "stop_name": "Saint-Quentin en Yvelines - Montigny-le-Bretonneux", "type": "Gare accessible", "transport": "transilien", "transport_legende": "\ud83d\udeb2 \u2764\ufe0f Transilien \ud83d\ude86"}, "geometry": {"type": "Point", "coordinates": [2.044615988930814, 48.78748491597792]}}, {"type": "Feature", "properties": {"start": "Chaville Rive Droite", "stop_name": "Saint-Cyr", "type": "Gare accessible", "transport": "transilien", "transport_legende": "\ud83d\udeb2 \u2764\ufe0f Transilien \ud83d\ude86"}, "geometry": {"type": "Point", "coordinates": [2.072712440765476, 48.79877460471833]}}, {"type": "Feature", "properties": {"start": "Chaville Rive Droite", "stop_name": "Versailles Chantiers", "type": "Gare accessible", "transport": "transilien", "transport_legende": "\ud83d\udeb2 \u2764\ufe0f Transilien \ud83d\ude86"}, "geometry": {"type": "Point", "coordinates": [2.1349078603373464, 48.79526039893613]}}, {"type": "Feature", "properties": {"start": "Chaville Rive Droite", "stop_name": "S\u00e8vres - Ville-d'Avray", "type": "Gare accessible", "transport": "transilien", "transport_legende": "\ud83d\udeb2 \u2764\ufe0f Transilien \ud83d\ude86"}, "geometry": {"type": "Point", "coordinates": [2.2007294495659546, 48.827253206930806]}}, {"type": "Feature", "properties": {"start": "Chaville Rive Droite", "stop_name": "Saint-Cloud", "type": "Gare accessible", "transport": "transilien", "transport_legende": "\ud83d\udeb2 \u2764\ufe0f Transilien \ud83d\ude86"}, "geometry": {"type": "Point", "coordinates": [2.2176312182469986, 48.846058536430505]}}, {"type": "Feature", "properties": {"start": "Chaville Rive Droite", "stop_name": "Suresnes Mont Val\u00e9rien", "type": "Gare accessible", "transport": "transilien", "transport_legende": "\ud83d\udeb2 \u2764\ufe0f Transilien \ud83d\ude86"}, "geometry": {"type": "Point", "coordinates": [2.2210567895582143, 48.87168952202666]}}, {"type": "Feature", "properties": {"start": "Chaville Rive Droite", "stop_name": "Puteaux", "type": "Gare accessible", "transport": "transilien", "transport_legende": "\ud83d\udeb2 \u2764\ufe0f Transilien \ud83d\ude86"}, "geometry": {"type": "Point", "coordinates": [2.2336164976472146, 48.8833721630466]}}, {"type": "Feature", "properties": {"start": "Chaville Rive Droite", "stop_name": "La D\u00e9fense", "type": "Gare accessible", "transport": "transilien", "transport_legende": "\ud83d\udeb2 \u2764\ufe0f Transilien \ud83d\ude86"}, "geometry": {"type": "Point", "coordinates": [2.238418596250407, 48.892229801568206]}}, {"type": "Feature", "properties": {"start": "Chaville Rive Droite", "stop_name": "Versailles Rive Droite", "type": "Gare accessible", "transport": "transilien", "transport_legende": "\ud83d\udeb2 \u2764\ufe0f Transilien \ud83d\ude86"}, "geometry": {"type": "Point", "coordinates": [2.1368871000602927, 48.80949051640336]}}, {"type": "Feature", "properties": {"start": "Chaville Rive Droite", "stop_name": "Montreuil", "type": "Gare accessible", "transport": "transilien", "transport_legende": "\ud83d\udeb2 \u2764\ufe0f Transilien \ud83d\ude86"}, "geometry": {"type": "Point", "coordinates": [2.1528278413582385, 48.805965217521]}}, {"type": "Feature", "properties": {"start": "Chaville Rive Droite", "stop_name": "Viroflay Rive Droite", "type": "Gare accessible", "transport": "transilien", "transport_legende": "\ud83d\udeb2 \u2764\ufe0f Transilien \ud83d\ude86"}, "geometry": {"type": "Point", "coordinates": [2.1676545647835206, 48.805472581494975]}}, {"type": "Feature", "properties": {"start": "Chaville Rive Droite", "stop_name": "Le Val d'Or", "type": "Gare accessible", "transport": "transilien", "transport_legende": "\ud83d\udeb2 \u2764\ufe0f Transilien \ud83d\ude86"}, "geometry": {"type": "Point", "coordinates": [2.2165513289937904, 48.85625374079433]}}, {"type": "Feature", "properties": {"start": "Chaville Rive Droite", "stop_name": "Courbevoie", "type": "Gare accessible", "transport": "transilien", "transport_legende": "\ud83d\udeb2 \u2764\ufe0f Transilien \ud83d\ude86"}, "geometry": {"type": "Point", "coordinates": [2.249189818087758, 48.89861561377405]}}, {"type": "Feature", "properties": {"start": "Chaville Rive Droite", "stop_name": "B\u00e9con les Bruy\u00e8res", "type": "Gare accessible", "transport": "transilien", "transport_legende": "\ud83d\udeb2 \u2764\ufe0f Transilien \ud83d\ude86"}, "geometry": {"type": "Point", "coordinates": [2.268790065027107, 48.90549079769296]}}, {"type": "Feature", "properties": {"start": "Chaville Rive Droite", "stop_name": "Asni\u00e8res-sur-Seine", "type": "Gare accessible", "transport": "transilien", "transport_legende": "\ud83d\udeb2 \u2764\ufe0f Transilien \ud83d\ude86"}, "geometry": {"type": "Point", "coordinates": [2.2832114335873186, 48.90587474197106]}}, {"type": "Feature", "properties": {"start": "Chaville Rive Droite", "stop_name": "Clichy - Levallois", "type": "Gare accessible", "transport": "transilien", "transport_legende": "\ud83d\udeb2 \u2764\ufe0f Transilien \ud83d\ude86"}, "geometry": {"type": "Point", "coordinates": [2.2974715210323566, 48.89750112711205]}}, {"type": "Feature", "properties": {"start": "Chaville Rive Droite", "stop_name": "Pont Cardinet", "type": "Gare accessible", "transport": "transilien", "transport_legende": "\ud83d\udeb2 \u2764\ufe0f Transilien \ud83d\ude86"}, "geometry": {"type": "Point", "coordinates": [2.312950431098551, 48.88839532721545]}}, {"type": "Feature", "properties": {"start": "Chaville Rive Droite", "stop_name": "Gare Saint-Lazare", "type": "Gare accessible", "transport": "transilien", "transport_legende": "\ud83d\udeb2 \u2764\ufe0f Transilien \ud83d\ude86"}, "geometry": {"type": "Point", "coordinates": [2.3244386552397684, 48.87747568635212]}}, {"type": "Feature", "properties": {"start": "Chaville Rive Droite", "stop_name": "Gare de Puteaux", "type": "Gare accessible", "transport": "transilien", "transport_legende": "\ud83d\udeb2 \u2764\ufe0f Transilien \ud83d\ude86"}, "geometry": {"type": "Point", "coordinates": [2.2343812645711627, 48.883898673903126]}}, {"type": "Feature", "properties": {"start": "Chaville Rive Droite", "stop_name": "Gare du Mont-Val\u00e9rien", "type": "Gare accessible", "transport": "transilien", "transport_legende": "\ud83d\udeb2 \u2764\ufe0f Transilien \ud83d\ude86"}, "geometry": {"type": "Point", "coordinates": [2.221250556571285, 48.87195159499469]}}, {"type": "Feature", "properties": {"start": "Chaville Rive Droite", "stop_name": "Gare de Saint-Cloud", "type": "Gare accessible", "transport": "transilien", "transport_legende": "\ud83d\udeb2 \u2764\ufe0f Transilien \ud83d\ude86"}, "geometry": {"type": "Point", "coordinates": [2.217619436740083, 48.84502795307118]}}, {"type": "Feature", "properties": {"start": "Chaville Rive Droite", "stop_name": "Gare de S\u00e8vres - Ville d'Avray", "type": "Gare accessible", "transport": "transilien", "transport_legende": "\ud83d\udeb2 \u2764\ufe0f Transilien \ud83d\ude86"}, "geometry": {"type": "Point", "coordinates": [2.199680824025229, 48.8259053040417]}}, {"type": "Feature", "properties": {"start": "Chaville Rive Droite", "stop_name": "Gare routi\u00e8re de Versailles Chantiers - Quai B", "type": "Gare accessible", "transport": "transilien", "transport_legende": "\ud83d\udeb2 \u2764\ufe0f Transilien \ud83d\ude86"}, "geometry": {"type": "Point", "coordinates": [2.1335121711050005, 48.79527788420996]}}, {"type": "Feature", "properties": {"start": "Chaville Rive Droite", "stop_name": "R\u00e9publique - La Poste", "type": "Gare accessible", "transport": "transilien", "transport_legende": "\ud83d\udeb2 \u2764\ufe0f Transilien \ud83d\ude86"}, "geometry": {"type": "Point", "coordinates": [2.067875421584617, 48.7986065618531]}}, {"type": "Feature", "properties": {"start": "Chaville Rive Droite", "stop_name": "Saint-Quentin - Gare Routi\u00e8re des Pr\u00e9s", "type": "Gare accessible", "transport": "transilien", "transport_legende": "\ud83d\udeb2 \u2764\ufe0f Transilien \ud83d\ude86"}, "geometry": {"type": "Point", "coordinates": [2.046693294953489, 48.78805098717245]}}, {"type": "Feature", "properties": {"start": "Chaville Rive Droite", "stop_name": "La Verri\u00e8re Gare", "type": "Gare accessible", "transport": "transilien", "transport_legende": "\ud83d\udeb2 \u2764\ufe0f Transilien \ud83d\ude86"}, "geometry": {"type": "Point", "coordinates": [1.9426195655767495, 48.75561298328016]}}]}