{"type": "FeatureCollection", "features": [{"type": "Feature", "properties": {"start": "Eglise", "stop_name": "Eglise", "type": "Gare s\u00e9lectionn\u00e9e", "transport": "transilien", "transport_legende": "\ud83d\udeb2 \u2764\ufe0f Transilien \ud83d\ude86"}, "geometry": {"type": "Point", "coordinates": [2.4089400998692025, 48.68702818742313]}}, {"type": "Feature", "properties": {"start": "Eglise", "stop_name": "Gare de Combs-la-Ville Quincy", "type": "Gare accessible", "transport": "transilien", "transport_legende": "\ud83d\udeb2 \u2764\ufe0f Transilien \ud83d\ude86"}, "geometry": {"type": "Point", "coordinates": [2.5481878095615254, 48.667929510052176]}}, {"type": "Feature", "properties": {"start": "Eglise", "stop_name": "H\u00f4tel de Ville - Quincy-sous-S\u00e9nart", "type": "Gare accessible", "transport": "transilien", "transport_legende": "\ud83d\udeb2 \u2764\ufe0f Transilien \ud83d\ude86"}, "geometry": {"type": "Point", "coordinates": [2.5393546545276853, 48.67171850594942]}}, {"type": "Feature", "properties": {"start": "Eglise", "stop_name": "Gare de Boussy Saint-Antoine", "type": "Gare accessible", "transport": "transilien", "transport_legende": "\ud83d\udeb2 \u2764\ufe0f Transilien \ud83d\ude86"}, "geometry": {"type": "Point", "coordinates": [2.5312891894453764, 48.682147995223694]}}, {"type": "Feature", "properties": {"start": "Eglise", "stop_name": "Le Stade", "type": "Gare accessible", "transport": "transilien", "transport_legende": "\ud83d\udeb2 \u2764\ufe0f Transilien \ud83d\ude86"}, "geometry": {"type": "Point", "coordinates": [2.260948512567054, 48.93172049557505]}}, {"type": "Feature", "properties": {"start": "Eglise", "stop_name": "La Plaine - Epinay sous S\u00e9nart", "type": "Gare accessible", "transport": "transilien", "transport_legende": "\ud83d\udeb2 \u2764\ufe0f Transilien \ud83d\ude86"}, "geometry": {"type": "Point", "coordinates": [2.5251422257782217, 48.696398243763234]}}, {"type": "Feature", "properties": {"start": "Eglise", "stop_name": "Brunoy", "type": "Gare accessible", "transport": "transilien", "transport_legende": "\ud83d\udeb2 \u2764\ufe0f Transilien \ud83d\ude86"}, "geometry": {"type": "Point", "coordinates": [2.506850312311369, 48.698914475306886]}}, {"type": "Feature", "properties": {"start": "Eglise", "stop_name": "Rond-Point Wittlich", "type": "Gare accessible", "transport": "transilien", "transport_legende": "\ud83d\udeb2 \u2764\ufe0f Transilien \ud83d\ude86"}, "geometry": {"type": "Point", "coordinates": [2.5016361471868422, 48.69497113970025]}}, {"type": "Feature", "properties": {"start": "Eglise", "stop_name": "Gare de Yerres", "type": "Gare accessible", "transport": "transilien", "transport_legende": "\ud83d\udeb2 \u2764\ufe0f Transilien \ud83d\ude86"}, "geometry": {"type": "Point", "coordinates": [2.483216976400423, 48.70685561343884]}}, {"type": "Feature", "properties": {"start": "Eglise", "stop_name": "Gare de Montgeron", "type": "Gare accessible", "transport": "transilien", "transport_legende": "\ud83d\udeb2 \u2764\ufe0f Transilien \ud83d\ude86"}, "geometry": {"type": "Point", "coordinates": [2.4622488481847955, 48.70804017669453]}}, {"type": "Feature", "properties": {"start": "Eglise", "stop_name": "Gare de Villeneuve", "type": "Gare accessible", "transport": "transilien", "transport_legende": "\ud83d\udeb2 \u2764\ufe0f Transilien \ud83d\ude86"}, "geometry": {"type": "Point", "coordinates": [2.44708425278972, 48.72965664548239]}}, {"type": "Feature", "properties": {"start": "Eglise", "stop_name": "Villeneuve Triage - Hector Berlioz", "type": "Gare accessible", "transport": "transilien", "transport_legende": "\ud83d\udeb2 \u2764\ufe0f Transilien \ud83d\ude86"}, "geometry": {"type": "Point", "coordinates": [2.446651015933121, 48.74616830304813]}}, {"type": "Feature", "properties": {"start": "Eglise", "stop_name": "Villeneuve Prairie - Pompadour", "type": "Gare accessible", "transport": "transilien", "transport_legende": "\ud83d\udeb2 \u2764\ufe0f Transilien \ud83d\ude86"}, "geometry": {"type": "Point", "coordinates": [2.4417377943063947, 48.76430480258263]}}, {"type": "Feature", "properties": {"start": "Eglise", "stop_name": "Le Vert de Maisons", "type": "Gare accessible", "transport": "transilien", "transport_legende": "\ud83d\udeb2 \u2764\ufe0f Transilien \ud83d\ude86"}, "geometry": {"type": "Point", "coordinates": [2.4321242678299977, 48.78883131123265]}}, {"type": "Feature", "properties": {"start": "Eglise", "stop_name": "Gare de Maisons Alfort Alfortville", "type": "Gare accessible", "transport": "transilien", "transport_legende": "\ud83d\udeb2 \u2764\ufe0f Transilien \ud83d\ude86"}, "geometry": {"type": "Point", "coordinates": [2.42715143006864, 48.80165091886755]}}, {"type": "Feature", "properties": {"start": "Eglise", "stop_name": "Gare de Lyon - Van Gogh", "type": "Gare accessible", "transport": "transilien", "transport_legende": "\ud83d\udeb2 \u2764\ufe0f Transilien \ud83d\ude86"}, "geometry": {"type": "Point", "coordinates": [2.37177448281981, 48.84503741254108]}}, {"type": "Feature", "properties": {"start": "Eglise", "stop_name": "Maisons-Alfort - Alfortville", "type": "Gare accessible", "transport": "transilien", "transport_legende": "\ud83d\udeb2 \u2764\ufe0f Transilien \ud83d\ude86"}, "geometry": {"type": "Point", "coordinates": [2.4264376603578035, 48.80217813521484]}}, {"type": "Feature", "properties": {"start": "Eglise", "stop_name": "Villeneuve Triage", "type": "Gare accessible", "transport": "transilien", "transport_legende": "\ud83d\udeb2 \u2764\ufe0f Transilien \ud83d\ude86"}, "geometry": {"type": "Point", "coordinates": [2.438697833840877, 48.74461113914048]}}, {"type": "Feature", "properties": {"start": "Eglise", "stop_name": "Gare de Villeneuve-Saint-Georges", "type": "Gare accessible", "transport": "transilien", "transport_legende": "\ud83d\udeb2 \u2764\ufe0f Transilien \ud83d\ude86"}, "geometry": {"type": "Point", "coordinates": [2.4465573674434435, 48.729339398302656]}}, {"type": "Feature", "properties": {"start": "Eglise", "stop_name": "Quincy-sous-S\u00e9nart", "type": "Gare accessible", "transport": "transilien", "transport_legende": "\ud83d\udeb2 \u2764\ufe0f Transilien \ud83d\ude86"}, "geometry": {"type": "Point", "coordinates": [2.539178425852188, 48.67168184566287]}}, {"type": "Feature", "properties": {"start": "Eglise", "stop_name": "Patte d'Oie", "type": "Gare accessible", "transport": "transilien", "transport_legende": "\ud83d\udeb2 \u2764\ufe0f Transilien \ud83d\ude86"}, "geometry": {"type": "Point", "coordinates": [2.4303597865245754, 48.703592746932735]}}, {"type": "Feature", "properties": {"start": "Eglise", "stop_name": "Gare de Vigneux-sur-Seine", "type": "Gare accessible", "transport": "transilien", "transport_legende": "\ud83d\udeb2 \u2764\ufe0f Transilien \ud83d\ude86"}, "geometry": {"type": "Point", "coordinates": [2.415275573789753, 48.70845782500921]}}, {"type": "Feature", "properties": {"start": "Eglise", "stop_name": "Juvisy RER", "type": "Gare accessible", "transport": "transilien", "transport_legende": "\ud83d\udeb2 \u2764\ufe0f Transilien \ud83d\ude86"}, "geometry": {"type": "Point", "coordinates": [2.382055029825166, 48.6904988251228]}}, {"type": "Feature", "properties": {"start": "Eglise", "stop_name": "Blazy", "type": "Gare accessible", "transport": "transilien", "transport_legende": "\ud83d\udeb2 \u2764\ufe0f Transilien \ud83d\ude86"}, "geometry": {"type": "Point", "coordinates": [2.3746085223793005, 48.68493719149944]}}, {"type": "Feature", "properties": {"start": "Eglise", "stop_name": "Viry-Ch\u00e2tillon", "type": "Gare accessible", "transport": "transilien", "transport_legende": "\ud83d\udeb2 \u2764\ufe0f Transilien \ud83d\ude86"}, "geometry": {"type": "Point", "coordinates": [2.387021960013403, 48.67590783936994]}}, {"type": "Feature", "properties": {"start": "Eglise", "stop_name": "Gare de Grigny Centre", "type": "Gare accessible", "transport": "transilien", "transport_legende": "\ud83d\udeb2 \u2764\ufe0f Transilien \ud83d\ude86"}, "geometry": {"type": "Point", "coordinates": [2.395111377075866, 48.652904023279966]}}, {"type": "Feature", "properties": {"start": "Eglise", "stop_name": "Jean Jaur\u00e8s", "type": "Gare accessible", "transport": "transilien", "transport_legende": "\ud83d\udeb2 \u2764\ufe0f Transilien \ud83d\ude86"}, "geometry": {"type": "Point", "coordinates": [2.406639836988374, 48.65030843612308]}}, {"type": "Feature", "properties": {"start": "Eglise", "stop_name": "Daumesnil", "type": "Gare accessible", "transport": "transilien", "transport_legende": "\ud83d\udeb2 \u2764\ufe0f Transilien \ud83d\ude86"}, "geometry": {"type": "Point", "coordinates": [2.41520097372294, 48.65075553361204]}}, {"type": "Feature", "properties": {"start": "Eglise", "stop_name": "Pyramides - Lyc\u00e9e des Loges", "type": "Gare accessible", "transport": "transilien", "transport_legende": "\ud83d\udeb2 \u2764\ufe0f Transilien \ud83d\ude86"}, "geometry": {"type": "Point", "coordinates": [2.42523389515096, 48.63464012472095]}}, {"type": "Feature", "properties": {"start": "Eglise", "stop_name": "Gare d'Evry Courcouronnes Centre (niveau 0)", "type": "Gare accessible", "transport": "transilien", "transport_legende": "\ud83d\udeb2 \u2764\ufe0f Transilien \ud83d\ude86"}, "geometry": {"type": "Point", "coordinates": [2.4283515163494944, 48.62504824302955]}}, {"type": "Feature", "properties": {"start": "Eglise", "stop_name": "Gare du Bras de Fer Evry G\u00e9nopole", "type": "Gare accessible", "transport": "transilien", "transport_legende": "\ud83d\udeb2 \u2764\ufe0f Transilien \ud83d\ude86"}, "geometry": {"type": "Point", "coordinates": [2.450716235430025, 48.62345338088501]}}, {"type": "Feature", "properties": {"start": "Eglise", "stop_name": "Strathkelvin - Tarter\u00eats", "type": "Gare accessible", "transport": "transilien", "transport_legende": "\ud83d\udeb2 \u2764\ufe0f Transilien \ud83d\ude86"}, "geometry": {"type": "Point", "coordinates": [2.4628593538499928, 48.61955085603818]}}, {"type": "Feature", "properties": {"start": "Eglise", "stop_name": "Gare de Corbeil-Essonnes", "type": "Gare accessible", "transport": "transilien", "transport_legende": "\ud83d\udeb2 \u2764\ufe0f Transilien \ud83d\ude86"}, "geometry": {"type": "Point", "coordinates": [2.4742716122476227, 48.61394375582231]}}, {"type": "Feature", "properties": {"start": "Eglise", "stop_name": "Grigny Centre", "type": "Gare accessible", "transport": "transilien", "transport_legende": "\ud83d\udeb2 \u2764\ufe0f Transilien \ud83d\ude86"}, "geometry": {"type": "Point", "coordinates": [2.39678605544789, 48.65484195083382]}}, {"type": "Feature", "properties": {"start": "Eglise", "stop_name": "Gare de Viry-Ch\u00e2tillon", "type": "Gare accessible", "transport": "transilien", "transport_legende": "\ud83d\udeb2 \u2764\ufe0f Transilien \ud83d\ude86"}, "geometry": {"type": "Point", "coordinates": [2.3851846713596, 48.67622219575132]}}]}