{"type": "FeatureCollection", "features": [{"type": "Feature", "properties": {"start": "Fontenay-aux-Roses", "stop_name": "Fontenay-aux-Roses", "type": "Gare s\u00e9lectionn\u00e9e", "transport": "transilien", "transport_legende": "\ud83d\udeb2 \u2764\ufe0f Transilien \ud83d\ude86"}, "geometry": {"type": "Point", "coordinates": [2.2929083820455323, 48.78756698215643]}}, {"type": "Feature", "properties": {"start": "Fontenay-aux-Roses", "stop_name": "Gare du Nord", "type": "Gare accessible", "transport": "transilien", "transport_legende": "\ud83d\udeb2 \u2764\ufe0f Transilien \ud83d\ude86"}, "geometry": {"type": "Point", "coordinates": [2.356693437528564, 48.88230685842714]}}, {"type": "Feature", "properties": {"start": "Fontenay-aux-Roses", "stop_name": "Ch\u00e2telet les Halles", "type": "Gare accessible", "transport": "transilien", "transport_legende": "\ud83d\udeb2 \u2764\ufe0f Transilien \ud83d\ude86"}, "geometry": {"type": "Point", "coordinates": [2.34697651043533, 48.86174503191322]}}, {"type": "Feature", "properties": {"start": "Fontenay-aux-Roses", "stop_name": "Saint-Michel Notre-Dame", "type": "Gare accessible", "transport": "transilien", "transport_legende": "\ud83d\udeb2 \u2764\ufe0f Transilien \ud83d\ude86"}, "geometry": {"type": "Point", "coordinates": [2.344959780029387, 48.85302379374016]}}, {"type": "Feature", "properties": {"start": "Fontenay-aux-Roses", "stop_name": "Luxembourg", "type": "Gare accessible", "transport": "transilien", "transport_legende": "\ud83d\udeb2 \u2764\ufe0f Transilien \ud83d\ude86"}, "geometry": {"type": "Point", "coordinates": [2.3398088878203698, 48.84543177842458]}}, {"type": "Feature", "properties": {"start": "Fontenay-aux-Roses", "stop_name": "Port Royal", "type": "Gare accessible", "transport": "transilien", "transport_legende": "\ud83d\udeb2 \u2764\ufe0f Transilien \ud83d\ude86"}, "geometry": {"type": "Point", "coordinates": [2.3371383995944486, 48.840064350218256]}}, {"type": "Feature", "properties": {"start": "Fontenay-aux-Roses", "stop_name": "Denfert-Rochereau", "type": "Gare accessible", "transport": "transilien", "transport_legende": "\ud83d\udeb2 \u2764\ufe0f Transilien \ud83d\ude86"}, "geometry": {"type": "Point", "coordinates": [2.333220634641387, 48.83318643678081]}}, {"type": "Feature", "properties": {"start": "Fontenay-aux-Roses", "stop_name": "Cit\u00e9 Universitaire", "type": "Gare accessible", "transport": "transilien", "transport_legende": "\ud83d\udeb2 \u2764\ufe0f Transilien \ud83d\ude86"}, "geometry": {"type": "Point", "coordinates": [2.3388576809777035, 48.82150600684166]}}, {"type": "Feature", "properties": {"start": "Fontenay-aux-Roses", "stop_name": "Gentilly", "type": "Gare accessible", "transport": "transilien", "transport_legende": "\ud83d\udeb2 \u2764\ufe0f Transilien \ud83d\ude86"}, "geometry": {"type": "Point", "coordinates": [2.340926830790754, 48.815228092611335]}}, {"type": "Feature", "properties": {"start": "Fontenay-aux-Roses", "stop_name": "Laplace", "type": "Gare accessible", "transport": "transilien", "transport_legende": "\ud83d\udeb2 \u2764\ufe0f Transilien \ud83d\ude86"}, "geometry": {"type": "Point", "coordinates": [2.3343440158701894, 48.808360137202826]}}, {"type": "Feature", "properties": {"start": "Fontenay-aux-Roses", "stop_name": "Arcueil - Cachan", "type": "Gare accessible", "transport": "transilien", "transport_legende": "\ud83d\udeb2 \u2764\ufe0f Transilien \ud83d\ude86"}, "geometry": {"type": "Point", "coordinates": [2.328093276131277, 48.79869767228883]}}, {"type": "Feature", "properties": {"start": "Fontenay-aux-Roses", "stop_name": "Bagneux", "type": "Gare accessible", "transport": "transilien", "transport_legende": "\ud83d\udeb2 \u2764\ufe0f Transilien \ud83d\ude86"}, "geometry": {"type": "Point", "coordinates": [2.3220087047421583, 48.79333690627149]}}, {"type": "Feature", "properties": {"start": "Fontenay-aux-Roses", "stop_name": "Bourg-la-Reine", "type": "Gare accessible", "transport": "transilien", "transport_legende": "\ud83d\udeb2 \u2764\ufe0f Transilien \ud83d\ude86"}, "geometry": {"type": "Point", "coordinates": [2.312278311834309, 48.78026436884244]}}, {"type": "Feature", "properties": {"start": "Fontenay-aux-Roses", "stop_name": "Sceaux", "type": "Gare accessible", "transport": "transilien", "transport_legende": "\ud83d\udeb2 \u2764\ufe0f Transilien \ud83d\ude86"}, "geometry": {"type": "Point", "coordinates": [2.2979282159439305, 48.78130792093752]}}, {"type": "Feature", "properties": {"start": "Fontenay-aux-Roses", "stop_name": "Robinson", "type": "Gare accessible", "transport": "transilien", "transport_legende": "\ud83d\udeb2 \u2764\ufe0f Transilien \ud83d\ude86"}, "geometry": {"type": "Point", "coordinates": [2.281364769669608, 48.78023982792202]}}, {"type": "Feature", "properties": {"start": "Fontenay-aux-Roses", "stop_name": "La Plaine Stade de France", "type": "Gare accessible", "transport": "transilien", "transport_legende": "\ud83d\udeb2 \u2764\ufe0f Transilien \ud83d\ude86"}, "geometry": {"type": "Point", "coordinates": [2.362459916604931, 48.918076675621]}}, {"type": "Feature", "properties": {"start": "Fontenay-aux-Roses", "stop_name": "La Courneuve - Aubervilliers", "type": "Gare accessible", "transport": "transilien", "transport_legende": "\ud83d\udeb2 \u2764\ufe0f Transilien \ud83d\ude86"}, "geometry": {"type": "Point", "coordinates": [2.3861140570949475, 48.92429743203911]}}, {"type": "Feature", "properties": {"start": "Fontenay-aux-Roses", "stop_name": "Le Bourget", "type": "Gare accessible", "transport": "transilien", "transport_legende": "\ud83d\udeb2 \u2764\ufe0f Transilien \ud83d\ude86"}, "geometry": {"type": "Point", "coordinates": [2.425825637815098, 48.930744340383264]}}, {"type": "Feature", "properties": {"start": "Fontenay-aux-Roses", "stop_name": "Drancy", "type": "Gare accessible", "transport": "transilien", "transport_legende": "\ud83d\udeb2 \u2764\ufe0f Transilien \ud83d\ude86"}, "geometry": {"type": "Point", "coordinates": [2.454883180745302, 48.932732553959134]}}, {"type": "Feature", "properties": {"start": "Fontenay-aux-Roses", "stop_name": "Le Blanc-Mesnil", "type": "Gare accessible", "transport": "transilien", "transport_legende": "\ud83d\udeb2 \u2764\ufe0f Transilien \ud83d\ude86"}, "geometry": {"type": "Point", "coordinates": [2.4753884360764298, 48.93230698220945]}}, {"type": "Feature", "properties": {"start": "Fontenay-aux-Roses", "stop_name": "Aulnay-sous-Bois", "type": "Gare accessible", "transport": "transilien", "transport_legende": "\ud83d\udeb2 \u2764\ufe0f Transilien \ud83d\ude86"}, "geometry": {"type": "Point", "coordinates": [2.495597257086315, 48.932150935734064]}}, {"type": "Feature", "properties": {"start": "Fontenay-aux-Roses", "stop_name": "Sevran - Livry", "type": "Gare accessible", "transport": "transilien", "transport_legende": "\ud83d\udeb2 \u2764\ufe0f Transilien \ud83d\ude86"}, "geometry": {"type": "Point", "coordinates": [2.5352889927291447, 48.93640164880271]}}, {"type": "Feature", "properties": {"start": "Fontenay-aux-Roses", "stop_name": "Vert Galant", "type": "Gare accessible", "transport": "transilien", "transport_legende": "\ud83d\udeb2 \u2764\ufe0f Transilien \ud83d\ude86"}, "geometry": {"type": "Point", "coordinates": [2.5663968806983126, 48.944091645418105]}}, {"type": "Feature", "properties": {"start": "Fontenay-aux-Roses", "stop_name": "Villeparisis - Mitry-le-Neuf", "type": "Gare accessible", "transport": "transilien", "transport_legende": "\ud83d\udeb2 \u2764\ufe0f Transilien \ud83d\ude86"}, "geometry": {"type": "Point", "coordinates": [2.603220561532749, 48.95316214687084]}}, {"type": "Feature", "properties": {"start": "Fontenay-aux-Roses", "stop_name": "Mitry - Claye", "type": "Gare accessible", "transport": "transilien", "transport_legende": "\ud83d\udeb2 \u2764\ufe0f Transilien \ud83d\ude86"}, "geometry": {"type": "Point", "coordinates": [2.6422341369736606, 48.9757479508066]}}, {"type": "Feature", "properties": {"start": "Fontenay-aux-Roses", "stop_name": "A\u00e9roport Charles de Gaulle 2 (Terminal 2)", "type": "Gare accessible", "transport": "transilien", "transport_legende": "\ud83d\udeb2 \u2764\ufe0f Transilien \ud83d\ude86"}, "geometry": {"type": "Point", "coordinates": [2.5709800477570237, 49.0041455478504]}}, {"type": "Feature", "properties": {"start": "Fontenay-aux-Roses", "stop_name": "A\u00e9roport CDG 1 (Terminal 3) - RER", "type": "Gare accessible", "transport": "transilien", "transport_legende": "\ud83d\udeb2 \u2764\ufe0f Transilien \ud83d\ude86"}, "geometry": {"type": "Point", "coordinates": [2.5614121946317394, 49.00979397116337]}}, {"type": "Feature", "properties": {"start": "Fontenay-aux-Roses", "stop_name": "Parc des Expositions", "type": "Gare accessible", "transport": "transilien", "transport_legende": "\ud83d\udeb2 \u2764\ufe0f Transilien \ud83d\ude86"}, "geometry": {"type": "Point", "coordinates": [2.5145512908225958, 48.97356812654279]}}, {"type": "Feature", "properties": {"start": "Fontenay-aux-Roses", "stop_name": "Villepinte", "type": "Gare accessible", "transport": "transilien", "transport_legende": "\ud83d\udeb2 \u2764\ufe0f Transilien \ud83d\ude86"}, "geometry": {"type": "Point", "coordinates": [2.512783848981341, 48.96256540760733]}}, {"type": "Feature", "properties": {"start": "Fontenay-aux-Roses", "stop_name": "Sevran Beaudottes", "type": "Gare accessible", "transport": "transilien", "transport_legende": "\ud83d\udeb2 \u2764\ufe0f Transilien \ud83d\ude86"}, "geometry": {"type": "Point", "coordinates": [2.5247262164471342, 48.94700236504643]}}]}