{"type": "FeatureCollection", "features": [{"type": "Feature", "properties": {"start": "Fr\u00e9pillon", "stop_name": "Fr\u00e9pillon", "type": "Gare s\u00e9lectionn\u00e9e", "transport": "transilien", "nombre_trajet_moyen": 0.73, "transport_legende": "\ud83d\udeb2 \u2764\ufe0f Transilien \ud83d\ude86"}, "geometry": {"type": "Point", "coordinates": [2.197098920791642, 49.04527720662213]}}, {"type": "Feature", "properties": {"start": "Fr\u00e9pillon", "stop_name": "Ermont - Eaubonne", "type": "Gare accessible", "transport": "transilien", "nombre_trajet_moyen": 0.73, "transport_legende": "\ud83d\udeb2 \u2764\ufe0f Transilien \ud83d\ude86"}, "geometry": {"type": "Point", "coordinates": [2.2707541014797794, 48.98049890628609]}}, {"type": "Feature", "properties": {"start": "Fr\u00e9pillon", "stop_name": "Ermont Halte", "type": "Gare accessible", "transport": "transilien", "nombre_trajet_moyen": 0.73, "transport_legende": "\ud83d\udeb2 \u2764\ufe0f Transilien \ud83d\ude86"}, "geometry": {"type": "Point", "coordinates": [2.26320025038274, 48.990533377371726]}}, {"type": "Feature", "properties": {"start": "Fr\u00e9pillon", "stop_name": "Gros Noyer Saint-Prix", "type": "Gare accessible", "transport": "transilien", "nombre_trajet_moyen": 0.73, "transport_legende": "\ud83d\udeb2 \u2764\ufe0f Transilien \ud83d\ude86"}, "geometry": {"type": "Point", "coordinates": [2.2596836105712628, 48.99607903406629]}}, {"type": "Feature", "properties": {"start": "Fr\u00e9pillon", "stop_name": "Saint-Leu-la-For\u00eat", "type": "Gare accessible", "transport": "transilien", "nombre_trajet_moyen": 0.73, "transport_legende": "\ud83d\udeb2 \u2764\ufe0f Transilien \ud83d\ude86"}, "geometry": {"type": "Point", "coordinates": [2.2428869689226687, 49.01523840177278]}}, {"type": "Feature", "properties": {"start": "Fr\u00e9pillon", "stop_name": "Vaucelles", "type": "Gare accessible", "transport": "transilien", "nombre_trajet_moyen": 0.73, "transport_legende": "\ud83d\udeb2 \u2764\ufe0f Transilien \ud83d\ude86"}, "geometry": {"type": "Point", "coordinates": [2.2294526219892656, 49.02172683988197]}}, {"type": "Feature", "properties": {"start": "Fr\u00e9pillon", "stop_name": "Taverny", "type": "Gare accessible", "transport": "transilien", "nombre_trajet_moyen": 0.73, "transport_legende": "\ud83d\udeb2 \u2764\ufe0f Transilien \ud83d\ude86"}, "geometry": {"type": "Point", "coordinates": [2.222287008769188, 49.0249763828466]}}, {"type": "Feature", "properties": {"start": "Fr\u00e9pillon", "stop_name": "Bessancourt", "type": "Gare accessible", "transport": "transilien", "nombre_trajet_moyen": 0.73, "transport_legende": "\ud83d\udeb2 \u2764\ufe0f Transilien \ud83d\ude86"}, "geometry": {"type": "Point", "coordinates": [2.2103009348975013, 49.03527556641014]}}, {"type": "Feature", "properties": {"start": "Fr\u00e9pillon", "stop_name": "M\u00e9ry-sur-Oise", "type": "Gare accessible", "transport": "transilien", "nombre_trajet_moyen": 0.73, "transport_legende": "\ud83d\udeb2 \u2764\ufe0f Transilien \ud83d\ude86"}, "geometry": {"type": "Point", "coordinates": [2.19141823646768, 49.058277435287074]}}, {"type": "Feature", "properties": {"start": "Fr\u00e9pillon", "stop_name": "M\u00e9riel", "type": "Gare accessible", "transport": "transilien", "nombre_trajet_moyen": 0.73, "transport_legende": "\ud83d\udeb2 \u2764\ufe0f Transilien \ud83d\ude86"}, "geometry": {"type": "Point", "coordinates": [2.205438463461229, 49.07775311707399]}}, {"type": "Feature", "properties": {"start": "Fr\u00e9pillon", "stop_name": "Valmondois", "type": "Gare accessible", "transport": "transilien", "nombre_trajet_moyen": 0.73, "transport_legende": "\ud83d\udeb2 \u2764\ufe0f Transilien \ud83d\ude86"}, "geometry": {"type": "Point", "coordinates": [2.2019152338634327, 49.09093718795672]}}, {"type": "Feature", "properties": {"start": "Fr\u00e9pillon", "stop_name": "L'Isle-Adam - Parmain", "type": "Gare accessible", "transport": "transilien", "nombre_trajet_moyen": 0.7, "transport_legende": "\ud83d\udeb2 \u2764\ufe0f Transilien \ud83d\ude86"}, "geometry": {"type": "Point", "coordinates": [2.209941858169547, 49.11454854558362]}}, {"type": "Feature", "properties": {"start": "Fr\u00e9pillon", "stop_name": "Champagne-sur-Oise", "type": "Gare accessible", "transport": "transilien", "nombre_trajet_moyen": 0.7, "transport_legende": "\ud83d\udeb2 \u2764\ufe0f Transilien \ud83d\ude86"}, "geometry": {"type": "Point", "coordinates": [2.242987667830016, 49.136089580289706]}}, {"type": "Feature", "properties": {"start": "Fr\u00e9pillon", "stop_name": "Persan - Beaumont", "type": "Gare accessible", "transport": "transilien", "nombre_trajet_moyen": 0.7, "transport_legende": "\ud83d\udeb2 \u2764\ufe0f Transilien \ud83d\ude86"}, "geometry": {"type": "Point", "coordinates": [2.2777997330536137, 49.14758294460079]}}, {"type": "Feature", "properties": {"start": "Fr\u00e9pillon", "stop_name": "Champ de Courses d'Enghien", "type": "Gare accessible", "transport": "transilien", "nombre_trajet_moyen": 0.53, "transport_legende": "\ud83d\udeb2 \u2764\ufe0f Transilien \ud83d\ude86"}, "geometry": {"type": "Point", "coordinates": [2.291148632256432, 48.9796949197308]}}, {"type": "Feature", "properties": {"start": "Fr\u00e9pillon", "stop_name": "Enghien-les-Bains", "type": "Gare accessible", "transport": "transilien", "nombre_trajet_moyen": 0.53, "transport_legende": "\ud83d\udeb2 \u2764\ufe0f Transilien \ud83d\ude86"}, "geometry": {"type": "Point", "coordinates": [2.306793374168272, 48.97288052394267]}}, {"type": "Feature", "properties": {"start": "Fr\u00e9pillon", "stop_name": "La Barre Ormesson", "type": "Gare accessible", "transport": "transilien", "nombre_trajet_moyen": 0.53, "transport_legende": "\ud83d\udeb2 \u2764\ufe0f Transilien \ud83d\ude86"}, "geometry": {"type": "Point", "coordinates": [2.3167036448125224, 48.96628415206348]}}, {"type": "Feature", "properties": {"start": "Fr\u00e9pillon", "stop_name": "\u00c9pinay - Villetaneuse", "type": "Gare accessible", "transport": "transilien", "nombre_trajet_moyen": 0.53, "transport_legende": "\ud83d\udeb2 \u2764\ufe0f Transilien \ud83d\ude86"}, "geometry": {"type": "Point", "coordinates": [2.3287601965958715, 48.95792884911306]}}, {"type": "Feature", "properties": {"start": "Fr\u00e9pillon", "stop_name": "Saint-Denis", "type": "Gare accessible", "transport": "transilien", "nombre_trajet_moyen": 0.53, "transport_legende": "\ud83d\udeb2 \u2764\ufe0f Transilien \ud83d\ude86"}, "geometry": {"type": "Point", "coordinates": [2.345479004987329, 48.93482889939617]}}, {"type": "Feature", "properties": {"start": "Fr\u00e9pillon", "stop_name": "Gare du Nord", "type": "Gare accessible", "transport": "transilien", "nombre_trajet_moyen": 0.53, "transport_legende": "\ud83d\udeb2 \u2764\ufe0f Transilien \ud83d\ude86"}, "geometry": {"type": "Point", "coordinates": [2.356693437528564, 48.88230685842714]}}, {"type": "Feature", "properties": {"start": "Fr\u00e9pillon", "stop_name": "Gare de Persan Beaumont", "type": "Gare accessible", "transport": "transilien", "nombre_trajet_moyen": 0.0, "transport_legende": "\ud83d\udeb2 \u2764\ufe0f Transilien \ud83d\ude86"}, "geometry": {"type": "Point", "coordinates": [2.279602268870513, 49.14789494833517]}}, {"type": "Feature", "properties": {"start": "Fr\u00e9pillon", "stop_name": "Gare de M\u00e9riel", "type": "Gare accessible", "transport": "transilien", "nombre_trajet_moyen": 0.0, "transport_legende": "\ud83d\udeb2 \u2764\ufe0f Transilien \ud83d\ude86"}, "geometry": {"type": "Point", "coordinates": [2.2051693770939385, 49.07789520680488]}}, {"type": "Feature", "properties": {"start": "Fr\u00e9pillon", "stop_name": "M\u00e9ry-sur-Oise - Camille Plaquet", "type": "Gare accessible", "transport": "transilien", "nombre_trajet_moyen": 0.0, "transport_legende": "\ud83d\udeb2 \u2764\ufe0f Transilien \ud83d\ude86"}, "geometry": {"type": "Point", "coordinates": [2.1891452410277, 49.058365655967854]}}, {"type": "Feature", "properties": {"start": "Fr\u00e9pillon", "stop_name": "Gare de Bessancourt", "type": "Gare accessible", "transport": "transilien", "nombre_trajet_moyen": 0.0, "transport_legende": "\ud83d\udeb2 \u2764\ufe0f Transilien \ud83d\ude86"}, "geometry": {"type": "Point", "coordinates": [2.209984557576436, 49.035844487983134]}}, {"type": "Feature", "properties": {"start": "Fr\u00e9pillon", "stop_name": "Gare de Taverny", "type": "Gare accessible", "transport": "transilien", "nombre_trajet_moyen": 0.0, "transport_legende": "\ud83d\udeb2 \u2764\ufe0f Transilien \ud83d\ude86"}, "geometry": {"type": "Point", "coordinates": [2.2211650237278016, 49.025369673120096]}}, {"type": "Feature", "properties": {"start": "Fr\u00e9pillon", "stop_name": "Place de la Lib\u00e9ration", "type": "Gare accessible", "transport": "transilien", "nombre_trajet_moyen": 0.0, "transport_legende": "\ud83d\udeb2 \u2764\ufe0f Transilien \ud83d\ude86"}, "geometry": {"type": "Point", "coordinates": [2.2590038671297776, 48.99925269998725]}}, {"type": "Feature", "properties": {"start": "Fr\u00e9pillon", "stop_name": "Gare d'Ermont-Eaubonne", "type": "Gare accessible", "transport": "transilien", "nombre_trajet_moyen": 0.0, "transport_legende": "\ud83d\udeb2 \u2764\ufe0f Transilien \ud83d\ude86"}, "geometry": {"type": "Point", "coordinates": [2.271203813127117, 48.98009247741121]}}, {"type": "Feature", "properties": {"start": "Fr\u00e9pillon", "stop_name": "Gare de Champ de Courses d'Enghien", "type": "Gare accessible", "transport": "transilien", "nombre_trajet_moyen": 0.0, "transport_legende": "\ud83d\udeb2 \u2764\ufe0f Transilien \ud83d\ude86"}, "geometry": {"type": "Point", "coordinates": [2.292620278998685, 48.98077821621487]}}, {"type": "Feature", "properties": {"start": "Fr\u00e9pillon", "stop_name": "Gare d'Enghien-les-Bains", "type": "Gare accessible", "transport": "transilien", "nombre_trajet_moyen": 0.0, "transport_legende": "\ud83d\udeb2 \u2764\ufe0f Transilien \ud83d\ude86"}, "geometry": {"type": "Point", "coordinates": [2.3063894895425485, 48.973457743604655]}}, {"type": "Feature", "properties": {"start": "Fr\u00e9pillon", "stop_name": "Place de la Barre", "type": "Gare accessible", "transport": "transilien", "nombre_trajet_moyen": 0.0, "transport_legende": "\ud83d\udeb2 \u2764\ufe0f Transilien \ud83d\ude86"}, "geometry": {"type": "Point", "coordinates": [2.316519821303781, 48.967634734431485]}}, {"type": "Feature", "properties": {"start": "Fr\u00e9pillon", "stop_name": "Gare d'Epinay Villetaneuse", "type": "Gare accessible", "transport": "transilien", "nombre_trajet_moyen": 0.0, "transport_legende": "\ud83d\udeb2 \u2764\ufe0f Transilien \ud83d\ude86"}, "geometry": {"type": "Point", "coordinates": [2.3291286473493003, 48.95794889655021]}}, {"type": "Feature", "properties": {"start": "Fr\u00e9pillon", "stop_name": "La Fayette - Dunkerque", "type": "Gare accessible", "transport": "transilien", "nombre_trajet_moyen": 0.0, "transport_legende": "\ud83d\udeb2 \u2764\ufe0f Transilien \ud83d\ude86"}, "geometry": {"type": "Point", "coordinates": [2.355748307343345, 48.879343185478696]}}, {"type": "Feature", "properties": {"start": "Fr\u00e9pillon", "stop_name": "Gare de l'Est", "type": "Gare accessible", "transport": "transilien", "nombre_trajet_moyen": 0.0, "transport_legende": "\ud83d\udeb2 \u2764\ufe0f Transilien \ud83d\ude86"}, "geometry": {"type": "Point", "coordinates": [2.360305141171757, 48.87857171221123]}}]}