{"type": "FeatureCollection", "features": [{"type": "Feature", "properties": {"start": "Gare de Bois le Roi", "stop_name": "Gare de Bois le Roi", "type": "Gare s\u00e9lectionn\u00e9e", "transport": "transilien", "nombre_trajet_moyen": 0.13, "transport_legende": "\ud83d\udeb2 \u2764\ufe0f Transilien \ud83d\ude86"}, "geometry": {"type": "Point", "coordinates": [2.69231748820218, 48.47516605438728]}}, {"type": "Feature", "properties": {"start": "Gare de Bois le Roi", "stop_name": "Gare de Montereau Quai 9", "type": "Gare accessible", "transport": "transilien", "nombre_trajet_moyen": 0.13, "transport_legende": "\ud83d\udeb2 \u2764\ufe0f Transilien \ud83d\ude86"}, "geometry": {"type": "Point", "coordinates": [2.9428858304560537, 48.38005388120789]}}, {"type": "Feature", "properties": {"start": "Gare de Bois le Roi", "stop_name": "Saint-Mamm\u00e8s", "type": "Gare accessible", "transport": "transilien", "nombre_trajet_moyen": 0.13, "transport_legende": "\ud83d\udeb2 \u2764\ufe0f Transilien \ud83d\ude86"}, "geometry": {"type": "Point", "coordinates": [2.816506976966753, 48.38264713543743]}}, {"type": "Feature", "properties": {"start": "Gare de Bois le Roi", "stop_name": "Moret - Veneux-les-Sablons", "type": "Gare accessible", "transport": "transilien", "nombre_trajet_moyen": 0.13, "transport_legende": "\ud83d\udeb2 \u2764\ufe0f Transilien \ud83d\ude86"}, "geometry": {"type": "Point", "coordinates": [2.800462899908886, 48.37789836789835]}}, {"type": "Feature", "properties": {"start": "Gare de Bois le Roi", "stop_name": "Thomery", "type": "Gare accessible", "transport": "transilien", "nombre_trajet_moyen": 0.13, "transport_legende": "\ud83d\udeb2 \u2764\ufe0f Transilien \ud83d\ude86"}, "geometry": {"type": "Point", "coordinates": [2.764187149192088, 48.39428183783365]}}, {"type": "Feature", "properties": {"start": "Gare de Bois le Roi", "stop_name": "Gare Routi\u00e8re Quai 1", "type": "Gare accessible", "transport": "transilien", "nombre_trajet_moyen": 0.13, "transport_legende": "\ud83d\udeb2 \u2764\ufe0f Transilien \ud83d\ude86"}, "geometry": {"type": "Point", "coordinates": [2.726912605033356, 48.4155058684311]}}, {"type": "Feature", "properties": {"start": "Gare de Bois le Roi", "stop_name": "Gare de Melun", "type": "Gare accessible", "transport": "transilien", "nombre_trajet_moyen": 0.0, "transport_legende": "\ud83d\udeb2 \u2764\ufe0f Transilien \ud83d\ude86"}, "geometry": {"type": "Point", "coordinates": [2.655400360800461, 48.52783515481885]}}, {"type": "Feature", "properties": {"start": "Gare de Bois le Roi", "stop_name": "Gare de Lyon - Van Gogh", "type": "Gare accessible", "transport": "transilien", "nombre_trajet_moyen": 0.13, "transport_legende": "\ud83d\udeb2 \u2764\ufe0f Transilien \ud83d\ude86"}, "geometry": {"type": "Point", "coordinates": [2.37177448281981, 48.84503741254108]}}, {"type": "Feature", "properties": {"start": "Gare de Bois le Roi", "stop_name": "Gare Melun - Quai de d\u00e9pose", "type": "Gare accessible", "transport": "transilien", "nombre_trajet_moyen": 0.13, "transport_legende": "\ud83d\udeb2 \u2764\ufe0f Transilien \ud83d\ude86"}, "geometry": {"type": "Point", "coordinates": [2.6561026290826533, 48.52607400971013]}}, {"type": "Feature", "properties": {"start": "Gare de Bois le Roi", "stop_name": "Montigny-sur-Loing", "type": "Gare accessible", "transport": "transilien", "nombre_trajet_moyen": 0.0, "transport_legende": "\ud83d\udeb2 \u2764\ufe0f Transilien \ud83d\ude86"}, "geometry": {"type": "Point", "coordinates": [2.738336123575285, 48.33649861774928]}}, {"type": "Feature", "properties": {"start": "Gare de Bois le Roi", "stop_name": "Gare Bourron", "type": "Gare accessible", "transport": "transilien", "nombre_trajet_moyen": 0.0, "transport_legende": "\ud83d\udeb2 \u2764\ufe0f Transilien \ud83d\ude86"}, "geometry": {"type": "Point", "coordinates": [2.6924061379201074, 48.333010232655]}}, {"type": "Feature", "properties": {"start": "Gare de Bois le Roi", "stop_name": "Nemours - Saint-Pierre", "type": "Gare accessible", "transport": "transilien", "nombre_trajet_moyen": 0.0, "transport_legende": "\ud83d\udeb2 \u2764\ufe0f Transilien \ud83d\ude86"}, "geometry": {"type": "Point", "coordinates": [2.6850524330729284, 48.26863657605134]}}, {"type": "Feature", "properties": {"start": "Gare de Bois le Roi", "stop_name": "Gare de Bagneaux-sur-Loing", "type": "Gare accessible", "transport": "transilien", "nombre_trajet_moyen": 0.0, "transport_legende": "\ud83d\udeb2 \u2764\ufe0f Transilien \ud83d\ude86"}, "geometry": {"type": "Point", "coordinates": [2.703157968239263, 48.23052063512006]}}, {"type": "Feature", "properties": {"start": "Gare de Bois le Roi", "stop_name": "Souppes - Ch\u00e2teau-Landon", "type": "Gare accessible", "transport": "transilien", "nombre_trajet_moyen": 0.0, "transport_legende": "\ud83d\udeb2 \u2764\ufe0f Transilien \ud83d\ude86"}, "geometry": {"type": "Point", "coordinates": [2.7358697259911766, 48.18117871674994]}}, {"type": "Feature", "properties": {"start": "Gare de Bois le Roi", "stop_name": "Dordives", "type": "Gare accessible", "transport": "transilien", "nombre_trajet_moyen": 0.0, "transport_legende": "\ud83d\udeb2 \u2764\ufe0f Transilien \ud83d\ude86"}, "geometry": {"type": "Point", "coordinates": [2.762658376432018, 48.14790552423752]}}, {"type": "Feature", "properties": {"start": "Gare de Bois le Roi", "stop_name": "Gare de Ferri\u00e8res - Fontenay", "type": "Gare accessible", "transport": "transilien", "nombre_trajet_moyen": 0.0, "transport_legende": "\ud83d\udeb2 \u2764\ufe0f Transilien \ud83d\ude86"}, "geometry": {"type": "Point", "coordinates": [2.772727657116635, 48.09646710081935]}}, {"type": "Feature", "properties": {"start": "Gare de Bois le Roi", "stop_name": "Montargis", "type": "Gare accessible", "transport": "transilien", "nombre_trajet_moyen": 0.0, "transport_legende": "\ud83d\udeb2 \u2764\ufe0f Transilien \ud83d\ude86"}, "geometry": {"type": "Point", "coordinates": [2.743201130533139, 48.00669739961254]}}]}