{"type": "FeatureCollection", "features": [{"type": "Feature", "properties": {"start": "Gare des Clairi\u00e8res de Verneuil", "stop_name": "Gare des Clairi\u00e8res de Verneuil", "type": "Gare s\u00e9lectionn\u00e9e", "transport": "transilien", "nombre_trajet_moyen": 0.0, "transport_legende": "\ud83d\udeb2 \u2764\ufe0f Transilien \ud83d\ude86"}, "geometry": {"type": "Point", "coordinates": [1.955065429526773, 48.99218881234461]}}, {"type": "Feature", "properties": {"start": "Gare des Clairi\u00e8res de Verneuil", "stop_name": "Gare de Sartrouville - RER", "type": "Gare accessible", "transport": "transilien", "nombre_trajet_moyen": 0.0, "transport_legende": "\ud83d\udeb2 \u2764\ufe0f Transilien \ud83d\ude86"}, "geometry": {"type": "Point", "coordinates": [2.1575610336100777, 48.938133853964295]}}, {"type": "Feature", "properties": {"start": "Gare des Clairi\u00e8res de Verneuil", "stop_name": "Gare Routi\u00e8re Nord (C4)", "type": "Gare accessible", "transport": "transilien", "nombre_trajet_moyen": 0.0, "transport_legende": "\ud83d\udeb2 \u2764\ufe0f Transilien \ud83d\ude86"}, "geometry": {"type": "Point", "coordinates": [2.0391205293704395, 48.93315091405712]}}, {"type": "Feature", "properties": {"start": "Gare des Clairi\u00e8res de Verneuil", "stop_name": "Gare de Villennes-sur-Seine", "type": "Gare accessible", "transport": "transilien", "nombre_trajet_moyen": 0.0, "transport_legende": "\ud83d\udeb2 \u2764\ufe0f Transilien \ud83d\ude86"}, "geometry": {"type": "Point", "coordinates": [1.999302620659161, 48.93958798949384]}}, {"type": "Feature", "properties": {"start": "Gare des Clairi\u00e8res de Verneuil", "stop_name": "Jean Jaur\u00e8s", "type": "Gare accessible", "transport": "transilien", "nombre_trajet_moyen": 0.0, "transport_legende": "\ud83d\udeb2 \u2764\ufe0f Transilien \ud83d\ude86"}, "geometry": {"type": "Point", "coordinates": [2.406639836988374, 48.65030843612308]}}, {"type": "Feature", "properties": {"start": "Gare des Clairi\u00e8res de Verneuil", "stop_name": "Gare de Vernouillet Verneuil", "type": "Gare accessible", "transport": "transilien", "nombre_trajet_moyen": 0.0, "transport_legende": "\ud83d\udeb2 \u2764\ufe0f Transilien \ud83d\ude86"}, "geometry": {"type": "Point", "coordinates": [1.9823949347938237, 48.98075994487832]}}, {"type": "Feature", "properties": {"start": "Gare des Clairi\u00e8res de Verneuil", "stop_name": "Mairie", "type": "Gare accessible", "transport": "transilien", "nombre_trajet_moyen": 0.0, "transport_legende": "\ud83d\udeb2 \u2764\ufe0f Transilien \ud83d\ude86"}, "geometry": {"type": "Point", "coordinates": [1.9751843367210649, 48.978863999006606]}}, {"type": "Feature", "properties": {"start": "Gare des Clairi\u00e8res de Verneuil", "stop_name": "Gare des Mureaux (D3)", "type": "Gare accessible", "transport": "transilien", "nombre_trajet_moyen": 0.0, "transport_legende": "\ud83d\udeb2 \u2764\ufe0f Transilien \ud83d\ude86"}, "geometry": {"type": "Point", "coordinates": [1.9125426450965068, 48.99326780378758]}}]}