{"type": "FeatureCollection", "features": [{"type": "Feature", "properties": {"start": "Gare de Savigny-sur-Orge", "stop_name": "Gare de Savigny-sur-Orge", "type": "Gare s\u00e9lectionn\u00e9e", "transport": "transilien", "nombre_trajet_moyen": 0.37, "transport_legende": "\ud83d\udeb2 \u2764\ufe0f Transilien \ud83d\ude86"}, "geometry": {"type": "Point", "coordinates": [2.3525904654385625, 48.67595971797696]}}, {"type": "Feature", "properties": {"start": "Gare de Savigny-sur-Orge", "stop_name": "Gare de Massy Palaiseau", "type": "Gare accessible", "transport": "transilien", "nombre_trajet_moyen": 0.23, "transport_legende": "\ud83d\udeb2 \u2764\ufe0f Transilien \ud83d\ude86"}, "geometry": {"type": "Point", "coordinates": [2.2573460833872727, 48.72606340692455]}}, {"type": "Feature", "properties": {"start": "Gare de Savigny-sur-Orge", "stop_name": "Gare RER Longjumeau", "type": "Gare accessible", "transport": "transilien", "nombre_trajet_moyen": 0.23, "transport_legende": "\ud83d\udeb2 \u2764\ufe0f Transilien \ud83d\ude86"}, "geometry": {"type": "Point", "coordinates": [2.294118339716738, 48.702153799044325]}}, {"type": "Feature", "properties": {"start": "Gare de Savigny-sur-Orge", "stop_name": "Gare de Chilly-Mazarin", "type": "Gare accessible", "transport": "transilien", "nombre_trajet_moyen": 0.23, "transport_legende": "\ud83d\udeb2 \u2764\ufe0f Transilien \ud83d\ude86"}, "geometry": {"type": "Point", "coordinates": [2.3085895722306637, 48.70018774214699]}}, {"type": "Feature", "properties": {"start": "Gare de Savigny-sur-Orge", "stop_name": "Gare de Gravigny Balizy", "type": "Gare accessible", "transport": "transilien", "nombre_trajet_moyen": 0.23, "transport_legende": "\ud83d\udeb2 \u2764\ufe0f Transilien \ud83d\ude86"}, "geometry": {"type": "Point", "coordinates": [2.3170874694442003, 48.68524230606057]}}, {"type": "Feature", "properties": {"start": "Gare de Savigny-sur-Orge", "stop_name": "Petit Vaux", "type": "Gare accessible", "transport": "transilien", "nombre_trajet_moyen": 0.23, "transport_legende": "\ud83d\udeb2 \u2764\ufe0f Transilien \ud83d\ude86"}, "geometry": {"type": "Point", "coordinates": [2.332868506135788, 48.67655855621464]}}, {"type": "Feature", "properties": {"start": "Gare de Savigny-sur-Orge", "stop_name": "Juvisy", "type": "Gare accessible", "transport": "transilien", "nombre_trajet_moyen": 0.37, "transport_legende": "\ud83d\udeb2 \u2764\ufe0f Transilien \ud83d\ude86"}, "geometry": {"type": "Point", "coordinates": [2.383334629403869, 48.68970940912314]}}, {"type": "Feature", "properties": {"start": "Gare de Savigny-sur-Orge", "stop_name": "Br\u00e9tigny", "type": "Gare accessible", "transport": "transilien", "nombre_trajet_moyen": 0.13, "transport_legende": "\ud83d\udeb2 \u2764\ufe0f Transilien \ud83d\ude86"}, "geometry": {"type": "Point", "coordinates": [2.30195738288606, 48.60664906621052]}}, {"type": "Feature", "properties": {"start": "Gare de Savigny-sur-Orge", "stop_name": "Gare de Saint-Michel-sur-Orge", "type": "Gare accessible", "transport": "transilien", "nombre_trajet_moyen": 0.13, "transport_legende": "\ud83d\udeb2 \u2764\ufe0f Transilien \ud83d\ude86"}, "geometry": {"type": "Point", "coordinates": [2.3071832453245547, 48.63610797973242]}}, {"type": "Feature", "properties": {"start": "Gare de Savigny-sur-Orge", "stop_name": "Gare de Sainte Genevi\u00e8ve des Bois", "type": "Gare accessible", "transport": "transilien", "nombre_trajet_moyen": 0.13, "transport_legende": "\ud83d\udeb2 \u2764\ufe0f Transilien \ud83d\ude86"}, "geometry": {"type": "Point", "coordinates": [2.314400701472484, 48.65289879917236]}}, {"type": "Feature", "properties": {"start": "Gare de Savigny-sur-Orge", "stop_name": "Gare d'Epinay-sur-Orge", "type": "Gare accessible", "transport": "transilien", "nombre_trajet_moyen": 0.13, "transport_legende": "\ud83d\udeb2 \u2764\ufe0f Transilien \ud83d\ude86"}, "geometry": {"type": "Point", "coordinates": [2.332862503380829, 48.67008518872741]}}, {"type": "Feature", "properties": {"start": "Gare de Savigny-sur-Orge", "stop_name": "Gare de Dourdan", "type": "Gare accessible", "transport": "transilien", "nombre_trajet_moyen": 0.13, "transport_legende": "\ud83d\udeb2 \u2764\ufe0f Transilien \ud83d\ude86"}, "geometry": {"type": "Point", "coordinates": [2.009534907820466, 48.53335766070774]}}, {"type": "Feature", "properties": {"start": "Gare de Savigny-sur-Orge", "stop_name": "Gare de Sermaise", "type": "Gare accessible", "transport": "transilien", "nombre_trajet_moyen": 0.13, "transport_legende": "\ud83d\udeb2 \u2764\ufe0f Transilien \ud83d\ude86"}, "geometry": {"type": "Point", "coordinates": [2.0696790107970835, 48.53561577888964]}}, {"type": "Feature", "properties": {"start": "Gare de Savigny-sur-Orge", "stop_name": "Saint-Ch\u00e9ron", "type": "Gare accessible", "transport": "transilien", "nombre_trajet_moyen": 0.13, "transport_legende": "\ud83d\udeb2 \u2764\ufe0f Transilien \ud83d\ude86"}, "geometry": {"type": "Point", "coordinates": [2.1249767315730463, 48.55093774535708]}}, {"type": "Feature", "properties": {"start": "Gare de Savigny-sur-Orge", "stop_name": "Breuillet Village", "type": "Gare accessible", "transport": "transilien", "nombre_trajet_moyen": 0.13, "transport_legende": "\ud83d\udeb2 \u2764\ufe0f Transilien \ud83d\ude86"}, "geometry": {"type": "Point", "coordinates": [2.170354257290333, 48.56433413404574]}}, {"type": "Feature", "properties": {"start": "Gare de Savigny-sur-Orge", "stop_name": "Breuillet - Bruy\u00e8res-le-Ch\u00e2tel", "type": "Gare accessible", "transport": "transilien", "nombre_trajet_moyen": 0.13, "transport_legende": "\ud83d\udeb2 \u2764\ufe0f Transilien \ud83d\ude86"}, "geometry": {"type": "Point", "coordinates": [2.1922487394356454, 48.57760979436327]}}, {"type": "Feature", "properties": {"start": "Gare de Savigny-sur-Orge", "stop_name": "\u00c9gly", "type": "Gare accessible", "transport": "transilien", "nombre_trajet_moyen": 0.13, "transport_legende": "\ud83d\udeb2 \u2764\ufe0f Transilien \ud83d\ude86"}, "geometry": {"type": "Point", "coordinates": [2.2234625238542307, 48.582715781664064]}}, {"type": "Feature", "properties": {"start": "Gare de Savigny-sur-Orge", "stop_name": "Gare d'Arpajon", "type": "Gare accessible", "transport": "transilien", "nombre_trajet_moyen": 0.13, "transport_legende": "\ud83d\udeb2 \u2764\ufe0f Transilien \ud83d\ude86"}, "geometry": {"type": "Point", "coordinates": [2.241268855984888, 48.5861590555232]}}, {"type": "Feature", "properties": {"start": "Gare de Savigny-sur-Orge", "stop_name": "La Norville - Saint-Germain-l\u00e8s-Arpajon", "type": "Gare accessible", "transport": "transilien", "nombre_trajet_moyen": 0.13, "transport_legende": "\ud83d\udeb2 \u2764\ufe0f Transilien \ud83d\ude86"}, "geometry": {"type": "Point", "coordinates": [2.266215906699314, 48.59111916474817]}}, {"type": "Feature", "properties": {"start": "Gare de Savigny-sur-Orge", "stop_name": "Biblioth\u00e8que Fran\u00e7ois Mitterrand", "type": "Gare accessible", "transport": "transilien", "nombre_trajet_moyen": 0.37, "transport_legende": "\ud83d\udeb2 \u2764\ufe0f Transilien \ud83d\ude86"}, "geometry": {"type": "Point", "coordinates": [2.377826283136205, 48.82891195295035]}}, {"type": "Feature", "properties": {"start": "Gare de Savigny-sur-Orge", "stop_name": "Paris Austerlitz", "type": "Gare accessible", "transport": "transilien", "nombre_trajet_moyen": 0.37, "transport_legende": "\ud83d\udeb2 \u2764\ufe0f Transilien \ud83d\ude86"}, "geometry": {"type": "Point", "coordinates": [2.367960704266045, 48.841536799703]}}, {"type": "Feature", "properties": {"start": "Gare de Savigny-sur-Orge", "stop_name": "Saint-Martin d'\u00c9tampes", "type": "Gare accessible", "transport": "transilien", "nombre_trajet_moyen": 0.13, "transport_legende": "\ud83d\udeb2 \u2764\ufe0f Transilien \ud83d\ude86"}, "geometry": {"type": "Point", "coordinates": [2.145258831307165, 48.42748765080825]}}, {"type": "Feature", "properties": {"start": "Gare de Savigny-sur-Orge", "stop_name": "Gare d'\u00c9tampes", "type": "Gare accessible", "transport": "transilien", "nombre_trajet_moyen": 0.13, "transport_legende": "\ud83d\udeb2 \u2764\ufe0f Transilien \ud83d\ude86"}, "geometry": {"type": "Point", "coordinates": [2.159683431668019, 48.43652355105905]}}, {"type": "Feature", "properties": {"start": "Gare de Savigny-sur-Orge", "stop_name": "Gare d'Etrechy", "type": "Gare accessible", "transport": "transilien", "nombre_trajet_moyen": 0.13, "transport_legende": "\ud83d\udeb2 \u2764\ufe0f Transilien \ud83d\ude86"}, "geometry": {"type": "Point", "coordinates": [2.1939997375729896, 48.49374625316339]}}, {"type": "Feature", "properties": {"start": "Gare de Savigny-sur-Orge", "stop_name": "Chamarande", "type": "Gare accessible", "transport": "transilien", "nombre_trajet_moyen": 0.13, "transport_legende": "\ud83d\udeb2 \u2764\ufe0f Transilien \ud83d\ude86"}, "geometry": {"type": "Point", "coordinates": [2.2172087339114896, 48.51398126165003]}}, {"type": "Feature", "properties": {"start": "Gare de Savigny-sur-Orge", "stop_name": "Gare de Lardy", "type": "Gare accessible", "transport": "transilien", "nombre_trajet_moyen": 0.13, "transport_legende": "\ud83d\udeb2 \u2764\ufe0f Transilien \ud83d\ude86"}, "geometry": {"type": "Point", "coordinates": [2.2562456813314, 48.52068224259166]}}, {"type": "Feature", "properties": {"start": "Gare de Savigny-sur-Orge", "stop_name": "Gare de Bouray", "type": "Gare accessible", "transport": "transilien", "nombre_trajet_moyen": 0.13, "transport_legende": "\ud83d\udeb2 \u2764\ufe0f Transilien \ud83d\ude86"}, "geometry": {"type": "Point", "coordinates": [2.2908369165380784, 48.5333622333756]}}, {"type": "Feature", "properties": {"start": "Gare de Savigny-sur-Orge", "stop_name": "Marolles-en-Hurepoix", "type": "Gare accessible", "transport": "transilien", "nombre_trajet_moyen": 0.13, "transport_legende": "\ud83d\udeb2 \u2764\ufe0f Transilien \ud83d\ude86"}, "geometry": {"type": "Point", "coordinates": [2.290908349251896, 48.56564453550255]}}, {"type": "Feature", "properties": {"start": "Gare de Savigny-sur-Orge", "stop_name": "Gare routi\u00e8re de Versailles Chantiers - Quai H", "type": "Gare accessible", "transport": "transilien", "nombre_trajet_moyen": 0.23, "transport_legende": "\ud83d\udeb2 \u2764\ufe0f Transilien \ud83d\ude86"}, "geometry": {"type": "Point", "coordinates": [2.133520106872908, 48.79561972288378]}}, {"type": "Feature", "properties": {"start": "Gare de Savigny-sur-Orge", "stop_name": "Athis-Mons RER", "type": "Gare accessible", "transport": "transilien", "nombre_trajet_moyen": 0.23, "transport_legende": "\ud83d\udeb2 \u2764\ufe0f Transilien \ud83d\ude86"}, "geometry": {"type": "Point", "coordinates": [2.4026412215474013, 48.71278460911634]}}, {"type": "Feature", "properties": {"start": "Gare de Savigny-sur-Orge", "stop_name": "Gare d'Ablon", "type": "Gare accessible", "transport": "transilien", "nombre_trajet_moyen": 0.23, "transport_legende": "\ud83d\udeb2 \u2764\ufe0f Transilien \ud83d\ude86"}, "geometry": {"type": "Point", "coordinates": [2.418552549726059, 48.72541058971868]}}, {"type": "Feature", "properties": {"start": "Gare de Savigny-sur-Orge", "stop_name": "Gare de Villeneuve-le-Roi", "type": "Gare accessible", "transport": "transilien", "nombre_trajet_moyen": 0.23, "transport_legende": "\ud83d\udeb2 \u2764\ufe0f Transilien \ud83d\ude86"}, "geometry": {"type": "Point", "coordinates": [2.423505885411325, 48.73976274768902]}}, {"type": "Feature", "properties": {"start": "Gare de Savigny-sur-Orge", "stop_name": "Choisy-le-Roi RER", "type": "Gare accessible", "transport": "transilien", "nombre_trajet_moyen": 0.23, "transport_legende": "\ud83d\udeb2 \u2764\ufe0f Transilien \ud83d\ude86"}, "geometry": {"type": "Point", "coordinates": [2.4121016828937027, 48.76467527679301]}}, {"type": "Feature", "properties": {"start": "Gare de Savigny-sur-Orge", "stop_name": "Gare du Petit-Jouy - Les Loges", "type": "Gare accessible", "transport": "transilien", "nombre_trajet_moyen": 0.13, "transport_legende": "\ud83d\udeb2 \u2764\ufe0f Transilien \ud83d\ude86"}, "geometry": {"type": "Point", "coordinates": [2.147822925316284, 48.77177070181183]}}, {"type": "Feature", "properties": {"start": "Gare de Savigny-sur-Orge", "stop_name": "Gare de Jouy-en-Josas", "type": "Gare accessible", "transport": "transilien", "nombre_trajet_moyen": 0.13, "transport_legende": "\ud83d\udeb2 \u2764\ufe0f Transilien \ud83d\ude86"}, "geometry": {"type": "Point", "coordinates": [2.163390419214656, 48.76494604700003]}}, {"type": "Feature", "properties": {"start": "Gare de Savigny-sur-Orge", "stop_name": "Gare de Vauboyen", "type": "Gare accessible", "transport": "transilien", "nombre_trajet_moyen": 0.13, "transport_legende": "\ud83d\udeb2 \u2764\ufe0f Transilien \ud83d\ude86"}, "geometry": {"type": "Point", "coordinates": [2.19048067829034, 48.75783823568276]}}, {"type": "Feature", "properties": {"start": "Gare de Savigny-sur-Orge", "stop_name": "Gare de Bi\u00e8vres", "type": "Gare accessible", "transport": "transilien", "nombre_trajet_moyen": 0.13, "transport_legende": "\ud83d\udeb2 \u2764\ufe0f Transilien \ud83d\ude86"}, "geometry": {"type": "Point", "coordinates": [2.2157586957609348, 48.75135100564622]}}, {"type": "Feature", "properties": {"start": "Gare de Savigny-sur-Orge", "stop_name": "Gare d'Igny", "type": "Gare accessible", "transport": "transilien", "nombre_trajet_moyen": 0.13, "transport_legende": "\ud83d\udeb2 \u2764\ufe0f Transilien \ud83d\ude86"}, "geometry": {"type": "Point", "coordinates": [2.2305211423998137, 48.73998803455092]}}]}