{"type": "FeatureCollection", "features": [{"type": "Feature", "properties": {"start": "La Garenne-Colombes", "stop_name": "La Garenne-Colombes", "type": "Gare s\u00e9lectionn\u00e9e", "transport": "transilien", "transport_legende": "\ud83d\udeb2 \u2764\ufe0f Transilien \ud83d\ude86"}, "geometry": {"type": "Point", "coordinates": [2.2397947530458278, 48.90957685679064]}}, {"type": "Feature", "properties": {"start": "La Garenne-Colombes", "stop_name": "Nanterre Universit\u00e9", "type": "Gare accessible", "transport": "transilien", "transport_legende": "\ud83d\udeb2 \u2764\ufe0f Transilien \ud83d\ude86"}, "geometry": {"type": "Point", "coordinates": [2.213536495127317, 48.90112974604822]}}, {"type": "Feature", "properties": {"start": "La Garenne-Colombes", "stop_name": "Les Vall\u00e9es", "type": "Gare accessible", "transport": "transilien", "transport_legende": "\ud83d\udeb2 \u2764\ufe0f Transilien \ud83d\ude86"}, "geometry": {"type": "Point", "coordinates": [2.2572045759752384, 48.91365276270651]}}, {"type": "Feature", "properties": {"start": "La Garenne-Colombes", "stop_name": "B\u00e9con les Bruy\u00e8res", "type": "Gare accessible", "transport": "transilien", "transport_legende": "\ud83d\udeb2 \u2764\ufe0f Transilien \ud83d\ude86"}, "geometry": {"type": "Point", "coordinates": [2.268790065027107, 48.90549079769296]}}, {"type": "Feature", "properties": {"start": "La Garenne-Colombes", "stop_name": "Asni\u00e8res-sur-Seine", "type": "Gare accessible", "transport": "transilien", "transport_legende": "\ud83d\udeb2 \u2764\ufe0f Transilien \ud83d\ude86"}, "geometry": {"type": "Point", "coordinates": [2.2832114335873186, 48.90587474197106]}}, {"type": "Feature", "properties": {"start": "La Garenne-Colombes", "stop_name": "Clichy - Levallois", "type": "Gare accessible", "transport": "transilien", "transport_legende": "\ud83d\udeb2 \u2764\ufe0f Transilien \ud83d\ude86"}, "geometry": {"type": "Point", "coordinates": [2.2974715210323566, 48.89750112711205]}}, {"type": "Feature", "properties": {"start": "La Garenne-Colombes", "stop_name": "Pont Cardinet", "type": "Gare accessible", "transport": "transilien", "transport_legende": "\ud83d\udeb2 \u2764\ufe0f Transilien \ud83d\ude86"}, "geometry": {"type": "Point", "coordinates": [2.312950431098551, 48.88839532721545]}}, {"type": "Feature", "properties": {"start": "La Garenne-Colombes", "stop_name": "Gare Saint-Lazare", "type": "Gare accessible", "transport": "transilien", "transport_legende": "\ud83d\udeb2 \u2764\ufe0f Transilien \ud83d\ude86"}, "geometry": {"type": "Point", "coordinates": [2.3244386552397684, 48.87747568635212]}}, {"type": "Feature", "properties": {"start": "La Garenne-Colombes", "stop_name": "Cergy le Haut", "type": "Gare accessible", "transport": "transilien", "transport_legende": "\ud83d\udeb2 \u2764\ufe0f Transilien \ud83d\ude86"}, "geometry": {"type": "Point", "coordinates": [2.011579068023536, 49.04823262405815]}}, {"type": "Feature", "properties": {"start": "La Garenne-Colombes", "stop_name": "Cergy Saint-Christophe", "type": "Gare accessible", "transport": "transilien", "transport_legende": "\ud83d\udeb2 \u2764\ufe0f Transilien \ud83d\ude86"}, "geometry": {"type": "Point", "coordinates": [2.0345219282999176, 49.049642166828754]}}, {"type": "Feature", "properties": {"start": "La Garenne-Colombes", "stop_name": "Cergy Pr\u00e9fecture", "type": "Gare accessible", "transport": "transilien", "transport_legende": "\ud83d\udeb2 \u2764\ufe0f Transilien \ud83d\ude86"}, "geometry": {"type": "Point", "coordinates": [2.0797809490013077, 49.036306683133965]}}, {"type": "Feature", "properties": {"start": "La Garenne-Colombes", "stop_name": "Neuville Universit\u00e9", "type": "Gare accessible", "transport": "transilien", "transport_legende": "\ud83d\udeb2 \u2764\ufe0f Transilien \ud83d\ude86"}, "geometry": {"type": "Point", "coordinates": [2.078348820578231, 49.01374275942672]}}, {"type": "Feature", "properties": {"start": "La Garenne-Colombes", "stop_name": "Conflans Fin d'Oise", "type": "Gare accessible", "transport": "transilien", "transport_legende": "\ud83d\udeb2 \u2764\ufe0f Transilien \ud83d\ude86"}, "geometry": {"type": "Point", "coordinates": [2.0746499245710197, 48.99115628725848]}}, {"type": "Feature", "properties": {"start": "La Garenne-Colombes", "stop_name": "Ach\u00e8res Ville", "type": "Gare accessible", "transport": "transilien", "transport_legende": "\ud83d\udeb2 \u2764\ufe0f Transilien \ud83d\ude86"}, "geometry": {"type": "Point", "coordinates": [2.0777265246565437, 48.97064357081442]}}, {"type": "Feature", "properties": {"start": "La Garenne-Colombes", "stop_name": "Sartrouville", "type": "Gare accessible", "transport": "transilien", "transport_legende": "\ud83d\udeb2 \u2764\ufe0f Transilien \ud83d\ude86"}, "geometry": {"type": "Point", "coordinates": [2.157220038850732, 48.93769529363442]}}, {"type": "Feature", "properties": {"start": "La Garenne-Colombes", "stop_name": "Houilles - Carri\u00e8res-sur-Seine", "type": "Gare accessible", "transport": "transilien", "transport_legende": "\ud83d\udeb2 \u2764\ufe0f Transilien \ud83d\ude86"}, "geometry": {"type": "Point", "coordinates": [2.1851757042018707, 48.92034757911033]}}, {"type": "Feature", "properties": {"start": "La Garenne-Colombes", "stop_name": "Maisons-Laffitte", "type": "Gare accessible", "transport": "transilien", "transport_legende": "\ud83d\udeb2 \u2764\ufe0f Transilien \ud83d\ude86"}, "geometry": {"type": "Point", "coordinates": [2.144672265933885, 48.94574060746957]}}]}