{"type": "FeatureCollection", "features": [{"type": "Feature", "properties": {"start": "La Verri\u00e8re Gare", "stop_name": "La Verri\u00e8re Gare", "type": "Gare s\u00e9lectionn\u00e9e", "transport": "transilien", "nombre_trajet_moyen": 0.0, "transport_legende": "\ud83d\udeb2 \u2764\ufe0f Transilien \ud83d\ude86"}, "geometry": {"type": "Point", "coordinates": [1.9426195655767495, 48.75561298328016]}}, {"type": "Feature", "properties": {"start": "La Verri\u00e8re Gare", "stop_name": "Trappes", "type": "Gare accessible", "transport": "transilien", "nombre_trajet_moyen": 0.0, "transport_legende": "\ud83d\udeb2 \u2764\ufe0f Transilien \ud83d\ude86"}, "geometry": {"type": "Point", "coordinates": [2.0065902166898377, 48.7747853970692]}}, {"type": "Feature", "properties": {"start": "La Verri\u00e8re Gare", "stop_name": "Saint-Quentin - Gare Routi\u00e8re des Pr\u00e9s", "type": "Gare accessible", "transport": "transilien", "nombre_trajet_moyen": 0.0, "transport_legende": "\ud83d\udeb2 \u2764\ufe0f Transilien \ud83d\ude86"}, "geometry": {"type": "Point", "coordinates": [2.046693294953489, 48.78805098717245]}}, {"type": "Feature", "properties": {"start": "La Verri\u00e8re Gare", "stop_name": "R\u00e9publique Gare Saint-Cyr", "type": "Gare accessible", "transport": "transilien", "nombre_trajet_moyen": 0.0, "transport_legende": "\ud83d\udeb2 \u2764\ufe0f Transilien \ud83d\ude86"}, "geometry": {"type": "Point", "coordinates": [2.070472084327202, 48.79958017987412]}}, {"type": "Feature", "properties": {"start": "La Verri\u00e8re Gare", "stop_name": "Gare routi\u00e8re de Versailles Chantiers - Quai F", "type": "Gare accessible", "transport": "transilien", "nombre_trajet_moyen": 0.0, "transport_legende": "\ud83d\udeb2 \u2764\ufe0f Transilien \ud83d\ude86"}, "geometry": {"type": "Point", "coordinates": [2.133198347656379, 48.79532057973021]}}, {"type": "Feature", "properties": {"start": "La Verri\u00e8re Gare", "stop_name": "Gare de Chaville Rive Droite", "type": "Gare accessible", "transport": "transilien", "nombre_trajet_moyen": 0.0, "transport_legende": "\ud83d\udeb2 \u2764\ufe0f Transilien \ud83d\ude86"}, "geometry": {"type": "Point", "coordinates": [2.1873205791005867, 48.81227700061721]}}, {"type": "Feature", "properties": {"start": "La Verri\u00e8re Gare", "stop_name": "Gare de S\u00e8vres - Ville d'Avray", "type": "Gare accessible", "transport": "transilien", "nombre_trajet_moyen": 0.0, "transport_legende": "\ud83d\udeb2 \u2764\ufe0f Transilien \ud83d\ude86"}, "geometry": {"type": "Point", "coordinates": [2.199680824025229, 48.8259053040417]}}, {"type": "Feature", "properties": {"start": "La Verri\u00e8re Gare", "stop_name": "Gare de Saint-Cloud", "type": "Gare accessible", "transport": "transilien", "nombre_trajet_moyen": 0.0, "transport_legende": "\ud83d\udeb2 \u2764\ufe0f Transilien \ud83d\ude86"}, "geometry": {"type": "Point", "coordinates": [2.217619436740083, 48.84502795307118]}}, {"type": "Feature", "properties": {"start": "La Verri\u00e8re Gare", "stop_name": "Gare du Mont-Val\u00e9rien", "type": "Gare accessible", "transport": "transilien", "nombre_trajet_moyen": 0.0, "transport_legende": "\ud83d\udeb2 \u2764\ufe0f Transilien \ud83d\ude86"}, "geometry": {"type": "Point", "coordinates": [2.221250556571285, 48.87195159499469]}}, {"type": "Feature", "properties": {"start": "La Verri\u00e8re Gare", "stop_name": "Gare de Puteaux", "type": "Gare accessible", "transport": "transilien", "nombre_trajet_moyen": 0.0, "transport_legende": "\ud83d\udeb2 \u2764\ufe0f Transilien \ud83d\ude86"}, "geometry": {"type": "Point", "coordinates": [2.2343812645711627, 48.883898673903126]}}, {"type": "Feature", "properties": {"start": "La Verri\u00e8re Gare", "stop_name": "La D\u00e9fense", "type": "Gare accessible", "transport": "transilien", "nombre_trajet_moyen": 0.0, "transport_legende": "\ud83d\udeb2 \u2764\ufe0f Transilien \ud83d\ude86"}, "geometry": {"type": "Point", "coordinates": [2.238418596250407, 48.892229801568206]}}, {"type": "Feature", "properties": {"start": "La Verri\u00e8re Gare", "stop_name": "Chaville Rive Droite", "type": "Gare accessible", "transport": "transilien", "nombre_trajet_moyen": 0.0, "transport_legende": "\ud83d\udeb2 \u2764\ufe0f Transilien \ud83d\ude86"}, "geometry": {"type": "Point", "coordinates": [2.1885894806735937, 48.81299614830529]}}, {"type": "Feature", "properties": {"start": "La Verri\u00e8re Gare", "stop_name": "Gare routi\u00e8re de Versailles Chantiers - Quai B", "type": "Gare accessible", "transport": "transilien", "nombre_trajet_moyen": 0.0, "transport_legende": "\ud83d\udeb2 \u2764\ufe0f Transilien \ud83d\ude86"}, "geometry": {"type": "Point", "coordinates": [2.1335121711050005, 48.79527788420996]}}, {"type": "Feature", "properties": {"start": "La Verri\u00e8re Gare", "stop_name": "R\u00e9publique - La Poste", "type": "Gare accessible", "transport": "transilien", "nombre_trajet_moyen": 0.0, "transport_legende": "\ud83d\udeb2 \u2764\ufe0f Transilien \ud83d\ude86"}, "geometry": {"type": "Point", "coordinates": [2.067875421584617, 48.7986065618531]}}]}