{"type": "FeatureCollection", "features": [{"type": "Feature", "properties": {"start": "Le Raincy - Villemomble - Montfermeil", "stop_name": "Le Raincy - Villemomble - Montfermeil", "type": "Gare s\u00e9lectionn\u00e9e", "transport": "transilien", "transport_legende": "\ud83d\udeb2 \u2764\ufe0f Transilien \ud83d\ude86"}, "geometry": {"type": "Point", "coordinates": [2.513061005684412, 48.8888544132907]}}, {"type": "Feature", "properties": {"start": "Le Raincy - Villemomble - Montfermeil", "stop_name": "Chelles - Gournay", "type": "Gare accessible", "transport": "transilien", "transport_legende": "\ud83d\udeb2 \u2764\ufe0f Transilien \ud83d\ude86"}, "geometry": {"type": "Point", "coordinates": [2.5833806594500697, 48.87411948897062]}}, {"type": "Feature", "properties": {"start": "Le Raincy - Villemomble - Montfermeil", "stop_name": "Le Ch\u00e9nay Gagny", "type": "Gare accessible", "transport": "transilien", "transport_legende": "\ud83d\udeb2 \u2764\ufe0f Transilien \ud83d\ude86"}, "geometry": {"type": "Point", "coordinates": [2.5527724908646303, 48.8771591253828]}}, {"type": "Feature", "properties": {"start": "Le Raincy - Villemomble - Montfermeil", "stop_name": "Gagny", "type": "Gare accessible", "transport": "transilien", "transport_legende": "\ud83d\udeb2 \u2764\ufe0f Transilien \ud83d\ude86"}, "geometry": {"type": "Point", "coordinates": [2.5254046016945138, 48.883728731604535]}}, {"type": "Feature", "properties": {"start": "Le Raincy - Villemomble - Montfermeil", "stop_name": "Varsovie", "type": "Gare accessible", "transport": "transilien", "transport_legende": "\ud83d\udeb2 \u2764\ufe0f Transilien \ud83d\ude86"}, "geometry": {"type": "Point", "coordinates": [2.4798217615310003, 48.89366114949435]}}, {"type": "Feature", "properties": {"start": "Le Raincy - Villemomble - Montfermeil", "stop_name": "Noisy-le-Sec", "type": "Gare accessible", "transport": "transilien", "transport_legende": "\ud83d\udeb2 \u2764\ufe0f Transilien \ud83d\ude86"}, "geometry": {"type": "Point", "coordinates": [2.45919809568668, 48.8966634168645]}}, {"type": "Feature", "properties": {"start": "Le Raincy - Villemomble - Montfermeil", "stop_name": "Pantin RER - Mairie", "type": "Gare accessible", "transport": "transilien", "transport_legende": "\ud83d\udeb2 \u2764\ufe0f Transilien \ud83d\ude86"}, "geometry": {"type": "Point", "coordinates": [2.400844948468256, 48.89669145783791]}}, {"type": "Feature", "properties": {"start": "Le Raincy - Villemomble - Montfermeil", "stop_name": "Rosa Parks", "type": "Gare accessible", "transport": "transilien", "transport_legende": "\ud83d\udeb2 \u2764\ufe0f Transilien \ud83d\ude86"}, "geometry": {"type": "Point", "coordinates": [2.3737182728654678, 48.89645824176388]}}, {"type": "Feature", "properties": {"start": "Le Raincy - Villemomble - Montfermeil", "stop_name": "Paris Est", "type": "Gare accessible", "transport": "transilien", "transport_legende": "\ud83d\udeb2 \u2764\ufe0f Transilien \ud83d\ude86"}, "geometry": {"type": "Point", "coordinates": [2.3581309888068707, 48.87630724403106]}}, {"type": "Feature", "properties": {"start": "Le Raincy - Villemomble - Montfermeil", "stop_name": "Haussmann Saint-Lazare", "type": "Gare accessible", "transport": "transilien", "transport_legende": "\ud83d\udeb2 \u2764\ufe0f Transilien \ud83d\ude86"}, "geometry": {"type": "Point", "coordinates": [2.328646179742093, 48.87499886200119]}}, {"type": "Feature", "properties": {"start": "Le Raincy - Villemomble - Montfermeil", "stop_name": "Magenta", "type": "Gare accessible", "transport": "transilien", "transport_legende": "\ud83d\udeb2 \u2764\ufe0f Transilien \ud83d\ude86"}, "geometry": {"type": "Point", "coordinates": [2.358695908637114, 48.88081039411524]}}, {"type": "Feature", "properties": {"start": "Le Raincy - Villemomble - Montfermeil", "stop_name": "Pantin", "type": "Gare accessible", "transport": "transilien", "transport_legende": "\ud83d\udeb2 \u2764\ufe0f Transilien \ud83d\ude86"}, "geometry": {"type": "Point", "coordinates": [2.4010414542870944, 48.897987452300434]}}, {"type": "Feature", "properties": {"start": "Le Raincy - Villemomble - Montfermeil", "stop_name": "Bondy", "type": "Gare accessible", "transport": "transilien", "transport_legende": "\ud83d\udeb2 \u2764\ufe0f Transilien \ud83d\ude86"}, "geometry": {"type": "Point", "coordinates": [2.4795800358385867, 48.893965864676495]}}]}