{"type": "FeatureCollection", "features": [{"type": "Feature", "properties": {"start": "Le Stade", "stop_name": "Le Stade", "type": "Gare s\u00e9lectionn\u00e9e", "transport": "transilien", "transport_legende": "\ud83d\udeb2 \u2764\ufe0f Transilien \ud83d\ude86"}, "geometry": {"type": "Point", "coordinates": [2.260948512567054, 48.93172049557505]}}, {"type": "Feature", "properties": {"start": "Le Stade", "stop_name": "Gare de Combs-la-Ville Quincy", "type": "Gare accessible", "transport": "transilien", "transport_legende": "\ud83d\udeb2 \u2764\ufe0f Transilien \ud83d\ude86"}, "geometry": {"type": "Point", "coordinates": [2.5481878095615254, 48.667929510052176]}}, {"type": "Feature", "properties": {"start": "Le Stade", "stop_name": "H\u00f4tel de Ville - Quincy-sous-S\u00e9nart", "type": "Gare accessible", "transport": "transilien", "transport_legende": "\ud83d\udeb2 \u2764\ufe0f Transilien \ud83d\ude86"}, "geometry": {"type": "Point", "coordinates": [2.5393546545276853, 48.67171850594942]}}, {"type": "Feature", "properties": {"start": "Le Stade", "stop_name": "Gare de Boussy Saint-Antoine", "type": "Gare accessible", "transport": "transilien", "transport_legende": "\ud83d\udeb2 \u2764\ufe0f Transilien \ud83d\ude86"}, "geometry": {"type": "Point", "coordinates": [2.5312891894453764, 48.682147995223694]}}, {"type": "Feature", "properties": {"start": "Le Stade", "stop_name": "La Plaine - Epinay sous S\u00e9nart", "type": "Gare accessible", "transport": "transilien", "transport_legende": "\ud83d\udeb2 \u2764\ufe0f Transilien \ud83d\ude86"}, "geometry": {"type": "Point", "coordinates": [2.5251422257782217, 48.696398243763234]}}, {"type": "Feature", "properties": {"start": "Le Stade", "stop_name": "Brunoy", "type": "Gare accessible", "transport": "transilien", "transport_legende": "\ud83d\udeb2 \u2764\ufe0f Transilien \ud83d\ude86"}, "geometry": {"type": "Point", "coordinates": [2.506850312311369, 48.698914475306886]}}, {"type": "Feature", "properties": {"start": "Le Stade", "stop_name": "Rond-Point Wittlich", "type": "Gare accessible", "transport": "transilien", "transport_legende": "\ud83d\udeb2 \u2764\ufe0f Transilien \ud83d\ude86"}, "geometry": {"type": "Point", "coordinates": [2.5016361471868422, 48.69497113970025]}}, {"type": "Feature", "properties": {"start": "Le Stade", "stop_name": "Gare de Yerres", "type": "Gare accessible", "transport": "transilien", "transport_legende": "\ud83d\udeb2 \u2764\ufe0f Transilien \ud83d\ude86"}, "geometry": {"type": "Point", "coordinates": [2.483216976400423, 48.70685561343884]}}, {"type": "Feature", "properties": {"start": "Le Stade", "stop_name": "Gare de Montgeron", "type": "Gare accessible", "transport": "transilien", "transport_legende": "\ud83d\udeb2 \u2764\ufe0f Transilien \ud83d\ude86"}, "geometry": {"type": "Point", "coordinates": [2.4622488481847955, 48.70804017669453]}}, {"type": "Feature", "properties": {"start": "Le Stade", "stop_name": "Eglise", "type": "Gare accessible", "transport": "transilien", "transport_legende": "\ud83d\udeb2 \u2764\ufe0f Transilien \ud83d\ude86"}, "geometry": {"type": "Point", "coordinates": [2.4089400998692025, 48.68702818742313]}}, {"type": "Feature", "properties": {"start": "Le Stade", "stop_name": "Gare de Villeneuve", "type": "Gare accessible", "transport": "transilien", "transport_legende": "\ud83d\udeb2 \u2764\ufe0f Transilien \ud83d\ude86"}, "geometry": {"type": "Point", "coordinates": [2.44708425278972, 48.72965664548239]}}, {"type": "Feature", "properties": {"start": "Le Stade", "stop_name": "Villeneuve Triage - Hector Berlioz", "type": "Gare accessible", "transport": "transilien", "transport_legende": "\ud83d\udeb2 \u2764\ufe0f Transilien \ud83d\ude86"}, "geometry": {"type": "Point", "coordinates": [2.446651015933121, 48.74616830304813]}}, {"type": "Feature", "properties": {"start": "Le Stade", "stop_name": "Villeneuve Prairie - Pompadour", "type": "Gare accessible", "transport": "transilien", "transport_legende": "\ud83d\udeb2 \u2764\ufe0f Transilien \ud83d\ude86"}, "geometry": {"type": "Point", "coordinates": [2.4417377943063947, 48.76430480258263]}}, {"type": "Feature", "properties": {"start": "Le Stade", "stop_name": "Le Vert de Maisons", "type": "Gare accessible", "transport": "transilien", "transport_legende": "\ud83d\udeb2 \u2764\ufe0f Transilien \ud83d\ude86"}, "geometry": {"type": "Point", "coordinates": [2.4321242678299977, 48.78883131123265]}}, {"type": "Feature", "properties": {"start": "Le Stade", "stop_name": "Gare de Maisons Alfort Alfortville", "type": "Gare accessible", "transport": "transilien", "transport_legende": "\ud83d\udeb2 \u2764\ufe0f Transilien \ud83d\ude86"}, "geometry": {"type": "Point", "coordinates": [2.42715143006864, 48.80165091886755]}}, {"type": "Feature", "properties": {"start": "Le Stade", "stop_name": "Gare de Lyon - Van Gogh", "type": "Gare accessible", "transport": "transilien", "transport_legende": "\ud83d\udeb2 \u2764\ufe0f Transilien \ud83d\ude86"}, "geometry": {"type": "Point", "coordinates": [2.37177448281981, 48.84503741254108]}}, {"type": "Feature", "properties": {"start": "Le Stade", "stop_name": "Maisons-Alfort - Alfortville", "type": "Gare accessible", "transport": "transilien", "transport_legende": "\ud83d\udeb2 \u2764\ufe0f Transilien \ud83d\ude86"}, "geometry": {"type": "Point", "coordinates": [2.4264376603578035, 48.80217813521484]}}, {"type": "Feature", "properties": {"start": "Le Stade", "stop_name": "Villeneuve Triage", "type": "Gare accessible", "transport": "transilien", "transport_legende": "\ud83d\udeb2 \u2764\ufe0f Transilien \ud83d\ude86"}, "geometry": {"type": "Point", "coordinates": [2.438697833840877, 48.74461113914048]}}, {"type": "Feature", "properties": {"start": "Le Stade", "stop_name": "Gare de Villeneuve-Saint-Georges", "type": "Gare accessible", "transport": "transilien", "transport_legende": "\ud83d\udeb2 \u2764\ufe0f Transilien \ud83d\ude86"}, "geometry": {"type": "Point", "coordinates": [2.4465573674434435, 48.729339398302656]}}, {"type": "Feature", "properties": {"start": "Le Stade", "stop_name": "Quincy-sous-S\u00e9nart", "type": "Gare accessible", "transport": "transilien", "transport_legende": "\ud83d\udeb2 \u2764\ufe0f Transilien \ud83d\ude86"}, "geometry": {"type": "Point", "coordinates": [2.539178425852188, 48.67168184566287]}}, {"type": "Feature", "properties": {"start": "Le Stade", "stop_name": "Rue de la Station", "type": "Gare accessible", "transport": "transilien", "transport_legende": "\ud83d\udeb2 \u2764\ufe0f Transilien \ud83d\ude86"}, "geometry": {"type": "Point", "coordinates": [2.2862735514302344, 48.90641463115114]}}, {"type": "Feature", "properties": {"start": "Le Stade", "stop_name": "Gare de Bois-Colombes", "type": "Gare accessible", "transport": "transilien", "transport_legende": "\ud83d\udeb2 \u2764\ufe0f Transilien \ud83d\ude86"}, "geometry": {"type": "Point", "coordinates": [2.272012118044856, 48.913604266401045]}}, {"type": "Feature", "properties": {"start": "Le Stade", "stop_name": "Gare de Colombes", "type": "Gare accessible", "transport": "transilien", "transport_legende": "\ud83d\udeb2 \u2764\ufe0f Transilien \ud83d\ude86"}, "geometry": {"type": "Point", "coordinates": [2.259412959527749, 48.92357233126087]}}, {"type": "Feature", "properties": {"start": "Le Stade", "stop_name": "Gare d'Argenteuil", "type": "Gare accessible", "transport": "transilien", "transport_legende": "\ud83d\udeb2 \u2764\ufe0f Transilien \ud83d\ude86"}, "geometry": {"type": "Point", "coordinates": [2.2574327819077094, 48.94661803093192]}}, {"type": "Feature", "properties": {"start": "Le Stade", "stop_name": "Sannois", "type": "Gare accessible", "transport": "transilien", "transport_legende": "\ud83d\udeb2 \u2764\ufe0f Transilien \ud83d\ude86"}, "geometry": {"type": "Point", "coordinates": [2.263820283806777, 48.970881176549405]}}, {"type": "Feature", "properties": {"start": "Le Stade", "stop_name": "Gare d'Ermont-Eaubonne", "type": "Gare accessible", "transport": "transilien", "transport_legende": "\ud83d\udeb2 \u2764\ufe0f Transilien \ud83d\ude86"}, "geometry": {"type": "Point", "coordinates": [2.271203813127117, 48.98009247741121]}}, {"type": "Feature", "properties": {"start": "Le Stade", "stop_name": "Ermont - Eaubonne", "type": "Gare accessible", "transport": "transilien", "transport_legende": "\ud83d\udeb2 \u2764\ufe0f Transilien \ud83d\ude86"}, "geometry": {"type": "Point", "coordinates": [2.2707541014797794, 48.98049890628609]}}, {"type": "Feature", "properties": {"start": "Le Stade", "stop_name": "Argenteuil", "type": "Gare accessible", "transport": "transilien", "transport_legende": "\ud83d\udeb2 \u2764\ufe0f Transilien \ud83d\ude86"}, "geometry": {"type": "Point", "coordinates": [2.257913508915154, 48.9468952901277]}}, {"type": "Feature", "properties": {"start": "Le Stade", "stop_name": "Colombes", "type": "Gare accessible", "transport": "transilien", "transport_legende": "\ud83d\udeb2 \u2764\ufe0f Transilien \ud83d\ude86"}, "geometry": {"type": "Point", "coordinates": [2.259318757710957, 48.92395845032284]}}, {"type": "Feature", "properties": {"start": "Le Stade", "stop_name": "Bois-Colombes", "type": "Gare accessible", "transport": "transilien", "transport_legende": "\ud83d\udeb2 \u2764\ufe0f Transilien \ud83d\ude86"}, "geometry": {"type": "Point", "coordinates": [2.2716490888242244, 48.91419560591249]}}, {"type": "Feature", "properties": {"start": "Le Stade", "stop_name": "Asni\u00e8res-sur-Seine", "type": "Gare accessible", "transport": "transilien", "transport_legende": "\ud83d\udeb2 \u2764\ufe0f Transilien \ud83d\ude86"}, "geometry": {"type": "Point", "coordinates": [2.2832114335873186, 48.90587474197106]}}, {"type": "Feature", "properties": {"start": "Le Stade", "stop_name": "Gare Saint-Lazare", "type": "Gare accessible", "transport": "transilien", "transport_legende": "\ud83d\udeb2 \u2764\ufe0f Transilien \ud83d\ude86"}, "geometry": {"type": "Point", "coordinates": [2.3244386552397684, 48.87747568635212]}}, {"type": "Feature", "properties": {"start": "Le Stade", "stop_name": "Pontoise", "type": "Gare accessible", "transport": "transilien", "transport_legende": "\ud83d\udeb2 \u2764\ufe0f Transilien \ud83d\ude86"}, "geometry": {"type": "Point", "coordinates": [2.0957859968423524, 49.04673337596684]}}, {"type": "Feature", "properties": {"start": "Le Stade", "stop_name": "Saint-Ouen-l'Aum\u00f4ne Quartier de l'\u00c9glise", "type": "Gare accessible", "transport": "transilien", "transport_legende": "\ud83d\udeb2 \u2764\ufe0f Transilien \ud83d\ude86"}, "geometry": {"type": "Point", "coordinates": [2.1034691329132857, 49.03909361746138]}}, {"type": "Feature", "properties": {"start": "Le Stade", "stop_name": "\u00c9ragny - Neuville", "type": "Gare accessible", "transport": "transilien", "transport_legende": "\ud83d\udeb2 \u2764\ufe0f Transilien \ud83d\ude86"}, "geometry": {"type": "Point", "coordinates": [2.090571123307668, 49.01790068888594]}}, {"type": "Feature", "properties": {"start": "Le Stade", "stop_name": "Conflans-Sainte-Honorine", "type": "Gare accessible", "transport": "transilien", "transport_legende": "\ud83d\udeb2 \u2764\ufe0f Transilien \ud83d\ude86"}, "geometry": {"type": "Point", "coordinates": [2.09871661352047, 48.996919424234726]}}, {"type": "Feature", "properties": {"start": "Le Stade", "stop_name": "Herblay", "type": "Gare accessible", "transport": "transilien", "transport_legende": "\ud83d\udeb2 \u2764\ufe0f Transilien \ud83d\ude86"}, "geometry": {"type": "Point", "coordinates": [2.1622316587721904, 48.990136140429954]}}, {"type": "Feature", "properties": {"start": "Le Stade", "stop_name": "La Frette - Montigny", "type": "Gare accessible", "transport": "transilien", "transport_legende": "\ud83d\udeb2 \u2764\ufe0f Transilien \ud83d\ude86"}, "geometry": {"type": "Point", "coordinates": [2.180341866372171, 48.97988373233732]}}, {"type": "Feature", "properties": {"start": "Le Stade", "stop_name": "Cormeilles-en-Parisis", "type": "Gare accessible", "transport": "transilien", "transport_legende": "\ud83d\udeb2 \u2764\ufe0f Transilien \ud83d\ude86"}, "geometry": {"type": "Point", "coordinates": [2.1930511780913897, 48.9686435877584]}}, {"type": "Feature", "properties": {"start": "Le Stade", "stop_name": "Val d'Argenteuil", "type": "Gare accessible", "transport": "transilien", "transport_legende": "\ud83d\udeb2 \u2764\ufe0f Transilien \ud83d\ude86"}, "geometry": {"type": "Point", "coordinates": [2.232694050053452, 48.95065749524003]}}, {"type": "Feature", "properties": {"start": "Le Stade", "stop_name": "Gare de Pontoise", "type": "Gare accessible", "transport": "transilien", "transport_legende": "\ud83d\udeb2 \u2764\ufe0f Transilien \ud83d\ude86"}, "geometry": {"type": "Point", "coordinates": [2.095683907287571, 49.04709679175885]}}, {"type": "Feature", "properties": {"start": "Le Stade", "stop_name": "Place Coutisson", "type": "Gare accessible", "transport": "transilien", "transport_legende": "\ud83d\udeb2 \u2764\ufe0f Transilien \ud83d\ude86"}, "geometry": {"type": "Point", "coordinates": [2.097496390224522, 48.99635720614124]}}, {"type": "Feature", "properties": {"start": "Le Stade", "stop_name": "Gare de Cormeilles en Parisis", "type": "Gare accessible", "transport": "transilien", "transport_legende": "\ud83d\udeb2 \u2764\ufe0f Transilien \ud83d\ude86"}, "geometry": {"type": "Point", "coordinates": [2.194111796010436, 48.96851133173576]}}, {"type": "Feature", "properties": {"start": "Le Stade", "stop_name": "Gisors", "type": "Gare accessible", "transport": "transilien", "transport_legende": "\ud83d\udeb2 \u2764\ufe0f Transilien \ud83d\ude86"}, "geometry": {"type": "Point", "coordinates": [1.784761124033206, 49.28550462482687]}}, {"type": "Feature", "properties": {"start": "Le Stade", "stop_name": "Trie-Ch\u00e2teau", "type": "Gare accessible", "transport": "transilien", "transport_legende": "\ud83d\udeb2 \u2764\ufe0f Transilien \ud83d\ude86"}, "geometry": {"type": "Point", "coordinates": [1.818497020989674, 49.2824007109848]}}, {"type": "Feature", "properties": {"start": "Le Stade", "stop_name": "Chaumont-en-Vexin", "type": "Gare accessible", "transport": "transilien", "transport_legende": "\ud83d\udeb2 \u2764\ufe0f Transilien \ud83d\ude86"}, "geometry": {"type": "Point", "coordinates": [1.8732362595841847, 49.26118959499568]}}, {"type": "Feature", "properties": {"start": "Le Stade", "stop_name": "Liancourt-Saint-Pierre", "type": "Gare accessible", "transport": "transilien", "transport_legende": "\ud83d\udeb2 \u2764\ufe0f Transilien \ud83d\ude86"}, "geometry": {"type": "Point", "coordinates": [1.9054790812050528, 49.22054256178432]}}, {"type": "Feature", "properties": {"start": "Le Stade", "stop_name": "Lavilletertre", "type": "Gare accessible", "transport": "transilien", "transport_legende": "\ud83d\udeb2 \u2764\ufe0f Transilien \ud83d\ude86"}, "geometry": {"type": "Point", "coordinates": [1.9205792747729, 49.20238205277644]}}, {"type": "Feature", "properties": {"start": "Le Stade", "stop_name": "Chars", "type": "Gare accessible", "transport": "transilien", "transport_legende": "\ud83d\udeb2 \u2764\ufe0f Transilien \ud83d\ude86"}, "geometry": {"type": "Point", "coordinates": [1.936865953454158, 49.16300140123273]}}, {"type": "Feature", "properties": {"start": "Le Stade", "stop_name": "Santeuil - Le Perchay", "type": "Gare accessible", "transport": "transilien", "transport_legende": "\ud83d\udeb2 \u2764\ufe0f Transilien \ud83d\ude86"}, "geometry": {"type": "Point", "coordinates": [1.949406923865895, 49.12334471123142]}}, {"type": "Feature", "properties": {"start": "Le Stade", "stop_name": "Us", "type": "Gare accessible", "transport": "transilien", "transport_legende": "\ud83d\udeb2 \u2764\ufe0f Transilien \ud83d\ude86"}, "geometry": {"type": "Point", "coordinates": [1.9705444983242864, 49.09955483034093]}}, {"type": "Feature", "properties": {"start": "Le Stade", "stop_name": "Montgeroult - Courcelles", "type": "Gare accessible", "transport": "transilien", "transport_legende": "\ud83d\udeb2 \u2764\ufe0f Transilien \ud83d\ude86"}, "geometry": {"type": "Point", "coordinates": [2.0029460458068105, 49.080811910011626]}}, {"type": "Feature", "properties": {"start": "Le Stade", "stop_name": "Boissy-l'Aillerie", "type": "Gare accessible", "transport": "transilien", "transport_legende": "\ud83d\udeb2 \u2764\ufe0f Transilien \ud83d\ude86"}, "geometry": {"type": "Point", "coordinates": [2.025386064104548, 49.07572135804642]}}, {"type": "Feature", "properties": {"start": "Le Stade", "stop_name": "Osny", "type": "Gare accessible", "transport": "transilien", "transport_legende": "\ud83d\udeb2 \u2764\ufe0f Transilien \ud83d\ude86"}, "geometry": {"type": "Point", "coordinates": [2.058155650874632, 49.06281914403825]}}]}