{"type": "FeatureCollection", "features": [{"type": "Feature", "properties": {"start": "Marly-le-Roi", "stop_name": "Marly-le-Roi", "type": "Gare s\u00e9lectionn\u00e9e", "transport": "transilien", "transport_legende": "\ud83d\udeb2 \u2764\ufe0f Transilien \ud83d\ude86"}, "geometry": {"type": "Point", "coordinates": [2.0965372930677657, 48.87152941199376]}}, {"type": "Feature", "properties": {"start": "Marly-le-Roi", "stop_name": "Gare Saint-Lazare", "type": "Gare accessible", "transport": "transilien", "transport_legende": "\ud83d\udeb2 \u2764\ufe0f Transilien \ud83d\ude86"}, "geometry": {"type": "Point", "coordinates": [2.3244386552397684, 48.87747568635212]}}, {"type": "Feature", "properties": {"start": "Marly-le-Roi", "stop_name": "La D\u00e9fense", "type": "Gare accessible", "transport": "transilien", "transport_legende": "\ud83d\udeb2 \u2764\ufe0f Transilien \ud83d\ude86"}, "geometry": {"type": "Point", "coordinates": [2.238418596250407, 48.892229801568206]}}, {"type": "Feature", "properties": {"start": "Marly-le-Roi", "stop_name": "Saint-Cloud", "type": "Gare accessible", "transport": "transilien", "transport_legende": "\ud83d\udeb2 \u2764\ufe0f Transilien \ud83d\ude86"}, "geometry": {"type": "Point", "coordinates": [2.2176312182469986, 48.846058536430505]}}, {"type": "Feature", "properties": {"start": "Marly-le-Roi", "stop_name": "Garches - Marnes-la-Coquette", "type": "Gare accessible", "transport": "transilien", "transport_legende": "\ud83d\udeb2 \u2764\ufe0f Transilien \ud83d\ude86"}, "geometry": {"type": "Point", "coordinates": [2.187092668770097, 48.83825444088794]}}, {"type": "Feature", "properties": {"start": "Marly-le-Roi", "stop_name": "Vaucresson", "type": "Gare accessible", "transport": "transilien", "transport_legende": "\ud83d\udeb2 \u2764\ufe0f Transilien \ud83d\ude86"}, "geometry": {"type": "Point", "coordinates": [2.152674671677768, 48.83668449024941]}}, {"type": "Feature", "properties": {"start": "Marly-le-Roi", "stop_name": "La Celle-Saint-Cloud", "type": "Gare accessible", "transport": "transilien", "transport_legende": "\ud83d\udeb2 \u2764\ufe0f Transilien \ud83d\ude86"}, "geometry": {"type": "Point", "coordinates": [2.138236726142033, 48.84262523059504]}}, {"type": "Feature", "properties": {"start": "Marly-le-Roi", "stop_name": "Bougival", "type": "Gare accessible", "transport": "transilien", "transport_legende": "\ud83d\udeb2 \u2764\ufe0f Transilien \ud83d\ude86"}, "geometry": {"type": "Point", "coordinates": [2.132028029856739, 48.85379323051655]}}, {"type": "Feature", "properties": {"start": "Marly-le-Roi", "stop_name": "Louveciennes", "type": "Gare accessible", "transport": "transilien", "transport_legende": "\ud83d\udeb2 \u2764\ufe0f Transilien \ud83d\ude86"}, "geometry": {"type": "Point", "coordinates": [2.122777734478968, 48.8612602848357]}}, {"type": "Feature", "properties": {"start": "Marly-le-Roi", "stop_name": "L'\u00c9tang-la-Ville", "type": "Gare accessible", "transport": "transilien", "transport_legende": "\ud83d\udeb2 \u2764\ufe0f Transilien \ud83d\ude86"}, "geometry": {"type": "Point", "coordinates": [2.076893601882248, 48.86818814962987]}}, {"type": "Feature", "properties": {"start": "Marly-le-Roi", "stop_name": "Saint-Nom-la-Bret\u00e8che For\u00eat de Marly", "type": "Gare accessible", "transport": "transilien", "transport_legende": "\ud83d\udeb2 \u2764\ufe0f Transilien \ud83d\ude86"}, "geometry": {"type": "Point", "coordinates": [2.051129288722222, 48.86709246036558]}}, {"type": "Feature", "properties": {"start": "Marly-le-Roi", "stop_name": "Pont Cardinet", "type": "Gare accessible", "transport": "transilien", "transport_legende": "\ud83d\udeb2 \u2764\ufe0f Transilien \ud83d\ude86"}, "geometry": {"type": "Point", "coordinates": [2.312950431098551, 48.88839532721545]}}, {"type": "Feature", "properties": {"start": "Marly-le-Roi", "stop_name": "Clichy - Levallois", "type": "Gare accessible", "transport": "transilien", "transport_legende": "\ud83d\udeb2 \u2764\ufe0f Transilien \ud83d\ude86"}, "geometry": {"type": "Point", "coordinates": [2.2974715210323566, 48.89750112711205]}}, {"type": "Feature", "properties": {"start": "Marly-le-Roi", "stop_name": "Asni\u00e8res-sur-Seine", "type": "Gare accessible", "transport": "transilien", "transport_legende": "\ud83d\udeb2 \u2764\ufe0f Transilien \ud83d\ude86"}, "geometry": {"type": "Point", "coordinates": [2.2832114335873186, 48.90587474197106]}}, {"type": "Feature", "properties": {"start": "Marly-le-Roi", "stop_name": "B\u00e9con les Bruy\u00e8res", "type": "Gare accessible", "transport": "transilien", "transport_legende": "\ud83d\udeb2 \u2764\ufe0f Transilien \ud83d\ude86"}, "geometry": {"type": "Point", "coordinates": [2.268790065027107, 48.90549079769296]}}, {"type": "Feature", "properties": {"start": "Marly-le-Roi", "stop_name": "Courbevoie", "type": "Gare accessible", "transport": "transilien", "transport_legende": "\ud83d\udeb2 \u2764\ufe0f Transilien \ud83d\ude86"}, "geometry": {"type": "Point", "coordinates": [2.249189818087758, 48.89861561377405]}}, {"type": "Feature", "properties": {"start": "Marly-le-Roi", "stop_name": "Puteaux", "type": "Gare accessible", "transport": "transilien", "transport_legende": "\ud83d\udeb2 \u2764\ufe0f Transilien \ud83d\ude86"}, "geometry": {"type": "Point", "coordinates": [2.2336164976472146, 48.8833721630466]}}, {"type": "Feature", "properties": {"start": "Marly-le-Roi", "stop_name": "Suresnes Mont Val\u00e9rien", "type": "Gare accessible", "transport": "transilien", "transport_legende": "\ud83d\udeb2 \u2764\ufe0f Transilien \ud83d\ude86"}, "geometry": {"type": "Point", "coordinates": [2.2210567895582143, 48.87168952202666]}}, {"type": "Feature", "properties": {"start": "Marly-le-Roi", "stop_name": "Le Val d'Or", "type": "Gare accessible", "transport": "transilien", "transport_legende": "\ud83d\udeb2 \u2764\ufe0f Transilien \ud83d\ude86"}, "geometry": {"type": "Point", "coordinates": [2.2165513289937904, 48.85625374079433]}}]}