{"type": "FeatureCollection", "features": [{"type": "Feature", "properties": {"start": "Marles-en-Brie", "stop_name": "Marles-en-Brie", "type": "Gare s\u00e9lectionn\u00e9e", "transport": "transilien", "nombre_trajet_moyen": 4.03, "transport_legende": "\ud83d\udeb2 \u2764\ufe0f Transilien \ud83d\ude86"}, "geometry": {"type": "Point", "coordinates": [2.868811725090548, 48.73481854687385]}}, {"type": "Feature", "properties": {"start": "Marles-en-Brie", "stop_name": "Gare de l'Est", "type": "Gare accessible", "transport": "transilien", "nombre_trajet_moyen": 3.2, "transport_legende": "\ud83d\udeb2 \u2764\ufe0f Transilien \ud83d\ude86"}, "geometry": {"type": "Point", "coordinates": [2.360305141171757, 48.87857171221123]}}, {"type": "Feature", "properties": {"start": "Marles-en-Brie", "stop_name": "Tournan", "type": "Gare accessible", "transport": "transilien", "nombre_trajet_moyen": 4.03, "transport_legende": "\ud83d\udeb2 \u2764\ufe0f Transilien \ud83d\ude86"}, "geometry": {"type": "Point", "coordinates": [2.758901334165272, 48.739445157221006]}}, {"type": "Feature", "properties": {"start": "Marles-en-Brie", "stop_name": "Mortcerf", "type": "Gare accessible", "transport": "transilien", "nombre_trajet_moyen": 4.03, "transport_legende": "\ud83d\udeb2 \u2764\ufe0f Transilien \ud83d\ude86"}, "geometry": {"type": "Point", "coordinates": [2.9074760676708205, 48.789592035371314]}}, {"type": "Feature", "properties": {"start": "Marles-en-Brie", "stop_name": "Gu\u00e9rard - La Celle-sur-Morin", "type": "Gare accessible", "transport": "transilien", "nombre_trajet_moyen": 3.2, "transport_legende": "\ud83d\udeb2 \u2764\ufe0f Transilien \ud83d\ude86"}, "geometry": {"type": "Point", "coordinates": [2.9538116993768355, 48.81076877713248]}}, {"type": "Feature", "properties": {"start": "Marles-en-Brie", "stop_name": "Faremoutiers - Pommeuse", "type": "Gare accessible", "transport": "transilien", "nombre_trajet_moyen": 3.2, "transport_legende": "\ud83d\udeb2 \u2764\ufe0f Transilien \ud83d\ude86"}, "geometry": {"type": "Point", "coordinates": [2.9932738165708552, 48.80853544410162]}}, {"type": "Feature", "properties": {"start": "Marles-en-Brie", "stop_name": "Mouroux", "type": "Gare accessible", "transport": "transilien", "nombre_trajet_moyen": 4.03, "transport_legende": "\ud83d\udeb2 \u2764\ufe0f Transilien \ud83d\ude86"}, "geometry": {"type": "Point", "coordinates": [3.0430626039871616, 48.813701725231546]}}, {"type": "Feature", "properties": {"start": "Marles-en-Brie", "stop_name": "Coulommiers", "type": "Gare accessible", "transport": "transilien", "nombre_trajet_moyen": 3.2, "transport_legende": "\ud83d\udeb2 \u2764\ufe0f Transilien \ud83d\ude86"}, "geometry": {"type": "Point", "coordinates": [3.081261311573344, 48.80805936234078]}}, {"type": "Feature", "properties": {"start": "Marles-en-Brie", "stop_name": "Gretz-Armainvilliers", "type": "Gare accessible", "transport": "transilien", "nombre_trajet_moyen": 0.07, "transport_legende": "\ud83d\udeb2 \u2764\ufe0f Transilien \ud83d\ude86"}, "geometry": {"type": "Point", "coordinates": [2.727167738339898, 48.74645539980236]}}, {"type": "Feature", "properties": {"start": "Marles-en-Brie", "stop_name": "Gare de Coulommiers", "type": "Gare accessible", "transport": "transilien", "nombre_trajet_moyen": 0.83, "transport_legende": "\ud83d\udeb2 \u2764\ufe0f Transilien \ud83d\ude86"}, "geometry": {"type": "Point", "coordinates": [3.082363808793076, 48.80779779330968]}}, {"type": "Feature", "properties": {"start": "Marles-en-Brie", "stop_name": "Gare SNCF", "type": "Gare accessible", "transport": "transilien", "nombre_trajet_moyen": 0.83, "transport_legende": "\ud83d\udeb2 \u2764\ufe0f Transilien \ud83d\ude86"}, "geometry": {"type": "Point", "coordinates": [2.386519727869182, 48.37020275020897]}}, {"type": "Feature", "properties": {"start": "Marles-en-Brie", "stop_name": "Bellevue", "type": "Gare accessible", "transport": "transilien", "nombre_trajet_moyen": 0.83, "transport_legende": "\ud83d\udeb2 \u2764\ufe0f Transilien \ud83d\ude86"}, "geometry": {"type": "Point", "coordinates": [2.229956322216565, 48.81887298138509]}}, {"type": "Feature", "properties": {"start": "Marles-en-Brie", "stop_name": "Paris Est", "type": "Gare accessible", "transport": "transilien", "nombre_trajet_moyen": 0.73, "transport_legende": "\ud83d\udeb2 \u2764\ufe0f Transilien \ud83d\ude86"}, "geometry": {"type": "Point", "coordinates": [2.3581309888068707, 48.87630724403106]}}, {"type": "Feature", "properties": {"start": "Marles-en-Brie", "stop_name": "Nogent - Le Perreux", "type": "Gare accessible", "transport": "transilien", "nombre_trajet_moyen": 0.23, "transport_legende": "\ud83d\udeb2 \u2764\ufe0f Transilien \ud83d\ude86"}, "geometry": {"type": "Point", "coordinates": [2.4939549579206104, 48.839991175687295]}}]}