{"type": "FeatureCollection", "features": [{"type": "Feature", "properties": {"start": "Notre-Dame des Anges", "stop_name": "Notre-Dame des Anges", "type": "Gare s\u00e9lectionn\u00e9e", "transport": "transilien", "nombre_trajet_moyen": 0.0, "transport_legende": "\ud83d\udeb2 \u2764\ufe0f Transilien \ud83d\ude86"}, "geometry": {"type": "Point", "coordinates": [2.5561908524011545, 48.90102804712112]}}, {"type": "Feature", "properties": {"start": "Notre-Dame des Anges", "stop_name": "Bondy", "type": "Gare accessible", "transport": "transilien", "nombre_trajet_moyen": 0.0, "transport_legende": "\ud83d\udeb2 \u2764\ufe0f Transilien \ud83d\ude86"}, "geometry": {"type": "Point", "coordinates": [2.4795800358385867, 48.893965864676495]}}, {"type": "Feature", "properties": {"start": "Notre-Dame des Anges", "stop_name": "Gargan", "type": "Gare accessible", "transport": "transilien", "nombre_trajet_moyen": 0.0, "transport_legende": "\ud83d\udeb2 \u2764\ufe0f Transilien \ud83d\ude86"}, "geometry": {"type": "Point", "coordinates": [2.5178518154138163, 48.90784940957124]}}, {"type": "Feature", "properties": {"start": "Notre-Dame des Anges", "stop_name": "R\u00e9publique - Marx Dormoy", "type": "Gare accessible", "transport": "transilien", "nombre_trajet_moyen": 0.0, "transport_legende": "\ud83d\udeb2 \u2764\ufe0f Transilien \ud83d\ude86"}, "geometry": {"type": "Point", "coordinates": [2.5236907023230946, 48.90637094486989]}}, {"type": "Feature", "properties": {"start": "Notre-Dame des Anges", "stop_name": "L\u00e9on Blum", "type": "Gare accessible", "transport": "transilien", "nombre_trajet_moyen": 0.0, "transport_legende": "\ud83d\udeb2 \u2764\ufe0f Transilien \ud83d\ude86"}, "geometry": {"type": "Point", "coordinates": [2.532333917960648, 48.90854532457516]}}, {"type": "Feature", "properties": {"start": "Notre-Dame des Anges", "stop_name": "Maurice Audin", "type": "Gare accessible", "transport": "transilien", "nombre_trajet_moyen": 0.0, "transport_legende": "\ud83d\udeb2 \u2764\ufe0f Transilien \ud83d\ude86"}, "geometry": {"type": "Point", "coordinates": [2.539196751979752, 48.90848199184545]}}, {"type": "Feature", "properties": {"start": "Notre-Dame des Anges", "stop_name": "Clichy-sous-Bois Mairie", "type": "Gare accessible", "transport": "transilien", "nombre_trajet_moyen": 0.0, "transport_legende": "\ud83d\udeb2 \u2764\ufe0f Transilien \ud83d\ude86"}, "geometry": {"type": "Point", "coordinates": [2.545729174144083, 48.908758744888566]}}, {"type": "Feature", "properties": {"start": "Notre-Dame des Anges", "stop_name": "Romain Rolland", "type": "Gare accessible", "transport": "transilien", "nombre_trajet_moyen": 0.0, "transport_legende": "\ud83d\udeb2 \u2764\ufe0f Transilien \ud83d\ude86"}, "geometry": {"type": "Point", "coordinates": [2.547960258514148, 48.90477431674464]}}, {"type": "Feature", "properties": {"start": "Notre-Dame des Anges", "stop_name": "Clichy - Montfermeil", "type": "Gare accessible", "transport": "transilien", "nombre_trajet_moyen": 0.0, "transport_legende": "\ud83d\udeb2 \u2764\ufe0f Transilien \ud83d\ude86"}, "geometry": {"type": "Point", "coordinates": [2.555041681454517, 48.904611980150186]}}, {"type": "Feature", "properties": {"start": "Notre-Dame des Anges", "stop_name": "Arboretum", "type": "Gare accessible", "transport": "transilien", "nombre_trajet_moyen": 0.0, "transport_legende": "\ud83d\udeb2 \u2764\ufe0f Transilien \ud83d\ude86"}, "geometry": {"type": "Point", "coordinates": [2.559575368161596, 48.89922395592471]}}, {"type": "Feature", "properties": {"start": "Notre-Dame des Anges", "stop_name": "H\u00f4pital de Montfermeil", "type": "Gare accessible", "transport": "transilien", "nombre_trajet_moyen": 0.0, "transport_legende": "\ud83d\udeb2 \u2764\ufe0f Transilien \ud83d\ude86"}, "geometry": {"type": "Point", "coordinates": [2.570785658937825, 48.901117210889886]}}]}