{"type": "FeatureCollection", "features": [{"type": "Feature", "properties": {"start": "Ozoir-la-Ferri\u00e8re", "stop_name": "Ozoir-la-Ferri\u00e8re", "type": "Gare s\u00e9lectionn\u00e9e", "transport": "transilien", "transport_legende": "\ud83d\udeb2 \u2764\ufe0f Transilien \ud83d\ude86"}, "geometry": {"type": "Point", "coordinates": [2.690116190500944, 48.77076716837013]}}, {"type": "Feature", "properties": {"start": "Ozoir-la-Ferri\u00e8re", "stop_name": "Tournan", "type": "Gare accessible", "transport": "transilien", "transport_legende": "\ud83d\udeb2 \u2764\ufe0f Transilien \ud83d\ude86"}, "geometry": {"type": "Point", "coordinates": [2.758901334165272, 48.739445157221006]}}, {"type": "Feature", "properties": {"start": "Ozoir-la-Ferri\u00e8re", "stop_name": "Gretz-Armainvilliers", "type": "Gare accessible", "transport": "transilien", "transport_legende": "\ud83d\udeb2 \u2764\ufe0f Transilien \ud83d\ude86"}, "geometry": {"type": "Point", "coordinates": [2.727167738339898, 48.74645539980236]}}, {"type": "Feature", "properties": {"start": "Ozoir-la-Ferri\u00e8re", "stop_name": "Roissy-en-Brie", "type": "Gare accessible", "transport": "transilien", "transport_legende": "\ud83d\udeb2 \u2764\ufe0f Transilien \ud83d\ude86"}, "geometry": {"type": "Point", "coordinates": [2.650530702348584, 48.79563367624288]}}, {"type": "Feature", "properties": {"start": "Ozoir-la-Ferri\u00e8re", "stop_name": "\u00c9merainville - Pontault-Combault", "type": "Gare accessible", "transport": "transilien", "transport_legende": "\ud83d\udeb2 \u2764\ufe0f Transilien \ud83d\ude86"}, "geometry": {"type": "Point", "coordinates": [2.618502939849115, 48.80587944608123]}}, {"type": "Feature", "properties": {"start": "Ozoir-la-Ferri\u00e8re", "stop_name": "Les Yvris Noisy-le-Grand", "type": "Gare accessible", "transport": "transilien", "transport_legende": "\ud83d\udeb2 \u2764\ufe0f Transilien \ud83d\ude86"}, "geometry": {"type": "Point", "coordinates": [2.579980456371948, 48.82311348135466]}}, {"type": "Feature", "properties": {"start": "Ozoir-la-Ferri\u00e8re", "stop_name": "Villiers-sur-Marne - Le Plessis-Tr\u00e9vise", "type": "Gare accessible", "transport": "transilien", "transport_legende": "\ud83d\udeb2 \u2764\ufe0f Transilien \ud83d\ude86"}, "geometry": {"type": "Point", "coordinates": [2.542644466674205, 48.82324786783017]}}, {"type": "Feature", "properties": {"start": "Ozoir-la-Ferri\u00e8re", "stop_name": "Val de Fontenay", "type": "Gare accessible", "transport": "transilien", "transport_legende": "\ud83d\udeb2 \u2764\ufe0f Transilien \ud83d\ude86"}, "geometry": {"type": "Point", "coordinates": [2.4890536307751616, 48.85424654032024]}}, {"type": "Feature", "properties": {"start": "Ozoir-la-Ferri\u00e8re", "stop_name": "Rosa Parks", "type": "Gare accessible", "transport": "transilien", "transport_legende": "\ud83d\udeb2 \u2764\ufe0f Transilien \ud83d\ude86"}, "geometry": {"type": "Point", "coordinates": [2.3737182728654678, 48.89645824176388]}}, {"type": "Feature", "properties": {"start": "Ozoir-la-Ferri\u00e8re", "stop_name": "Magenta", "type": "Gare accessible", "transport": "transilien", "transport_legende": "\ud83d\udeb2 \u2764\ufe0f Transilien \ud83d\ude86"}, "geometry": {"type": "Point", "coordinates": [2.358695908637114, 48.88081039411524]}}, {"type": "Feature", "properties": {"start": "Ozoir-la-Ferri\u00e8re", "stop_name": "Haussmann Saint-Lazare", "type": "Gare accessible", "transport": "transilien", "transport_legende": "\ud83d\udeb2 \u2764\ufe0f Transilien \ud83d\ude86"}, "geometry": {"type": "Point", "coordinates": [2.328646179742093, 48.87499886200119]}}, {"type": "Feature", "properties": {"start": "Ozoir-la-Ferri\u00e8re", "stop_name": "Noisy-le-Sec", "type": "Gare accessible", "transport": "transilien", "transport_legende": "\ud83d\udeb2 \u2764\ufe0f Transilien \ud83d\ude86"}, "geometry": {"type": "Point", "coordinates": [2.45919809568668, 48.8966634168645]}}, {"type": "Feature", "properties": {"start": "Ozoir-la-Ferri\u00e8re", "stop_name": "Pantin", "type": "Gare accessible", "transport": "transilien", "transport_legende": "\ud83d\udeb2 \u2764\ufe0f Transilien \ud83d\ude86"}, "geometry": {"type": "Point", "coordinates": [2.4010414542870944, 48.897987452300434]}}, {"type": "Feature", "properties": {"start": "Ozoir-la-Ferri\u00e8re", "stop_name": "Villiers-sur-Marne - Le Plessis-Tr\u00e9vise RER", "type": "Gare accessible", "transport": "transilien", "transport_legende": "\ud83d\udeb2 \u2764\ufe0f Transilien \ud83d\ude86"}, "geometry": {"type": "Point", "coordinates": [2.543336800614874, 48.82379013126307]}}, {"type": "Feature", "properties": {"start": "Ozoir-la-Ferri\u00e8re", "stop_name": "Gare de Pontault (Place Beilstein)", "type": "Gare accessible", "transport": "transilien", "transport_legende": "\ud83d\udeb2 \u2764\ufe0f Transilien \ud83d\ude86"}, "geometry": {"type": "Point", "coordinates": [2.621928854654649, 48.80473707130544]}}, {"type": "Feature", "properties": {"start": "Ozoir-la-Ferri\u00e8re", "stop_name": "Gare de Roissy-en-Brie", "type": "Gare accessible", "transport": "transilien", "transport_legende": "\ud83d\udeb2 \u2764\ufe0f Transilien \ud83d\ude86"}, "geometry": {"type": "Point", "coordinates": [2.6496740919081923, 48.795054387801486]}}, {"type": "Feature", "properties": {"start": "Ozoir-la-Ferri\u00e8re", "stop_name": "Gare de Tournan en Brie", "type": "Gare accessible", "transport": "transilien", "transport_legende": "\ud83d\udeb2 \u2764\ufe0f Transilien \ud83d\ude86"}, "geometry": {"type": "Point", "coordinates": [2.7594859723094656, 48.73963521425146]}}, {"type": "Feature", "properties": {"start": "Ozoir-la-Ferri\u00e8re", "stop_name": "Noisy-le-Grand - Mont d'Est RER", "type": "Gare accessible", "transport": "transilien", "transport_legende": "\ud83d\udeb2 \u2764\ufe0f Transilien \ud83d\ude86"}, "geometry": {"type": "Point", "coordinates": [2.5526435893886528, 48.84078714329361]}}, {"type": "Feature", "properties": {"start": "Ozoir-la-Ferri\u00e8re", "stop_name": "Rosny Bois Perrier", "type": "Gare accessible", "transport": "transilien", "transport_legende": "\ud83d\udeb2 \u2764\ufe0f Transilien \ud83d\ude86"}, "geometry": {"type": "Point", "coordinates": [2.481186396267677, 48.88258632328664]}}, {"type": "Feature", "properties": {"start": "Ozoir-la-Ferri\u00e8re", "stop_name": "Rosny-sous-Bois", "type": "Gare accessible", "transport": "transilien", "transport_legende": "\ud83d\udeb2 \u2764\ufe0f Transilien \ud83d\ude86"}, "geometry": {"type": "Point", "coordinates": [2.4857557993217947, 48.87007067367753]}}, {"type": "Feature", "properties": {"start": "Ozoir-la-Ferri\u00e8re", "stop_name": "Nogent - Le Perreux", "type": "Gare accessible", "transport": "transilien", "transport_legende": "\ud83d\udeb2 \u2764\ufe0f Transilien \ud83d\ude86"}, "geometry": {"type": "Point", "coordinates": [2.4939549579206104, 48.839991175687295]}}, {"type": "Feature", "properties": {"start": "Ozoir-la-Ferri\u00e8re", "stop_name": "Les Boullereaux Champigny", "type": "Gare accessible", "transport": "transilien", "transport_legende": "\ud83d\udeb2 \u2764\ufe0f Transilien \ud83d\ude86"}, "geometry": {"type": "Point", "coordinates": [2.511990843607618, 48.82486398816196]}}]}