{"type": "FeatureCollection", "features": [{"type": "Feature", "properties": {"start": "Place d'Italie - Mairie du 13e", "stop_name": "Place d'Italie - Mairie du 13e", "type": "Gare s\u00e9lectionn\u00e9e", "transport": "transilien", "transport_legende": "\ud83d\udeb2 \u2764\ufe0f Transilien \ud83d\ude86"}, "geometry": {"type": "Point", "coordinates": [2.356476214736473, 48.832571841350656]}}, {"type": "Feature", "properties": {"start": "Place d'Italie - Mairie du 13e", "stop_name": "Gare de Lyon - Diderot", "type": "Gare accessible", "transport": "transilien", "transport_legende": "\ud83d\udeb2 \u2764\ufe0f Transilien \ud83d\ude86"}, "geometry": {"type": "Point", "coordinates": [2.37258891322064, 48.84586459936938]}}, {"type": "Feature", "properties": {"start": "Place d'Italie - Mairie du 13e", "stop_name": "Porte d'Italie", "type": "Gare accessible", "transport": "transilien", "transport_legende": "\ud83d\udeb2 \u2764\ufe0f Transilien \ud83d\ude86"}, "geometry": {"type": "Point", "coordinates": [2.35922526106539, 48.81950069273876]}}, {"type": "Feature", "properties": {"start": "Place d'Italie - Mairie du 13e", "stop_name": "A\u00e9roport Orly 4", "type": "Gare accessible", "transport": "transilien", "transport_legende": "\ud83d\udeb2 \u2764\ufe0f Transilien \ud83d\ude86"}, "geometry": {"type": "Point", "coordinates": [2.3693661084044275, 48.72875863232642]}}, {"type": "Feature", "properties": {"start": "Place d'Italie - Mairie du 13e", "stop_name": "Pyramide de Juvisy", "type": "Gare accessible", "transport": "transilien", "transport_legende": "\ud83d\udeb2 \u2764\ufe0f Transilien \ud83d\ude86"}, "geometry": {"type": "Point", "coordinates": [2.3716185178567653, 48.69748720133352]}}, {"type": "Feature", "properties": {"start": "Place d'Italie - Mairie du 13e", "stop_name": "Mairie", "type": "Gare accessible", "transport": "transilien", "transport_legende": "\ud83d\udeb2 \u2764\ufe0f Transilien \ud83d\ude86"}, "geometry": {"type": "Point", "coordinates": [1.9751843367210649, 48.978863999006606]}}, {"type": "Feature", "properties": {"start": "Place d'Italie - Mairie du 13e", "stop_name": "Juvisy RER", "type": "Gare accessible", "transport": "transilien", "transport_legende": "\ud83d\udeb2 \u2764\ufe0f Transilien \ud83d\ude86"}, "geometry": {"type": "Point", "coordinates": [2.382055029825166, 48.6904988251228]}}, {"type": "Feature", "properties": {"start": "Place d'Italie - Mairie du 13e", "stop_name": "Blazy", "type": "Gare accessible", "transport": "transilien", "transport_legende": "\ud83d\udeb2 \u2764\ufe0f Transilien \ud83d\ude86"}, "geometry": {"type": "Point", "coordinates": [2.3746085223793005, 48.68493719149944]}}, {"type": "Feature", "properties": {"start": "Place d'Italie - Mairie du 13e", "stop_name": "Viry-Ch\u00e2tillon", "type": "Gare accessible", "transport": "transilien", "transport_legende": "\ud83d\udeb2 \u2764\ufe0f Transilien \ud83d\ude86"}, "geometry": {"type": "Point", "coordinates": [2.387021960013403, 48.67590783936994]}}, {"type": "Feature", "properties": {"start": "Place d'Italie - Mairie du 13e", "stop_name": "Gare de Grigny Centre", "type": "Gare accessible", "transport": "transilien", "transport_legende": "\ud83d\udeb2 \u2764\ufe0f Transilien \ud83d\ude86"}, "geometry": {"type": "Point", "coordinates": [2.395111377075866, 48.652904023279966]}}, {"type": "Feature", "properties": {"start": "Place d'Italie - Mairie du 13e", "stop_name": "Jean Jaur\u00e8s", "type": "Gare accessible", "transport": "transilien", "transport_legende": "\ud83d\udeb2 \u2764\ufe0f Transilien \ud83d\ude86"}, "geometry": {"type": "Point", "coordinates": [2.406639836988374, 48.65030843612308]}}, {"type": "Feature", "properties": {"start": "Place d'Italie - Mairie du 13e", "stop_name": "Daumesnil", "type": "Gare accessible", "transport": "transilien", "transport_legende": "\ud83d\udeb2 \u2764\ufe0f Transilien \ud83d\ude86"}, "geometry": {"type": "Point", "coordinates": [2.41520097372294, 48.65075553361204]}}, {"type": "Feature", "properties": {"start": "Place d'Italie - Mairie du 13e", "stop_name": "Pyramides - Lyc\u00e9e des Loges", "type": "Gare accessible", "transport": "transilien", "transport_legende": "\ud83d\udeb2 \u2764\ufe0f Transilien \ud83d\ude86"}, "geometry": {"type": "Point", "coordinates": [2.42523389515096, 48.63464012472095]}}, {"type": "Feature", "properties": {"start": "Place d'Italie - Mairie du 13e", "stop_name": "Gare Routi\u00e8re", "type": "Gare accessible", "transport": "transilien", "transport_legende": "\ud83d\udeb2 \u2764\ufe0f Transilien \ud83d\ude86"}, "geometry": {"type": "Point", "coordinates": [2.4283773758459466, 48.62516530530012]}}, {"type": "Feature", "properties": {"start": "Place d'Italie - Mairie du 13e", "stop_name": "Gare du Bras de Fer Evry G\u00e9nopole", "type": "Gare accessible", "transport": "transilien", "transport_legende": "\ud83d\udeb2 \u2764\ufe0f Transilien \ud83d\ude86"}, "geometry": {"type": "Point", "coordinates": [2.450716235430025, 48.62345338088501]}}, {"type": "Feature", "properties": {"start": "Place d'Italie - Mairie du 13e", "stop_name": "Tarter\u00eats", "type": "Gare accessible", "transport": "transilien", "transport_legende": "\ud83d\udeb2 \u2764\ufe0f Transilien \ud83d\ude86"}, "geometry": {"type": "Point", "coordinates": [2.45872737775555, 48.61371220109407]}}, {"type": "Feature", "properties": {"start": "Place d'Italie - Mairie du 13e", "stop_name": "Ambroise Croizat", "type": "Gare accessible", "transport": "transilien", "transport_legende": "\ud83d\udeb2 \u2764\ufe0f Transilien \ud83d\ude86"}, "geometry": {"type": "Point", "coordinates": [2.4661827511044736, 48.60630672113543]}}, {"type": "Feature", "properties": {"start": "Place d'Italie - Mairie du 13e", "stop_name": "Gare de Corbeil-Essonnes", "type": "Gare accessible", "transport": "transilien", "transport_legende": "\ud83d\udeb2 \u2764\ufe0f Transilien \ud83d\ude86"}, "geometry": {"type": "Point", "coordinates": [2.4742716122476227, 48.61394375582231]}}, {"type": "Feature", "properties": {"start": "Place d'Italie - Mairie du 13e", "stop_name": "Grigny Centre", "type": "Gare accessible", "transport": "transilien", "transport_legende": "\ud83d\udeb2 \u2764\ufe0f Transilien \ud83d\ude86"}, "geometry": {"type": "Point", "coordinates": [2.39678605544789, 48.65484195083382]}}, {"type": "Feature", "properties": {"start": "Place d'Italie - Mairie du 13e", "stop_name": "Gare de Viry-Ch\u00e2tillon", "type": "Gare accessible", "transport": "transilien", "transport_legende": "\ud83d\udeb2 \u2764\ufe0f Transilien \ud83d\ude86"}, "geometry": {"type": "Point", "coordinates": [2.3851846713596, 48.67622219575132]}}, {"type": "Feature", "properties": {"start": "Place d'Italie - Mairie du 13e", "stop_name": "Juvisy Pyramide", "type": "Gare accessible", "transport": "transilien", "transport_legende": "\ud83d\udeb2 \u2764\ufe0f Transilien \ud83d\ude86"}, "geometry": {"type": "Point", "coordinates": [2.372106324538173, 48.69873104443431]}}]}