{"type": "FeatureCollection", "features": [{"type": "Feature", "properties": {"start": "Ponthierry - Pringy", "stop_name": "Ponthierry - Pringy", "type": "Gare s\u00e9lectionn\u00e9e", "transport": "transilien", "nombre_trajet_moyen": 0.47, "transport_legende": "\ud83d\udeb2 \u2764\ufe0f Transilien \ud83d\ude86"}, "geometry": {"type": "Point", "coordinates": [2.5445365646399507, 48.535084951085466]}}, {"type": "Feature", "properties": {"start": "Ponthierry - Pringy", "stop_name": "Corbeil-Essonnes", "type": "Gare accessible", "transport": "transilien", "nombre_trajet_moyen": 0.47, "transport_legende": "\ud83d\udeb2 \u2764\ufe0f Transilien \ud83d\ude86"}, "geometry": {"type": "Point", "coordinates": [2.472467657639279, 48.61323864277619]}}, {"type": "Feature", "properties": {"start": "Ponthierry - Pringy", "stop_name": "Essonnes Robinson", "type": "Gare accessible", "transport": "transilien", "nombre_trajet_moyen": 0.47, "transport_legende": "\ud83d\udeb2 \u2764\ufe0f Transilien \ud83d\ude86"}, "geometry": {"type": "Point", "coordinates": [2.463295818844443, 48.60581740091332]}}, {"type": "Feature", "properties": {"start": "Ponthierry - Pringy", "stop_name": "Villab\u00e9", "type": "Gare accessible", "transport": "transilien", "nombre_trajet_moyen": 0.47, "transport_legende": "\ud83d\udeb2 \u2764\ufe0f Transilien \ud83d\ude86"}, "geometry": {"type": "Point", "coordinates": [2.461533386360794, 48.592814943454]}}, {"type": "Feature", "properties": {"start": "Ponthierry - Pringy", "stop_name": "Le Plessis Chenet", "type": "Gare accessible", "transport": "transilien", "nombre_trajet_moyen": 0.47, "transport_legende": "\ud83d\udeb2 \u2764\ufe0f Transilien \ud83d\ude86"}, "geometry": {"type": "Point", "coordinates": [2.479522291008497, 48.57358727886637]}}, {"type": "Feature", "properties": {"start": "Ponthierry - Pringy", "stop_name": "Le Coudray-Montceaux", "type": "Gare accessible", "transport": "transilien", "nombre_trajet_moyen": 0.47, "transport_legende": "\ud83d\udeb2 \u2764\ufe0f Transilien \ud83d\ude86"}, "geometry": {"type": "Point", "coordinates": [2.492424499497774, 48.56619819315809]}}, {"type": "Feature", "properties": {"start": "Ponthierry - Pringy", "stop_name": "Saint-Fargeau", "type": "Gare accessible", "transport": "transilien", "nombre_trajet_moyen": 0.47, "transport_legende": "\ud83d\udeb2 \u2764\ufe0f Transilien \ud83d\ude86"}, "geometry": {"type": "Point", "coordinates": [2.5426100742385285, 48.56502608446919]}}, {"type": "Feature", "properties": {"start": "Ponthierry - Pringy", "stop_name": "Boissise-le-Roi", "type": "Gare accessible", "transport": "transilien", "nombre_trajet_moyen": 0.47, "transport_legende": "\ud83d\udeb2 \u2764\ufe0f Transilien \ud83d\ude86"}, "geometry": {"type": "Point", "coordinates": [2.57179291425262, 48.52985734002498]}}, {"type": "Feature", "properties": {"start": "Ponthierry - Pringy", "stop_name": "Vosves", "type": "Gare accessible", "transport": "transilien", "nombre_trajet_moyen": 0.47, "transport_legende": "\ud83d\udeb2 \u2764\ufe0f Transilien \ud83d\ude86"}, "geometry": {"type": "Point", "coordinates": [2.5994097381795305, 48.51507609100275]}}, {"type": "Feature", "properties": {"start": "Ponthierry - Pringy", "stop_name": "Melun", "type": "Gare accessible", "transport": "transilien", "nombre_trajet_moyen": 0.47, "transport_legende": "\ud83d\udeb2 \u2764\ufe0f Transilien \ud83d\ude86"}, "geometry": {"type": "Point", "coordinates": [2.65469836071817, 48.527491277248295]}}, {"type": "Feature", "properties": {"start": "Ponthierry - Pringy", "stop_name": "Juvisy", "type": "Gare accessible", "transport": "transilien", "nombre_trajet_moyen": 0.47, "transport_legende": "\ud83d\udeb2 \u2764\ufe0f Transilien \ud83d\ude86"}, "geometry": {"type": "Point", "coordinates": [2.383334629403869, 48.68970940912314]}}, {"type": "Feature", "properties": {"start": "Ponthierry - Pringy", "stop_name": "Viry-Ch\u00e2tillon", "type": "Gare accessible", "transport": "transilien", "nombre_trajet_moyen": 0.47, "transport_legende": "\ud83d\udeb2 \u2764\ufe0f Transilien \ud83d\ude86"}, "geometry": {"type": "Point", "coordinates": [2.387021960013403, 48.67590783936994]}}, {"type": "Feature", "properties": {"start": "Ponthierry - Pringy", "stop_name": "Ris-Orangis", "type": "Gare accessible", "transport": "transilien", "nombre_trajet_moyen": 0.47, "transport_legende": "\ud83d\udeb2 \u2764\ufe0f Transilien \ud83d\ude86"}, "geometry": {"type": "Point", "coordinates": [2.414997460834355, 48.659057463386254]}}, {"type": "Feature", "properties": {"start": "Ponthierry - Pringy", "stop_name": "Grand Bourg", "type": "Gare accessible", "transport": "transilien", "nombre_trajet_moyen": 0.47, "transport_legende": "\ud83d\udeb2 \u2764\ufe0f Transilien \ud83d\ude86"}, "geometry": {"type": "Point", "coordinates": [2.4348387319350167, 48.64880840591746]}}, {"type": "Feature", "properties": {"start": "Ponthierry - Pringy", "stop_name": "\u00c9vry - Val de Seine", "type": "Gare accessible", "transport": "transilien", "nombre_trajet_moyen": 0.47, "transport_legende": "\ud83d\udeb2 \u2764\ufe0f Transilien \ud83d\ude86"}, "geometry": {"type": "Point", "coordinates": [2.4523091616356028, 48.63439299320402]}}]}