{"type": "FeatureCollection", "features": [{"type": "Feature", "properties": {"start": "Porte d'Asni\u00e8res - Marguerite Long", "stop_name": "Porte d'Asni\u00e8res - Marguerite Long", "type": "Gare s\u00e9lectionn\u00e9e", "transport": "transilien", "transport_legende": "\ud83d\udeb2 \u2764\ufe0f Transilien \ud83d\ude86"}, "geometry": {"type": "Point", "coordinates": [2.303263920131468, 48.890713583525766]}}, {"type": "Feature", "properties": {"start": "Porte d'Asni\u00e8res - Marguerite Long", "stop_name": "Gare de Montigny - Beauchamp", "type": "Gare accessible", "transport": "transilien", "transport_legende": "\ud83d\udeb2 \u2764\ufe0f Transilien \ud83d\ude86"}, "geometry": {"type": "Point", "coordinates": [2.197754685736834, 49.00771643969731]}}, {"type": "Feature", "properties": {"start": "Porte d'Asni\u00e8res - Marguerite Long", "stop_name": "Gare de Franconville", "type": "Gare accessible", "transport": "transilien", "transport_legende": "\ud83d\udeb2 \u2764\ufe0f Transilien \ud83d\ude86"}, "geometry": {"type": "Point", "coordinates": [2.23382802021407, 48.99378904721819]}}, {"type": "Feature", "properties": {"start": "Porte d'Asni\u00e8res - Marguerite Long", "stop_name": "Maison Bleue", "type": "Gare accessible", "transport": "transilien", "transport_legende": "\ud83d\udeb2 \u2764\ufe0f Transilien \ud83d\ude86"}, "geometry": {"type": "Point", "coordinates": [2.23576902447444, 48.9798180077458]}}, {"type": "Feature", "properties": {"start": "Porte d'Asni\u00e8res - Marguerite Long", "stop_name": "Gare de Sannois", "type": "Gare accessible", "transport": "transilien", "transport_legende": "\ud83d\udeb2 \u2764\ufe0f Transilien \ud83d\ude86"}, "geometry": {"type": "Point", "coordinates": [2.2625890821651358, 48.97004902742445]}}, {"type": "Feature", "properties": {"start": "Porte d'Asni\u00e8res - Marguerite Long", "stop_name": "Gare d'Ermont-Eaubonne", "type": "Gare accessible", "transport": "transilien", "transport_legende": "\ud83d\udeb2 \u2764\ufe0f Transilien \ud83d\ude86"}, "geometry": {"type": "Point", "coordinates": [2.271203813127117, 48.98009247741121]}}, {"type": "Feature", "properties": {"start": "Porte d'Asni\u00e8res - Marguerite Long", "stop_name": "Saint-Gratien", "type": "Gare accessible", "transport": "transilien", "transport_legende": "\ud83d\udeb2 \u2764\ufe0f Transilien \ud83d\ude86"}, "geometry": {"type": "Point", "coordinates": [2.285777828585351, 48.96365827352943]}}, {"type": "Feature", "properties": {"start": "Porte d'Asni\u00e8res - Marguerite Long", "stop_name": "Cygne d'Enghien - Joffre", "type": "Gare accessible", "transport": "transilien", "transport_legende": "\ud83d\udeb2 \u2764\ufe0f Transilien \ud83d\ude86"}, "geometry": {"type": "Point", "coordinates": [2.2959826039027877, 48.96120307427018]}}, {"type": "Feature", "properties": {"start": "Porte d'Asni\u00e8res - Marguerite Long", "stop_name": "Gilbert Bonnemaison", "type": "Gare accessible", "transport": "transilien", "transport_legende": "\ud83d\udeb2 \u2764\ufe0f Transilien \ud83d\ude86"}, "geometry": {"type": "Point", "coordinates": [2.307206806388215, 48.955180376991066]}}, {"type": "Feature", "properties": {"start": "Porte d'Asni\u00e8res - Marguerite Long", "stop_name": "Les Gr\u00e9sillons", "type": "Gare accessible", "transport": "transilien", "transport_legende": "\ud83d\udeb2 \u2764\ufe0f Transilien \ud83d\ude86"}, "geometry": {"type": "Point", "coordinates": [2.313901968217972, 48.9206901983449]}}, {"type": "Feature", "properties": {"start": "Porte d'Asni\u00e8res - Marguerite Long", "stop_name": "Gr\u00e9sillons - F\u00e9lix Ebou\u00e9", "type": "Gare accessible", "transport": "transilien", "transport_legende": "\ud83d\udeb2 \u2764\ufe0f Transilien \ud83d\ude86"}, "geometry": {"type": "Point", "coordinates": [2.307016501142392, 48.91720225406301]}}, {"type": "Feature", "properties": {"start": "Porte d'Asni\u00e8res - Marguerite Long", "stop_name": "Rue de la Station", "type": "Gare accessible", "transport": "transilien", "transport_legende": "\ud83d\udeb2 \u2764\ufe0f Transilien \ud83d\ude86"}, "geometry": {"type": "Point", "coordinates": [2.2862735514302344, 48.90641463115114]}}, {"type": "Feature", "properties": {"start": "Porte d'Asni\u00e8res - Marguerite Long", "stop_name": "Victor Hugo - Jean Jaur\u00e8s", "type": "Gare accessible", "transport": "transilien", "transport_legende": "\ud83d\udeb2 \u2764\ufe0f Transilien \ud83d\ude86"}, "geometry": {"type": "Point", "coordinates": [2.297257731876093, 48.89508968409643]}}, {"type": "Feature", "properties": {"start": "Porte d'Asni\u00e8res - Marguerite Long", "stop_name": "Pont Cardinet", "type": "Gare accessible", "transport": "transilien", "transport_legende": "\ud83d\udeb2 \u2764\ufe0f Transilien \ud83d\ude86"}, "geometry": {"type": "Point", "coordinates": [2.312950431098551, 48.88839532721545]}}, {"type": "Feature", "properties": {"start": "Porte d'Asni\u00e8res - Marguerite Long", "stop_name": "Gare Saint-Lazare", "type": "Gare accessible", "transport": "transilien", "transport_legende": "\ud83d\udeb2 \u2764\ufe0f Transilien \ud83d\ude86"}, "geometry": {"type": "Point", "coordinates": [2.3244386552397684, 48.87747568635212]}}, {"type": "Feature", "properties": {"start": "Porte d'Asni\u00e8res - Marguerite Long", "stop_name": "Paris Saint-Lazare", "type": "Gare accessible", "transport": "transilien", "transport_legende": "\ud83d\udeb2 \u2764\ufe0f Transilien \ud83d\ude86"}, "geometry": {"type": "Point", "coordinates": [2.324777828487545, 48.87550321748135]}}, {"type": "Feature", "properties": {"start": "Porte d'Asni\u00e8res - Marguerite Long", "stop_name": "Saint Gratien", "type": "Gare accessible", "transport": "transilien", "transport_legende": "\ud83d\udeb2 \u2764\ufe0f Transilien \ud83d\ude86"}, "geometry": {"type": "Point", "coordinates": [2.2826339408834064, 48.96559333216548]}}]}