{"type": "FeatureCollection", "features": [{"type": "Feature", "properties": {"start": "Porte de Vitry", "stop_name": "Porte de Vitry", "type": "Gare s\u00e9lectionn\u00e9e", "transport": "transilien", "transport_legende": "\ud83d\udeb2 \u2764\ufe0f Transilien \ud83d\ude86"}, "geometry": {"type": "Point", "coordinates": [2.3772875900959383, 48.82383218744681]}}, {"type": "Feature", "properties": {"start": "Porte de Vitry", "stop_name": "Juvisy RER", "type": "Gare accessible", "transport": "transilien", "transport_legende": "\ud83d\udeb2 \u2764\ufe0f Transilien \ud83d\ude86"}, "geometry": {"type": "Point", "coordinates": [2.382055029825166, 48.6904988251228]}}, {"type": "Feature", "properties": {"start": "Porte de Vitry", "stop_name": "Athis-Mons RER", "type": "Gare accessible", "transport": "transilien", "transport_legende": "\ud83d\udeb2 \u2764\ufe0f Transilien \ud83d\ude86"}, "geometry": {"type": "Point", "coordinates": [2.4026412215474013, 48.71278460911634]}}, {"type": "Feature", "properties": {"start": "Porte de Vitry", "stop_name": "Ablon", "type": "Gare accessible", "transport": "transilien", "transport_legende": "\ud83d\udeb2 \u2764\ufe0f Transilien \ud83d\ude86"}, "geometry": {"type": "Point", "coordinates": [2.4198671478914595, 48.72578126379895]}}, {"type": "Feature", "properties": {"start": "Porte de Vitry", "stop_name": "Gare de Villeneuve-le-Roi", "type": "Gare accessible", "transport": "transilien", "transport_legende": "\ud83d\udeb2 \u2764\ufe0f Transilien \ud83d\ude86"}, "geometry": {"type": "Point", "coordinates": [2.423505885411325, 48.73976274768902]}}, {"type": "Feature", "properties": {"start": "Porte de Vitry", "stop_name": "Paul Painlev\u00e9 - Place Gounot", "type": "Gare accessible", "transport": "transilien", "transport_legende": "\ud83d\udeb2 \u2764\ufe0f Transilien \ud83d\ude86"}, "geometry": {"type": "Point", "coordinates": [2.411857019198422, 48.73688168667152]}}, {"type": "Feature", "properties": {"start": "Porte de Vitry", "stop_name": "Gare d'Orly-Ville", "type": "Gare accessible", "transport": "transilien", "transport_legende": "\ud83d\udeb2 \u2764\ufe0f Transilien \ud83d\ude86"}, "geometry": {"type": "Point", "coordinates": [2.402443990866147, 48.74191677305021]}}, {"type": "Feature", "properties": {"start": "Porte de Vitry", "stop_name": "Gaston Viens", "type": "Gare accessible", "transport": "transilien", "transport_legende": "\ud83d\udeb2 \u2764\ufe0f Transilien \ud83d\ude86"}, "geometry": {"type": "Point", "coordinates": [2.4067375731500897, 48.7446454890726]}}, {"type": "Feature", "properties": {"start": "Porte de Vitry", "stop_name": "Les Tilleuls", "type": "Gare accessible", "transport": "transilien", "transport_legende": "\ud83d\udeb2 \u2764\ufe0f Transilien \ud83d\ude86"}, "geometry": {"type": "Point", "coordinates": [2.4056586392447024, 48.752213343207146]}}, {"type": "Feature", "properties": {"start": "Porte de Vitry", "stop_name": "Choisy le Roi - Rouget de Lisle", "type": "Gare accessible", "transport": "transilien", "transport_legende": "\ud83d\udeb2 \u2764\ufe0f Transilien \ud83d\ude86"}, "geometry": {"type": "Point", "coordinates": [2.405068788803732, 48.76458648830146]}}, {"type": "Feature", "properties": {"start": "Porte de Vitry", "stop_name": "Les Ardoines RER", "type": "Gare accessible", "transport": "transilien", "transport_legende": "\ud83d\udeb2 \u2764\ufe0f Transilien \ud83d\ude86"}, "geometry": {"type": "Point", "coordinates": [2.407623334676664, 48.78405346394676]}}, {"type": "Feature", "properties": {"start": "Porte de Vitry", "stop_name": "Jean-Pierre Timbaud", "type": "Gare accessible", "transport": "transilien", "transport_legende": "\ud83d\udeb2 \u2764\ufe0f Transilien \ud83d\ude86"}, "geometry": {"type": "Point", "coordinates": [2.406855808261793, 48.78691875244302]}}, {"type": "Feature", "properties": {"start": "Porte de Vitry", "stop_name": "R\u00e9publique - Vaillant Couturier", "type": "Gare accessible", "transport": "transilien", "transport_legende": "\ud83d\udeb2 \u2764\ufe0f Transilien \ud83d\ude86"}, "geometry": {"type": "Point", "coordinates": [2.400637175249809, 48.79981206444767]}}, {"type": "Feature", "properties": {"start": "Porte de Vitry", "stop_name": "Ivry Sur Seine - Voltaire", "type": "Gare accessible", "transport": "transilien", "transport_legende": "\ud83d\udeb2 \u2764\ufe0f Transilien \ud83d\ude86"}, "geometry": {"type": "Point", "coordinates": [2.386094122154385, 48.81277938659155]}}, {"type": "Feature", "properties": {"start": "Porte de Vitry", "stop_name": "Biblioth\u00e8que Chevaleret", "type": "Gare accessible", "transport": "transilien", "transport_legende": "\ud83d\udeb2 \u2764\ufe0f Transilien \ud83d\ude86"}, "geometry": {"type": "Point", "coordinates": [2.375728079832685, 48.830083691705084]}}, {"type": "Feature", "properties": {"start": "Porte de Vitry", "stop_name": "Quai de la Gare", "type": "Gare accessible", "transport": "transilien", "transport_legende": "\ud83d\udeb2 \u2764\ufe0f Transilien \ud83d\ude86"}, "geometry": {"type": "Point", "coordinates": [2.37399661764362, 48.837008766854055]}}, {"type": "Feature", "properties": {"start": "Porte de Vitry", "stop_name": "Paris Austerlitz", "type": "Gare accessible", "transport": "transilien", "transport_legende": "\ud83d\udeb2 \u2764\ufe0f Transilien \ud83d\ude86"}, "geometry": {"type": "Point", "coordinates": [2.367960704266045, 48.841536799703]}}, {"type": "Feature", "properties": {"start": "Porte de Vitry", "stop_name": "Gare de Lyon - Van Gogh", "type": "Gare accessible", "transport": "transilien", "transport_legende": "\ud83d\udeb2 \u2764\ufe0f Transilien \ud83d\ude86"}, "geometry": {"type": "Point", "coordinates": [2.37177448281981, 48.84503741254108]}}, {"type": "Feature", "properties": {"start": "Porte de Vitry", "stop_name": "Gare d'Austerlitz - Cour Seine", "type": "Gare accessible", "transport": "transilien", "transport_legende": "\ud83d\udeb2 \u2764\ufe0f Transilien \ud83d\ude86"}, "geometry": {"type": "Point", "coordinates": [2.365936462786417, 48.84328883582449]}}, {"type": "Feature", "properties": {"start": "Porte de Vitry", "stop_name": "Ivry-sur-Seine - Voltaire", "type": "Gare accessible", "transport": "transilien", "transport_legende": "\ud83d\udeb2 \u2764\ufe0f Transilien \ud83d\ude86"}, "geometry": {"type": "Point", "coordinates": [2.385808377211655, 48.81275993132755]}}, {"type": "Feature", "properties": {"start": "Porte de Vitry", "stop_name": "Gare d'Ablon", "type": "Gare accessible", "transport": "transilien", "transport_legende": "\ud83d\udeb2 \u2764\ufe0f Transilien \ud83d\ude86"}, "geometry": {"type": "Point", "coordinates": [2.418552549726059, 48.72541058971868]}}]}