{"type": "FeatureCollection", "features": [{"type": "Feature", "properties": {"start": "Stains la Cerisaie", "stop_name": "Stains la Cerisaie", "type": "Gare s\u00e9lectionn\u00e9e", "transport": "transilien", "nombre_trajet_moyen": 1.5, "transport_legende": "\ud83d\udeb2 \u2764\ufe0f Transilien \ud83d\ude86"}, "geometry": {"type": "Point", "coordinates": [2.391751538657703, 48.954694847106445]}}, {"type": "Feature", "properties": {"start": "Stains la Cerisaie", "stop_name": "\u00c9pinay-sur-Seine", "type": "Gare accessible", "transport": "transilien", "nombre_trajet_moyen": 1.5, "transport_legende": "\ud83d\udeb2 \u2764\ufe0f Transilien \ud83d\ude86"}, "geometry": {"type": "Point", "coordinates": [2.302388375122374, 48.95382604164122]}}, {"type": "Feature", "properties": {"start": "Stains la Cerisaie", "stop_name": "\u00c9pinay - Villetaneuse", "type": "Gare accessible", "transport": "transilien", "nombre_trajet_moyen": 1.5, "transport_legende": "\ud83d\udeb2 \u2764\ufe0f Transilien \ud83d\ude86"}, "geometry": {"type": "Point", "coordinates": [2.3287601965958715, 48.95792884911306]}}, {"type": "Feature", "properties": {"start": "Stains la Cerisaie", "stop_name": "Villetaneuse Universit\u00e9", "type": "Gare accessible", "transport": "transilien", "nombre_trajet_moyen": 1.5, "transport_legende": "\ud83d\udeb2 \u2764\ufe0f Transilien \ud83d\ude86"}, "geometry": {"type": "Point", "coordinates": [2.3419700953709217, 48.9597196726106]}}, {"type": "Feature", "properties": {"start": "Stains la Cerisaie", "stop_name": "Pierrefitte - Stains", "type": "Gare accessible", "transport": "transilien", "nombre_trajet_moyen": 1.5, "transport_legende": "\ud83d\udeb2 \u2764\ufe0f Transilien \ud83d\ude86"}, "geometry": {"type": "Point", "coordinates": [2.3703314284767747, 48.96277628555098]}}, {"type": "Feature", "properties": {"start": "Stains la Cerisaie", "stop_name": "Dugny - La Courneuve", "type": "Gare accessible", "transport": "transilien", "nombre_trajet_moyen": 1.5, "transport_legende": "\ud83d\udeb2 \u2764\ufe0f Transilien \ud83d\ude86"}, "geometry": {"type": "Point", "coordinates": [2.41104524117172, 48.94391001020698]}}, {"type": "Feature", "properties": {"start": "Stains la Cerisaie", "stop_name": "Le Bourget", "type": "Gare accessible", "transport": "transilien", "nombre_trajet_moyen": 1.5, "transport_legende": "\ud83d\udeb2 \u2764\ufe0f Transilien \ud83d\ude86"}, "geometry": {"type": "Point", "coordinates": [2.425825637815098, 48.930744340383264]}}]}