{"type": "FeatureCollection", "features": [{"type": "Feature", "properties": {"start": "Trilport", "stop_name": "Trilport", "type": "Gare s\u00e9lectionn\u00e9e", "transport": "transilien", "transport_legende": "\ud83d\udeb2 \u2764\ufe0f Transilien \ud83d\ude86"}, "geometry": {"type": "Point", "coordinates": [2.949685912410061, 48.96016915361593]}}, {"type": "Feature", "properties": {"start": "Trilport", "stop_name": "Gare de Meaux (Quai A)", "type": "Gare accessible", "transport": "transilien", "transport_legende": "\ud83d\udeb2 \u2764\ufe0f Transilien \ud83d\ude86"}, "geometry": {"type": "Point", "coordinates": [2.8738813734741995, 48.9567738002204]}}, {"type": "Feature", "properties": {"start": "Trilport", "stop_name": "Isles - Armenti\u00e8res - Congis", "type": "Gare accessible", "transport": "transilien", "transport_legende": "\ud83d\udeb2 \u2764\ufe0f Transilien \ud83d\ude86"}, "geometry": {"type": "Point", "coordinates": [3.007871639575125, 48.99837487688993]}}, {"type": "Feature", "properties": {"start": "Trilport", "stop_name": "Gare de Lizy-sur-Ourcq", "type": "Gare accessible", "transport": "transilien", "transport_legende": "\ud83d\udeb2 \u2764\ufe0f Transilien \ud83d\ude86"}, "geometry": {"type": "Point", "coordinates": [3.0316102239700693, 49.0219388267869]}}, {"type": "Feature", "properties": {"start": "Trilport", "stop_name": "Gare de Crouy-sur-Ourcq", "type": "Gare accessible", "transport": "transilien", "transport_legende": "\ud83d\udeb2 \u2764\ufe0f Transilien \ud83d\ude86"}, "geometry": {"type": "Point", "coordinates": [3.063182380077733, 49.09178157756147]}}, {"type": "Feature", "properties": {"start": "Trilport", "stop_name": "Gare de Mareuil-sur-Ourcq", "type": "Gare accessible", "transport": "transilien", "transport_legende": "\ud83d\udeb2 \u2764\ufe0f Transilien \ud83d\ude86"}, "geometry": {"type": "Point", "coordinates": [3.076198086374161, 49.13556937298478]}}, {"type": "Feature", "properties": {"start": "Trilport", "stop_name": "Gare de La Fert\u00e9-Milon", "type": "Gare accessible", "transport": "transilien", "transport_legende": "\ud83d\udeb2 \u2764\ufe0f Transilien \ud83d\ude86"}, "geometry": {"type": "Point", "coordinates": [3.1214085719640337, 49.17940664278346]}}, {"type": "Feature", "properties": {"start": "Trilport", "stop_name": "Mareuil-sur-Ourcq", "type": "Gare accessible", "transport": "transilien", "transport_legende": "\ud83d\udeb2 \u2764\ufe0f Transilien \ud83d\ude86"}, "geometry": {"type": "Point", "coordinates": [3.0754989980809686, 49.135381005893805]}}, {"type": "Feature", "properties": {"start": "Trilport", "stop_name": "Crouy-sur-Ourcq", "type": "Gare accessible", "transport": "transilien", "transport_legende": "\ud83d\udeb2 \u2764\ufe0f Transilien \ud83d\ude86"}, "geometry": {"type": "Point", "coordinates": [3.062669111949777, 49.09189047640195]}}, {"type": "Feature", "properties": {"start": "Trilport", "stop_name": "Gare de l'Est", "type": "Gare accessible", "transport": "transilien", "transport_legende": "\ud83d\udeb2 \u2764\ufe0f Transilien \ud83d\ude86"}, "geometry": {"type": "Point", "coordinates": [2.360305141171757, 48.87857171221123]}}, {"type": "Feature", "properties": {"start": "Trilport", "stop_name": "Meaux", "type": "Gare accessible", "transport": "transilien", "transport_legende": "\ud83d\udeb2 \u2764\ufe0f Transilien \ud83d\ude86"}, "geometry": {"type": "Point", "coordinates": [2.8733082321502925, 48.9566203252873]}}, {"type": "Feature", "properties": {"start": "Trilport", "stop_name": "Changis - Saint-Jean", "type": "Gare accessible", "transport": "transilien", "transport_legende": "\ud83d\udeb2 \u2764\ufe0f Transilien \ud83d\ude86"}, "geometry": {"type": "Point", "coordinates": [3.026089283734262, 48.95916631326023]}}, {"type": "Feature", "properties": {"start": "Trilport", "stop_name": "La Fert\u00e9-sous-Jouarre", "type": "Gare accessible", "transport": "transilien", "transport_legende": "\ud83d\udeb2 \u2764\ufe0f Transilien \ud83d\ude86"}, "geometry": {"type": "Point", "coordinates": [3.124704606439104, 48.95078183142266]}}, {"type": "Feature", "properties": {"start": "Trilport", "stop_name": "Nanteuil - Sa\u00e2cy", "type": "Gare accessible", "transport": "transilien", "transport_legende": "\ud83d\udeb2 \u2764\ufe0f Transilien \ud83d\ude86"}, "geometry": {"type": "Point", "coordinates": [3.2194260927085296, 48.97400193831618]}}, {"type": "Feature", "properties": {"start": "Trilport", "stop_name": "Nogent-L'Artaud - Charly", "type": "Gare accessible", "transport": "transilien", "transport_legende": "\ud83d\udeb2 \u2764\ufe0f Transilien \ud83d\ude86"}, "geometry": {"type": "Point", "coordinates": [3.32284765024808, 48.96871609894733]}}, {"type": "Feature", "properties": {"start": "Trilport", "stop_name": "Ch\u00e9zy-sur-Marne", "type": "Gare accessible", "transport": "transilien", "transport_legende": "\ud83d\udeb2 \u2764\ufe0f Transilien \ud83d\ude86"}, "geometry": {"type": "Point", "coordinates": [3.3644154018991057, 48.99188251331995]}}, {"type": "Feature", "properties": {"start": "Trilport", "stop_name": "Ch\u00e2teau-Thierry", "type": "Gare accessible", "transport": "transilien", "transport_legende": "\ud83d\udeb2 \u2764\ufe0f Transilien \ud83d\ude86"}, "geometry": {"type": "Point", "coordinates": [3.409522741444065, 49.03793350543396]}}, {"type": "Feature", "properties": {"start": "Trilport", "stop_name": "Lizy-sur-Ourcq", "type": "Gare accessible", "transport": "transilien", "transport_legende": "\ud83d\udeb2 \u2764\ufe0f Transilien \ud83d\ude86"}, "geometry": {"type": "Point", "coordinates": [3.0317831029512066, 49.02172710081919]}}, {"type": "Feature", "properties": {"start": "Trilport", "stop_name": "La Fert\u00e9-Milon", "type": "Gare accessible", "transport": "transilien", "transport_legende": "\ud83d\udeb2 \u2764\ufe0f Transilien \ud83d\ude86"}, "geometry": {"type": "Point", "coordinates": [3.1206754069517184, 49.17963214095126]}}, {"type": "Feature", "properties": {"start": "Trilport", "stop_name": "Gare de La Fert\u00e9-sous-Jouarre (Quai E)", "type": "Gare accessible", "transport": "transilien", "transport_legende": "\ud83d\udeb2 \u2764\ufe0f Transilien \ud83d\ude86"}, "geometry": {"type": "Point", "coordinates": [3.12466992294574, 48.95055256012645]}}, {"type": "Feature", "properties": {"start": "Trilport", "stop_name": "Gare de Meaux (Quai H)", "type": "Gare accessible", "transport": "transilien", "transport_legende": "\ud83d\udeb2 \u2764\ufe0f Transilien \ud83d\ude86"}, "geometry": {"type": "Point", "coordinates": [2.8737732896685078, 48.95629708945202]}}, {"type": "Feature", "properties": {"start": "Trilport", "stop_name": "Paris Est", "type": "Gare accessible", "transport": "transilien", "transport_legende": "\ud83d\udeb2 \u2764\ufe0f Transilien \ud83d\ude86"}, "geometry": {"type": "Point", "coordinates": [2.3581309888068707, 48.87630724403106]}}]}