{"type": "FeatureCollection", "features": [{"type": "Feature", "properties": {"start": "Vaires - Torcy", "stop_name": "Vaires - Torcy", "type": "Gare s\u00e9lectionn\u00e9e", "transport": "transilien", "transport_legende": "\ud83d\udeb2 \u2764\ufe0f Transilien \ud83d\ude86"}, "geometry": {"type": "Point", "coordinates": [2.637705554664271, 48.87517306494243]}}, {"type": "Feature", "properties": {"start": "Vaires - Torcy", "stop_name": "Gare de l'Est", "type": "Gare accessible", "transport": "transilien", "transport_legende": "\ud83d\udeb2 \u2764\ufe0f Transilien \ud83d\ude86"}, "geometry": {"type": "Point", "coordinates": [2.360305141171757, 48.87857171221123]}}, {"type": "Feature", "properties": {"start": "Vaires - Torcy", "stop_name": "Chelles - Gournay", "type": "Gare accessible", "transport": "transilien", "transport_legende": "\ud83d\udeb2 \u2764\ufe0f Transilien \ud83d\ude86"}, "geometry": {"type": "Point", "coordinates": [2.5833806594500697, 48.87411948897062]}}, {"type": "Feature", "properties": {"start": "Vaires - Torcy", "stop_name": "Lagny - Thorigny", "type": "Gare accessible", "transport": "transilien", "transport_legende": "\ud83d\udeb2 \u2764\ufe0f Transilien \ud83d\ude86"}, "geometry": {"type": "Point", "coordinates": [2.7059554888008988, 48.8821904179895]}}, {"type": "Feature", "properties": {"start": "Vaires - Torcy", "stop_name": "Esbly", "type": "Gare accessible", "transport": "transilien", "transport_legende": "\ud83d\udeb2 \u2764\ufe0f Transilien \ud83d\ude86"}, "geometry": {"type": "Point", "coordinates": [2.809640025507793, 48.902895083058525]}}, {"type": "Feature", "properties": {"start": "Vaires - Torcy", "stop_name": "Meaux", "type": "Gare accessible", "transport": "transilien", "transport_legende": "\ud83d\udeb2 \u2764\ufe0f Transilien \ud83d\ude86"}, "geometry": {"type": "Point", "coordinates": [2.8733082321502925, 48.9566203252873]}}, {"type": "Feature", "properties": {"start": "Vaires - Torcy", "stop_name": "Gare de Meaux (Quai H)", "type": "Gare accessible", "transport": "transilien", "transport_legende": "\ud83d\udeb2 \u2764\ufe0f Transilien \ud83d\ude86"}, "geometry": {"type": "Point", "coordinates": [2.8737732896685078, 48.95629708945202]}}, {"type": "Feature", "properties": {"start": "Vaires - Torcy", "stop_name": "Chelles Gournay RER - Gasnier Guy", "type": "Gare accessible", "transport": "transilien", "transport_legende": "\ud83d\udeb2 \u2764\ufe0f Transilien \ud83d\ude86"}, "geometry": {"type": "Point", "coordinates": [2.581869565354592, 48.87468978445968]}}, {"type": "Feature", "properties": {"start": "Vaires - Torcy", "stop_name": "Paris Est", "type": "Gare accessible", "transport": "transilien", "transport_legende": "\ud83d\udeb2 \u2764\ufe0f Transilien \ud83d\ude86"}, "geometry": {"type": "Point", "coordinates": [2.3581309888068707, 48.87630724403106]}}]}