{"type": "FeatureCollection", "features": [{"type": "Feature", "properties": {"start": "Champigny-sur-Yonne", "stop_name": "Champigny-sur-Yonne", "type": "Gare s\u00e9lectionn\u00e9e", "transport": "transilien", "transport_legende": "\ud83d\udeb2 \u2764\ufe0f Transilien \ud83d\ude86"}, "geometry": {"type": "Point", "coordinates": [3.130154840410363, 48.32421062271411]}}, {"type": "Feature", "properties": {"start": "Champigny-sur-Yonne", "stop_name": "Gare de Lyon", "type": "Gare accessible", "transport": "transilien", "transport_legende": "\ud83d\udeb2 \u2764\ufe0f Transilien \ud83d\ude86"}, "geometry": {"type": "Point", "coordinates": [2.376365660931201, 48.84340211646564]}}, {"type": "Feature", "properties": {"start": "Champigny-sur-Yonne", "stop_name": "Melun", "type": "Gare accessible", "transport": "transilien", "transport_legende": "\ud83d\udeb2 \u2764\ufe0f Transilien \ud83d\ude86"}, "geometry": {"type": "Point", "coordinates": [2.65469836071817, 48.527491277248295]}}, {"type": "Feature", "properties": {"start": "Champigny-sur-Yonne", "stop_name": "Bois-le-Roi", "type": "Gare accessible", "transport": "transilien", "transport_legende": "\ud83d\udeb2 \u2764\ufe0f Transilien \ud83d\ude86"}, "geometry": {"type": "Point", "coordinates": [2.691542568002651, 48.47579827327959]}}, {"type": "Feature", "properties": {"start": "Champigny-sur-Yonne", "stop_name": "Fontainebleau - Avon", "type": "Gare accessible", "transport": "transilien", "transport_legende": "\ud83d\udeb2 \u2764\ufe0f Transilien \ud83d\ude86"}, "geometry": {"type": "Point", "coordinates": [2.7267714287220346, 48.416666098921]}}, {"type": "Feature", "properties": {"start": "Champigny-sur-Yonne", "stop_name": "Moret - Veneux-les-Sablons", "type": "Gare accessible", "transport": "transilien", "transport_legende": "\ud83d\udeb2 \u2764\ufe0f Transilien \ud83d\ude86"}, "geometry": {"type": "Point", "coordinates": [2.800462899908886, 48.37789836789835]}}, {"type": "Feature", "properties": {"start": "Champigny-sur-Yonne", "stop_name": "Saint-Mamm\u00e8s", "type": "Gare accessible", "transport": "transilien", "transport_legende": "\ud83d\udeb2 \u2764\ufe0f Transilien \ud83d\ude86"}, "geometry": {"type": "Point", "coordinates": [2.816506976966753, 48.38264713543743]}}, {"type": "Feature", "properties": {"start": "Champigny-sur-Yonne", "stop_name": "Montereau", "type": "Gare accessible", "transport": "transilien", "transport_legende": "\ud83d\udeb2 \u2764\ufe0f Transilien \ud83d\ude86"}, "geometry": {"type": "Point", "coordinates": [2.942541935520315, 48.37960363189276]}}, {"type": "Feature", "properties": {"start": "Champigny-sur-Yonne", "stop_name": "Villeneuve-la-Guyard", "type": "Gare accessible", "transport": "transilien", "transport_legende": "\ud83d\udeb2 \u2764\ufe0f Transilien \ud83d\ude86"}, "geometry": {"type": "Point", "coordinates": [3.0720201061041963, 48.34261875935412]}}, {"type": "Feature", "properties": {"start": "Champigny-sur-Yonne", "stop_name": "Pont-sur-Yonne", "type": "Gare accessible", "transport": "transilien", "transport_legende": "\ud83d\udeb2 \u2764\ufe0f Transilien \ud83d\ude86"}, "geometry": {"type": "Point", "coordinates": [3.201822135556628, 48.286200143295794]}}, {"type": "Feature", "properties": {"start": "Champigny-sur-Yonne", "stop_name": "Sens", "type": "Gare accessible", "transport": "transilien", "transport_legende": "\ud83d\udeb2 \u2764\ufe0f Transilien \ud83d\ude86"}, "geometry": {"type": "Point", "coordinates": [3.2673805413803247, 48.19822559869753]}}, {"type": "Feature", "properties": {"start": "Champigny-sur-Yonne", "stop_name": "Villeneuve-sur-Yonne", "type": "Gare accessible", "transport": "transilien", "transport_legende": "\ud83d\udeb2 \u2764\ufe0f Transilien \ud83d\ude86"}, "geometry": {"type": "Point", "coordinates": [3.28650469508052, 48.08520669575616]}}, {"type": "Feature", "properties": {"start": "Champigny-sur-Yonne", "stop_name": "Saint-Julien du Sault", "type": "Gare accessible", "transport": "transilien", "transport_legende": "\ud83d\udeb2 \u2764\ufe0f Transilien \ud83d\ude86"}, "geometry": {"type": "Point", "coordinates": [3.302762450780337, 48.02662402302481]}}, {"type": "Feature", "properties": {"start": "Champigny-sur-Yonne", "stop_name": "Joigny", "type": "Gare accessible", "transport": "transilien", "transport_legende": "\ud83d\udeb2 \u2764\ufe0f Transilien \ud83d\ude86"}, "geometry": {"type": "Point", "coordinates": [3.393667054376571, 47.97365568630087]}}, {"type": "Feature", "properties": {"start": "Champigny-sur-Yonne", "stop_name": "Laroche - Migennes", "type": "Gare accessible", "transport": "transilien", "transport_legende": "\ud83d\udeb2 \u2764\ufe0f Transilien \ud83d\ude86"}, "geometry": {"type": "Point", "coordinates": [3.5126763134529835, 47.96107924372578]}}, {"type": "Feature", "properties": {"start": "Champigny-sur-Yonne", "stop_name": "\u00c9tigny - V\u00e9ron", "type": "Gare accessible", "transport": "transilien", "transport_legende": "\ud83d\udeb2 \u2764\ufe0f Transilien \ud83d\ude86"}, "geometry": {"type": "Point", "coordinates": [3.2900826338816094, 48.13765030143217]}}, {"type": "Feature", "properties": {"start": "Champigny-sur-Yonne", "stop_name": "Champagne-sur-Seine", "type": "Gare accessible", "transport": "transilien", "transport_legende": "\ud83d\udeb2 \u2764\ufe0f Transilien \ud83d\ude86"}, "geometry": {"type": "Point", "coordinates": [2.798915755216375, 48.40726498958356]}}, {"type": "Feature", "properties": {"start": "Champigny-sur-Yonne", "stop_name": "Paris-Bercy Bourgogne - Pays d'Auvergne", "type": "Gare accessible", "transport": "transilien", "transport_legende": "\ud83d\udeb2 \u2764\ufe0f Transilien \ud83d\ude86"}, "geometry": {"type": "Point", "coordinates": [2.384209720351069, 48.83858620193177]}}]}