{"type": "FeatureCollection", "features": [{"type": "Feature", "properties": {"start": "Chelles - Gournay RER", "stop_name": "Chelles - Gournay RER", "type": "Gare s\u00e9lectionn\u00e9e", "transport": "transilien", "transport_legende": "\ud83d\udeb2 \u2764\ufe0f Transilien \ud83d\ude86"}, "geometry": {"type": "Point", "coordinates": [2.582934842562988, 48.87445967778249]}}, {"type": "Feature", "properties": {"start": "Chelles - Gournay RER", "stop_name": "Paris Est", "type": "Gare accessible", "transport": "transilien", "transport_legende": "\ud83d\udeb2 \u2764\ufe0f Transilien \ud83d\ude86"}, "geometry": {"type": "Point", "coordinates": [2.3581309888068707, 48.87630724403106]}}, {"type": "Feature", "properties": {"start": "Chelles - Gournay RER", "stop_name": "Gare de Vaires Torcy", "type": "Gare accessible", "transport": "transilien", "transport_legende": "\ud83d\udeb2 \u2764\ufe0f Transilien \ud83d\ude86"}, "geometry": {"type": "Point", "coordinates": [2.6385363709236582, 48.87594449075985]}}, {"type": "Feature", "properties": {"start": "Chelles - Gournay RER", "stop_name": "Lagny - Thorigny", "type": "Gare accessible", "transport": "transilien", "transport_legende": "\ud83d\udeb2 \u2764\ufe0f Transilien \ud83d\ude86"}, "geometry": {"type": "Point", "coordinates": [2.7059554888008988, 48.8821904179895]}}, {"type": "Feature", "properties": {"start": "Chelles - Gournay RER", "stop_name": "Gare d'Esbly - Quai B", "type": "Gare accessible", "transport": "transilien", "transport_legende": "\ud83d\udeb2 \u2764\ufe0f Transilien \ud83d\ude86"}, "geometry": {"type": "Point", "coordinates": [2.8120925358957964, 48.90369032591517]}}, {"type": "Feature", "properties": {"start": "Chelles - Gournay RER", "stop_name": "Gare de Meaux (Quai H)", "type": "Gare accessible", "transport": "transilien", "transport_legende": "\ud83d\udeb2 \u2764\ufe0f Transilien \ud83d\ude86"}, "geometry": {"type": "Point", "coordinates": [2.8737732896685078, 48.95629708945202]}}]}