{"type": "FeatureCollection", "features": [{"type": "Feature", "properties": {"start": "Coigni\u00e8res", "stop_name": "Coigni\u00e8res", "type": "Gare s\u00e9lectionn\u00e9e", "transport": "transilien", "nombre_trajet_moyen": 0.7, "transport_legende": "\ud83d\udeb2 \u2764\ufe0f Transilien \ud83d\ude86"}, "geometry": {"type": "Point", "coordinates": [1.9214184023981653, 48.74374799338111]}}, {"type": "Feature", "properties": {"start": "Coigni\u00e8res", "stop_name": "Gare Montparnasse", "type": "Gare accessible", "transport": "transilien", "nombre_trajet_moyen": 0.7, "transport_legende": "\ud83d\udeb2 \u2764\ufe0f Transilien \ud83d\ude86"}, "geometry": {"type": "Point", "coordinates": [2.316388731382968, 48.83841119933774]}}, {"type": "Feature", "properties": {"start": "Coigni\u00e8res", "stop_name": "Vanves - Malakoff", "type": "Gare accessible", "transport": "transilien", "nombre_trajet_moyen": 0.7, "transport_legende": "\ud83d\udeb2 \u2764\ufe0f Transilien \ud83d\ude86"}, "geometry": {"type": "Point", "coordinates": [2.2919742374890983, 48.81828945559893]}}, {"type": "Feature", "properties": {"start": "Coigni\u00e8res", "stop_name": "Clamart", "type": "Gare accessible", "transport": "transilien", "nombre_trajet_moyen": 0.7, "transport_legende": "\ud83d\udeb2 \u2764\ufe0f Transilien \ud83d\ude86"}, "geometry": {"type": "Point", "coordinates": [2.274243860950152, 48.81422563914296]}}, {"type": "Feature", "properties": {"start": "Coigni\u00e8res", "stop_name": "Meudon", "type": "Gare accessible", "transport": "transilien", "nombre_trajet_moyen": 0.7, "transport_legende": "\ud83d\udeb2 \u2764\ufe0f Transilien \ud83d\ude86"}, "geometry": {"type": "Point", "coordinates": [2.2428787225795106, 48.81436409632574]}}, {"type": "Feature", "properties": {"start": "Coigni\u00e8res", "stop_name": "Bellevue", "type": "Gare accessible", "transport": "transilien", "nombre_trajet_moyen": 0.7, "transport_legende": "\ud83d\udeb2 \u2764\ufe0f Transilien \ud83d\ude86"}, "geometry": {"type": "Point", "coordinates": [2.229956322216565, 48.81887298138509]}}, {"type": "Feature", "properties": {"start": "Coigni\u00e8res", "stop_name": "S\u00e8vres Rive Gauche", "type": "Gare accessible", "transport": "transilien", "nombre_trajet_moyen": 0.7, "transport_legende": "\ud83d\udeb2 \u2764\ufe0f Transilien \ud83d\ude86"}, "geometry": {"type": "Point", "coordinates": [2.215079572125279, 48.82121360785643]}}, {"type": "Feature", "properties": {"start": "Coigni\u00e8res", "stop_name": "Chaville Rive Gauche", "type": "Gare accessible", "transport": "transilien", "nombre_trajet_moyen": 0.7, "transport_legende": "\ud83d\udeb2 \u2764\ufe0f Transilien \ud83d\ude86"}, "geometry": {"type": "Point", "coordinates": [2.189425762809199, 48.8051904761828]}}, {"type": "Feature", "properties": {"start": "Coigni\u00e8res", "stop_name": "Viroflay Rive Gauche", "type": "Gare accessible", "transport": "transilien", "nombre_trajet_moyen": 0.7, "transport_legende": "\ud83d\udeb2 \u2764\ufe0f Transilien \ud83d\ude86"}, "geometry": {"type": "Point", "coordinates": [2.17158260741522, 48.800665521455045]}}, {"type": "Feature", "properties": {"start": "Coigni\u00e8res", "stop_name": "Versailles Chantiers", "type": "Gare accessible", "transport": "transilien", "nombre_trajet_moyen": 0.7, "transport_legende": "\ud83d\udeb2 \u2764\ufe0f Transilien \ud83d\ude86"}, "geometry": {"type": "Point", "coordinates": [2.1349078603373464, 48.79526039893613]}}, {"type": "Feature", "properties": {"start": "Coigni\u00e8res", "stop_name": "Saint-Cyr", "type": "Gare accessible", "transport": "transilien", "nombre_trajet_moyen": 0.7, "transport_legende": "\ud83d\udeb2 \u2764\ufe0f Transilien \ud83d\ude86"}, "geometry": {"type": "Point", "coordinates": [2.072712440765476, 48.79877460471833]}}, {"type": "Feature", "properties": {"start": "Coigni\u00e8res", "stop_name": "Saint-Quentin en Yvelines - Montigny-le-Bretonneux", "type": "Gare accessible", "transport": "transilien", "nombre_trajet_moyen": 0.7, "transport_legende": "\ud83d\udeb2 \u2764\ufe0f Transilien \ud83d\ude86"}, "geometry": {"type": "Point", "coordinates": [2.044615988930814, 48.78748491597792]}}, {"type": "Feature", "properties": {"start": "Coigni\u00e8res", "stop_name": "Trappes", "type": "Gare accessible", "transport": "transilien", "nombre_trajet_moyen": 0.7, "transport_legende": "\ud83d\udeb2 \u2764\ufe0f Transilien \ud83d\ude86"}, "geometry": {"type": "Point", "coordinates": [2.0065902166898377, 48.7747853970692]}}, {"type": "Feature", "properties": {"start": "Coigni\u00e8res", "stop_name": "La Verri\u00e8re", "type": "Gare accessible", "transport": "transilien", "nombre_trajet_moyen": 0.7, "transport_legende": "\ud83d\udeb2 \u2764\ufe0f Transilien \ud83d\ude86"}, "geometry": {"type": "Point", "coordinates": [1.943057018064192, 48.7551716132828]}}, {"type": "Feature", "properties": {"start": "Coigni\u00e8res", "stop_name": "Les Essarts-le-Roi", "type": "Gare accessible", "transport": "transilien", "nombre_trajet_moyen": 0.7, "transport_legende": "\ud83d\udeb2 \u2764\ufe0f Transilien \ud83d\ude86"}, "geometry": {"type": "Point", "coordinates": [1.889661391894688, 48.72169335309528]}}, {"type": "Feature", "properties": {"start": "Coigni\u00e8res", "stop_name": "Le Perray", "type": "Gare accessible", "transport": "transilien", "nombre_trajet_moyen": 0.7, "transport_legende": "\ud83d\udeb2 \u2764\ufe0f Transilien \ud83d\ude86"}, "geometry": {"type": "Point", "coordinates": [1.8566531860615936, 48.69336112490438]}}, {"type": "Feature", "properties": {"start": "Coigni\u00e8res", "stop_name": "Rambouillet", "type": "Gare accessible", "transport": "transilien", "nombre_trajet_moyen": 0.7, "transport_legende": "\ud83d\udeb2 \u2764\ufe0f Transilien \ud83d\ude86"}, "geometry": {"type": "Point", "coordinates": [1.832207614506548, 48.6438460126836]}}]}