{"type": "FeatureCollection", "features": [{"type": "Feature", "properties": {"start": "Conflans Fin d'Oise", "stop_name": "Conflans Fin d'Oise", "type": "Gare s\u00e9lectionn\u00e9e", "transport": "transilien", "transport_legende": "\ud83d\udeb2 \u2764\ufe0f Transilien \ud83d\ude86"}, "geometry": {"type": "Point", "coordinates": [2.0746499245710197, 48.99115628725848]}}, {"type": "Feature", "properties": {"start": "Conflans Fin d'Oise", "stop_name": "Cergy le Haut", "type": "Gare accessible", "transport": "transilien", "transport_legende": "\ud83d\udeb2 \u2764\ufe0f Transilien \ud83d\ude86"}, "geometry": {"type": "Point", "coordinates": [2.011579068023536, 49.04823262405815]}}, {"type": "Feature", "properties": {"start": "Conflans Fin d'Oise", "stop_name": "Cergy Saint-Christophe", "type": "Gare accessible", "transport": "transilien", "transport_legende": "\ud83d\udeb2 \u2764\ufe0f Transilien \ud83d\ude86"}, "geometry": {"type": "Point", "coordinates": [2.0345219282999176, 49.049642166828754]}}, {"type": "Feature", "properties": {"start": "Conflans Fin d'Oise", "stop_name": "Cergy Pr\u00e9fecture", "type": "Gare accessible", "transport": "transilien", "transport_legende": "\ud83d\udeb2 \u2764\ufe0f Transilien \ud83d\ude86"}, "geometry": {"type": "Point", "coordinates": [2.0797809490013077, 49.036306683133965]}}, {"type": "Feature", "properties": {"start": "Conflans Fin d'Oise", "stop_name": "Neuville Universit\u00e9", "type": "Gare accessible", "transport": "transilien", "transport_legende": "\ud83d\udeb2 \u2764\ufe0f Transilien \ud83d\ude86"}, "geometry": {"type": "Point", "coordinates": [2.078348820578231, 49.01374275942672]}}, {"type": "Feature", "properties": {"start": "Conflans Fin d'Oise", "stop_name": "Ach\u00e8res Ville", "type": "Gare accessible", "transport": "transilien", "transport_legende": "\ud83d\udeb2 \u2764\ufe0f Transilien \ud83d\ude86"}, "geometry": {"type": "Point", "coordinates": [2.0777265246565437, 48.97064357081442]}}, {"type": "Feature", "properties": {"start": "Conflans Fin d'Oise", "stop_name": "Maisons-Laffitte", "type": "Gare accessible", "transport": "transilien", "transport_legende": "\ud83d\udeb2 \u2764\ufe0f Transilien \ud83d\ude86"}, "geometry": {"type": "Point", "coordinates": [2.144672265933885, 48.94574060746957]}}, {"type": "Feature", "properties": {"start": "Conflans Fin d'Oise", "stop_name": "Sartrouville", "type": "Gare accessible", "transport": "transilien", "transport_legende": "\ud83d\udeb2 \u2764\ufe0f Transilien \ud83d\ude86"}, "geometry": {"type": "Point", "coordinates": [2.157220038850732, 48.93769529363442]}}, {"type": "Feature", "properties": {"start": "Conflans Fin d'Oise", "stop_name": "Houilles - Carri\u00e8res-sur-Seine", "type": "Gare accessible", "transport": "transilien", "transport_legende": "\ud83d\udeb2 \u2764\ufe0f Transilien \ud83d\ude86"}, "geometry": {"type": "Point", "coordinates": [2.1851757042018707, 48.92034757911033]}}, {"type": "Feature", "properties": {"start": "Conflans Fin d'Oise", "stop_name": "Nanterre Pr\u00e9fecture", "type": "Gare accessible", "transport": "transilien", "transport_legende": "\ud83d\udeb2 \u2764\ufe0f Transilien \ud83d\ude86"}, "geometry": {"type": "Point", "coordinates": [2.222986242991368, 48.895886773064674]}}, {"type": "Feature", "properties": {"start": "Conflans Fin d'Oise", "stop_name": "La D\u00e9fense", "type": "Gare accessible", "transport": "transilien", "transport_legende": "\ud83d\udeb2 \u2764\ufe0f Transilien \ud83d\ude86"}, "geometry": {"type": "Point", "coordinates": [2.238418596250407, 48.892229801568206]}}, {"type": "Feature", "properties": {"start": "Conflans Fin d'Oise", "stop_name": "Charles de Gaulle - Etoile", "type": "Gare accessible", "transport": "transilien", "transport_legende": "\ud83d\udeb2 \u2764\ufe0f Transilien \ud83d\ude86"}, "geometry": {"type": "Point", "coordinates": [2.295231447641207, 48.874172759565376]}}, {"type": "Feature", "properties": {"start": "Conflans Fin d'Oise", "stop_name": "Auber", "type": "Gare accessible", "transport": "transilien", "transport_legende": "\ud83d\udeb2 \u2764\ufe0f Transilien \ud83d\ude86"}, "geometry": {"type": "Point", "coordinates": [2.3296591495793595, 48.8723488407182]}}, {"type": "Feature", "properties": {"start": "Conflans Fin d'Oise", "stop_name": "Ch\u00e2telet les Halles", "type": "Gare accessible", "transport": "transilien", "transport_legende": "\ud83d\udeb2 \u2764\ufe0f Transilien \ud83d\ude86"}, "geometry": {"type": "Point", "coordinates": [2.34697651043533, 48.86174503191322]}}, {"type": "Feature", "properties": {"start": "Conflans Fin d'Oise", "stop_name": "Gare de Lyon", "type": "Gare accessible", "transport": "transilien", "transport_legende": "\ud83d\udeb2 \u2764\ufe0f Transilien \ud83d\ude86"}, "geometry": {"type": "Point", "coordinates": [2.376365660931201, 48.84340211646564]}}, {"type": "Feature", "properties": {"start": "Conflans Fin d'Oise", "stop_name": "Nation", "type": "Gare accessible", "transport": "transilien", "transport_legende": "\ud83d\udeb2 \u2764\ufe0f Transilien \ud83d\ude86"}, "geometry": {"type": "Point", "coordinates": [2.3959444654495297, 48.84823319072756]}}, {"type": "Feature", "properties": {"start": "Conflans Fin d'Oise", "stop_name": "Vincennes", "type": "Gare accessible", "transport": "transilien", "transport_legende": "\ud83d\udeb2 \u2764\ufe0f Transilien \ud83d\ude86"}, "geometry": {"type": "Point", "coordinates": [2.4325836014183, 48.84734683460296]}}, {"type": "Feature", "properties": {"start": "Conflans Fin d'Oise", "stop_name": "Fontenay-sous-Bois", "type": "Gare accessible", "transport": "transilien", "transport_legende": "\ud83d\udeb2 \u2764\ufe0f Transilien \ud83d\ude86"}, "geometry": {"type": "Point", "coordinates": [2.463537806527943, 48.8437885964859]}}, {"type": "Feature", "properties": {"start": "Conflans Fin d'Oise", "stop_name": "Nogent-sur-Marne", "type": "Gare accessible", "transport": "transilien", "transport_legende": "\ud83d\udeb2 \u2764\ufe0f Transilien \ud83d\ude86"}, "geometry": {"type": "Point", "coordinates": [2.471683791180998, 48.834306538503405]}}, {"type": "Feature", "properties": {"start": "Conflans Fin d'Oise", "stop_name": "Joinville-le-Pont", "type": "Gare accessible", "transport": "transilien", "transport_legende": "\ud83d\udeb2 \u2764\ufe0f Transilien \ud83d\ude86"}, "geometry": {"type": "Point", "coordinates": [2.4638739495546496, 48.82119737360793]}}, {"type": "Feature", "properties": {"start": "Conflans Fin d'Oise", "stop_name": "Saint-Maur - Cr\u00e9teil", "type": "Gare accessible", "transport": "transilien", "transport_legende": "\ud83d\udeb2 \u2764\ufe0f Transilien \ud83d\ude86"}, "geometry": {"type": "Point", "coordinates": [2.4729094308778183, 48.80619648110731]}}, {"type": "Feature", "properties": {"start": "Conflans Fin d'Oise", "stop_name": "Le Parc de Saint-Maur", "type": "Gare accessible", "transport": "transilien", "transport_legende": "\ud83d\udeb2 \u2764\ufe0f Transilien \ud83d\ude86"}, "geometry": {"type": "Point", "coordinates": [2.486623744135692, 48.8054097518155]}}, {"type": "Feature", "properties": {"start": "Conflans Fin d'Oise", "stop_name": "Champigny", "type": "Gare accessible", "transport": "transilien", "transport_legende": "\ud83d\udeb2 \u2764\ufe0f Transilien \ud83d\ude86"}, "geometry": {"type": "Point", "coordinates": [2.510538043646919, 48.80682309456137]}}, {"type": "Feature", "properties": {"start": "Conflans Fin d'Oise", "stop_name": "La Varenne - Chennevi\u00e8res", "type": "Gare accessible", "transport": "transilien", "transport_legende": "\ud83d\udeb2 \u2764\ufe0f Transilien \ud83d\ude86"}, "geometry": {"type": "Point", "coordinates": [2.5132322873015256, 48.79532749459459]}}, {"type": "Feature", "properties": {"start": "Conflans Fin d'Oise", "stop_name": "Sucy - Bonneuil", "type": "Gare accessible", "transport": "transilien", "transport_legende": "\ud83d\udeb2 \u2764\ufe0f Transilien \ud83d\ude86"}, "geometry": {"type": "Point", "coordinates": [2.5074994611650823, 48.77206393780998]}}, {"type": "Feature", "properties": {"start": "Conflans Fin d'Oise", "stop_name": "Boissy-Saint-L\u00e9ger", "type": "Gare accessible", "transport": "transilien", "transport_legende": "\ud83d\udeb2 \u2764\ufe0f Transilien \ud83d\ude86"}, "geometry": {"type": "Point", "coordinates": [2.504498176690716, 48.752267307821874]}}, {"type": "Feature", "properties": {"start": "Conflans Fin d'Oise", "stop_name": "Gare de Sartrouville - RER", "type": "Gare accessible", "transport": "transilien", "transport_legende": "\ud83d\udeb2 \u2764\ufe0f Transilien \ud83d\ude86"}, "geometry": {"type": "Point", "coordinates": [2.1575610336100777, 48.938133853964295]}}, {"type": "Feature", "properties": {"start": "Conflans Fin d'Oise", "stop_name": "Gare de Maisons-Laffitte", "type": "Gare accessible", "transport": "transilien", "transport_legende": "\ud83d\udeb2 \u2764\ufe0f Transilien \ud83d\ude86"}, "geometry": {"type": "Point", "coordinates": [2.1437463388036213, 48.94559010915114]}}, {"type": "Feature", "properties": {"start": "Conflans Fin d'Oise", "stop_name": "Neuville RER", "type": "Gare accessible", "transport": "transilien", "transport_legende": "\ud83d\udeb2 \u2764\ufe0f Transilien \ud83d\ude86"}, "geometry": {"type": "Point", "coordinates": [2.079474977004652, 49.014610144815975]}}, {"type": "Feature", "properties": {"start": "Conflans Fin d'Oise", "stop_name": "Gare de Cergy Pr\u00e9fecture (C)", "type": "Gare accessible", "transport": "transilien", "transport_legende": "\ud83d\udeb2 \u2764\ufe0f Transilien \ud83d\ude86"}, "geometry": {"type": "Point", "coordinates": [2.079182333735157, 49.03959777443762]}}, {"type": "Feature", "properties": {"start": "Conflans Fin d'Oise", "stop_name": "Saint-Christophe RER", "type": "Gare accessible", "transport": "transilien", "transport_legende": "\ud83d\udeb2 \u2764\ufe0f Transilien \ud83d\ude86"}, "geometry": {"type": "Point", "coordinates": [2.033673166473447, 49.05003999398652]}}, {"type": "Feature", "properties": {"start": "Conflans Fin d'Oise", "stop_name": "Gare de Cergy le Haut", "type": "Gare accessible", "transport": "transilien", "transport_legende": "\ud83d\udeb2 \u2764\ufe0f Transilien \ud83d\ude86"}, "geometry": {"type": "Point", "coordinates": [2.010366364856136, 49.04762015418292]}}, {"type": "Feature", "properties": {"start": "Conflans Fin d'Oise", "stop_name": "Mantes-la-Jolie", "type": "Gare accessible", "transport": "transilien", "transport_legende": "\ud83d\udeb2 \u2764\ufe0f Transilien \ud83d\ude86"}, "geometry": {"type": "Point", "coordinates": [1.703836824856348, 48.98929502141949]}}, {"type": "Feature", "properties": {"start": "Conflans Fin d'Oise", "stop_name": "Mantes Station", "type": "Gare accessible", "transport": "transilien", "transport_legende": "\ud83d\udeb2 \u2764\ufe0f Transilien \ud83d\ude86"}, "geometry": {"type": "Point", "coordinates": [1.7151334567152097, 48.98360892717879]}}, {"type": "Feature", "properties": {"start": "Conflans Fin d'Oise", "stop_name": "Limay", "type": "Gare accessible", "transport": "transilien", "transport_legende": "\ud83d\udeb2 \u2764\ufe0f Transilien \ud83d\ude86"}, "geometry": {"type": "Point", "coordinates": [1.7474125098984148, 48.98420212754175]}}, {"type": "Feature", "properties": {"start": "Conflans Fin d'Oise", "stop_name": "Issou - Porcheville", "type": "Gare accessible", "transport": "transilien", "transport_legende": "\ud83d\udeb2 \u2764\ufe0f Transilien \ud83d\ude86"}, "geometry": {"type": "Point", "coordinates": [1.7838404356830648, 48.9793069192499]}}, {"type": "Feature", "properties": {"start": "Conflans Fin d'Oise", "stop_name": "Gargenville", "type": "Gare accessible", "transport": "transilien", "transport_legende": "\ud83d\udeb2 \u2764\ufe0f Transilien \ud83d\ude86"}, "geometry": {"type": "Point", "coordinates": [1.8090110590166268, 48.983003872761415]}}, {"type": "Feature", "properties": {"start": "Conflans Fin d'Oise", "stop_name": "Juziers", "type": "Gare accessible", "transport": "transilien", "transport_legende": "\ud83d\udeb2 \u2764\ufe0f Transilien \ud83d\ude86"}, "geometry": {"type": "Point", "coordinates": [1.8449525722587152, 48.99224048747195]}}, {"type": "Feature", "properties": {"start": "Conflans Fin d'Oise", "stop_name": "Meulan - Hardricourt", "type": "Gare accessible", "transport": "transilien", "transport_legende": "\ud83d\udeb2 \u2764\ufe0f Transilien \ud83d\ude86"}, "geometry": {"type": "Point", "coordinates": [1.9021289902435004, 49.00581615609435]}}, {"type": "Feature", "properties": {"start": "Conflans Fin d'Oise", "stop_name": "Thun le Paradis", "type": "Gare accessible", "transport": "transilien", "transport_legende": "\ud83d\udeb2 \u2764\ufe0f Transilien \ud83d\ude86"}, "geometry": {"type": "Point", "coordinates": [1.919170589720022, 49.006673442207415]}}, {"type": "Feature", "properties": {"start": "Conflans Fin d'Oise", "stop_name": "Vaux-sur-Seine", "type": "Gare accessible", "transport": "transilien", "transport_legende": "\ud83d\udeb2 \u2764\ufe0f Transilien \ud83d\ude86"}, "geometry": {"type": "Point", "coordinates": [1.9630264473162569, 49.0073550143858]}}, {"type": "Feature", "properties": {"start": "Conflans Fin d'Oise", "stop_name": "Triel-sur-Seine", "type": "Gare accessible", "transport": "transilien", "transport_legende": "\ud83d\udeb2 \u2764\ufe0f Transilien \ud83d\ude86"}, "geometry": {"type": "Point", "coordinates": [2.005709444143668, 48.98141600700941]}}, {"type": "Feature", "properties": {"start": "Conflans Fin d'Oise", "stop_name": "Chanteloup-les-Vignes", "type": "Gare accessible", "transport": "transilien", "transport_legende": "\ud83d\udeb2 \u2764\ufe0f Transilien \ud83d\ude86"}, "geometry": {"type": "Point", "coordinates": [2.0276211497651646, 48.97035707590211]}}, {"type": "Feature", "properties": {"start": "Conflans Fin d'Oise", "stop_name": "Andr\u00e9sy", "type": "Gare accessible", "transport": "transilien", "transport_legende": "\ud83d\udeb2 \u2764\ufe0f Transilien \ud83d\ude86"}, "geometry": {"type": "Point", "coordinates": [2.0486677678528, 48.97462075263292]}}, {"type": "Feature", "properties": {"start": "Conflans Fin d'Oise", "stop_name": "Maurecourt", "type": "Gare accessible", "transport": "transilien", "transport_legende": "\ud83d\udeb2 \u2764\ufe0f Transilien \ud83d\ude86"}, "geometry": {"type": "Point", "coordinates": [2.059634534011659, 48.986862412057214]}}, {"type": "Feature", "properties": {"start": "Conflans Fin d'Oise", "stop_name": "Conflans-Sainte-Honorine", "type": "Gare accessible", "transport": "transilien", "transport_legende": "\ud83d\udeb2 \u2764\ufe0f Transilien \ud83d\ude86"}, "geometry": {"type": "Point", "coordinates": [2.09871661352047, 48.996919424234726]}}, {"type": "Feature", "properties": {"start": "Conflans Fin d'Oise", "stop_name": "Herblay", "type": "Gare accessible", "transport": "transilien", "transport_legende": "\ud83d\udeb2 \u2764\ufe0f Transilien \ud83d\ude86"}, "geometry": {"type": "Point", "coordinates": [2.1622316587721904, 48.990136140429954]}}, {"type": "Feature", "properties": {"start": "Conflans Fin d'Oise", "stop_name": "La Frette - Montigny", "type": "Gare accessible", "transport": "transilien", "transport_legende": "\ud83d\udeb2 \u2764\ufe0f Transilien \ud83d\ude86"}, "geometry": {"type": "Point", "coordinates": [2.180341866372171, 48.97988373233732]}}, {"type": "Feature", "properties": {"start": "Conflans Fin d'Oise", "stop_name": "Cormeilles-en-Parisis", "type": "Gare accessible", "transport": "transilien", "transport_legende": "\ud83d\udeb2 \u2764\ufe0f Transilien \ud83d\ude86"}, "geometry": {"type": "Point", "coordinates": [2.1930511780913897, 48.9686435877584]}}, {"type": "Feature", "properties": {"start": "Conflans Fin d'Oise", "stop_name": "Val d'Argenteuil", "type": "Gare accessible", "transport": "transilien", "transport_legende": "\ud83d\udeb2 \u2764\ufe0f Transilien \ud83d\ude86"}, "geometry": {"type": "Point", "coordinates": [2.232694050053452, 48.95065749524003]}}, {"type": "Feature", "properties": {"start": "Conflans Fin d'Oise", "stop_name": "Argenteuil", "type": "Gare accessible", "transport": "transilien", "transport_legende": "\ud83d\udeb2 \u2764\ufe0f Transilien \ud83d\ude86"}, "geometry": {"type": "Point", "coordinates": [2.257913508915154, 48.9468952901277]}}, {"type": "Feature", "properties": {"start": "Conflans Fin d'Oise", "stop_name": "Gare Saint-Lazare", "type": "Gare accessible", "transport": "transilien", "transport_legende": "\ud83d\udeb2 \u2764\ufe0f Transilien \ud83d\ude86"}, "geometry": {"type": "Point", "coordinates": [2.3244386552397684, 48.87747568635212]}}, {"type": "Feature", "properties": {"start": "Conflans Fin d'Oise", "stop_name": "Poissy", "type": "Gare accessible", "transport": "transilien", "transport_legende": "\ud83d\udeb2 \u2764\ufe0f Transilien \ud83d\ude86"}, "geometry": {"type": "Point", "coordinates": [2.040804469960689, 48.93324983956547]}}, {"type": "Feature", "properties": {"start": "Conflans Fin d'Oise", "stop_name": "\u00c9ragny - Neuville", "type": "Gare accessible", "transport": "transilien", "transport_legende": "\ud83d\udeb2 \u2764\ufe0f Transilien \ud83d\ude86"}, "geometry": {"type": "Point", "coordinates": [2.090571123307668, 49.01790068888594]}}, {"type": "Feature", "properties": {"start": "Conflans Fin d'Oise", "stop_name": "Saint-Ouen-l'Aum\u00f4ne Quartier de l'\u00c9glise", "type": "Gare accessible", "transport": "transilien", "transport_legende": "\ud83d\udeb2 \u2764\ufe0f Transilien \ud83d\ude86"}, "geometry": {"type": "Point", "coordinates": [2.1034691329132857, 49.03909361746138]}}, {"type": "Feature", "properties": {"start": "Conflans Fin d'Oise", "stop_name": "Pontoise", "type": "Gare accessible", "transport": "transilien", "transport_legende": "\ud83d\udeb2 \u2764\ufe0f Transilien \ud83d\ude86"}, "geometry": {"type": "Point", "coordinates": [2.0957859968423524, 49.04673337596684]}}, {"type": "Feature", "properties": {"start": "Conflans Fin d'Oise", "stop_name": "Gisors", "type": "Gare accessible", "transport": "transilien", "transport_legende": "\ud83d\udeb2 \u2764\ufe0f Transilien \ud83d\ude86"}, "geometry": {"type": "Point", "coordinates": [1.784761124033206, 49.28550462482687]}}, {"type": "Feature", "properties": {"start": "Conflans Fin d'Oise", "stop_name": "Trie-Ch\u00e2teau", "type": "Gare accessible", "transport": "transilien", "transport_legende": "\ud83d\udeb2 \u2764\ufe0f Transilien \ud83d\ude86"}, "geometry": {"type": "Point", "coordinates": [1.818497020989674, 49.2824007109848]}}, {"type": "Feature", "properties": {"start": "Conflans Fin d'Oise", "stop_name": "Chaumont-en-Vexin", "type": "Gare accessible", "transport": "transilien", "transport_legende": "\ud83d\udeb2 \u2764\ufe0f Transilien \ud83d\ude86"}, "geometry": {"type": "Point", "coordinates": [1.8732362595841847, 49.26118959499568]}}, {"type": "Feature", "properties": {"start": "Conflans Fin d'Oise", "stop_name": "Liancourt-Saint-Pierre", "type": "Gare accessible", "transport": "transilien", "transport_legende": "\ud83d\udeb2 \u2764\ufe0f Transilien \ud83d\ude86"}, "geometry": {"type": "Point", "coordinates": [1.9054790812050528, 49.22054256178432]}}, {"type": "Feature", "properties": {"start": "Conflans Fin d'Oise", "stop_name": "Lavilletertre", "type": "Gare accessible", "transport": "transilien", "transport_legende": "\ud83d\udeb2 \u2764\ufe0f Transilien \ud83d\ude86"}, "geometry": {"type": "Point", "coordinates": [1.9205792747729, 49.20238205277644]}}, {"type": "Feature", "properties": {"start": "Conflans Fin d'Oise", "stop_name": "Chars", "type": "Gare accessible", "transport": "transilien", "transport_legende": "\ud83d\udeb2 \u2764\ufe0f Transilien \ud83d\ude86"}, "geometry": {"type": "Point", "coordinates": [1.936865953454158, 49.16300140123273]}}, {"type": "Feature", "properties": {"start": "Conflans Fin d'Oise", "stop_name": "Santeuil - Le Perchay", "type": "Gare accessible", "transport": "transilien", "transport_legende": "\ud83d\udeb2 \u2764\ufe0f Transilien \ud83d\ude86"}, "geometry": {"type": "Point", "coordinates": [1.949406923865895, 49.12334471123142]}}, {"type": "Feature", "properties": {"start": "Conflans Fin d'Oise", "stop_name": "Us", "type": "Gare accessible", "transport": "transilien", "transport_legende": "\ud83d\udeb2 \u2764\ufe0f Transilien \ud83d\ude86"}, "geometry": {"type": "Point", "coordinates": [1.9705444983242864, 49.09955483034093]}}, {"type": "Feature", "properties": {"start": "Conflans Fin d'Oise", "stop_name": "Montgeroult - Courcelles", "type": "Gare accessible", "transport": "transilien", "transport_legende": "\ud83d\udeb2 \u2764\ufe0f Transilien \ud83d\ude86"}, "geometry": {"type": "Point", "coordinates": [2.0029460458068105, 49.080811910011626]}}, {"type": "Feature", "properties": {"start": "Conflans Fin d'Oise", "stop_name": "Boissy-l'Aillerie", "type": "Gare accessible", "transport": "transilien", "transport_legende": "\ud83d\udeb2 \u2764\ufe0f Transilien \ud83d\ude86"}, "geometry": {"type": "Point", "coordinates": [2.025386064104548, 49.07572135804642]}}, {"type": "Feature", "properties": {"start": "Conflans Fin d'Oise", "stop_name": "Osny", "type": "Gare accessible", "transport": "transilien", "transport_legende": "\ud83d\udeb2 \u2764\ufe0f Transilien \ud83d\ude86"}, "geometry": {"type": "Point", "coordinates": [2.058155650874632, 49.06281914403825]}}, {"type": "Feature", "properties": {"start": "Conflans Fin d'Oise", "stop_name": "Torcy", "type": "Gare accessible", "transport": "transilien", "transport_legende": "\ud83d\udeb2 \u2764\ufe0f Transilien \ud83d\ude86"}, "geometry": {"type": "Point", "coordinates": [2.655169106193295, 48.83971015133779]}}, {"type": "Feature", "properties": {"start": "Conflans Fin d'Oise", "stop_name": "Lognes", "type": "Gare accessible", "transport": "transilien", "transport_legende": "\ud83d\udeb2 \u2764\ufe0f Transilien \ud83d\ude86"}, "geometry": {"type": "Point", "coordinates": [2.633026934567703, 48.839255049438655]}}, {"type": "Feature", "properties": {"start": "Conflans Fin d'Oise", "stop_name": "Noisiel", "type": "Gare accessible", "transport": "transilien", "transport_legende": "\ud83d\udeb2 \u2764\ufe0f Transilien \ud83d\ude86"}, "geometry": {"type": "Point", "coordinates": [2.616660606000051, 48.84351408493866]}}, {"type": "Feature", "properties": {"start": "Conflans Fin d'Oise", "stop_name": "Noisy - Champs", "type": "Gare accessible", "transport": "transilien", "transport_legende": "\ud83d\udeb2 \u2764\ufe0f Transilien \ud83d\ude86"}, "geometry": {"type": "Point", "coordinates": [2.580103342831972, 48.84289619599068]}}, {"type": "Feature", "properties": {"start": "Conflans Fin d'Oise", "stop_name": "Noisy-le-Grand - Mont d'Est", "type": "Gare accessible", "transport": "transilien", "transport_legende": "\ud83d\udeb2 \u2764\ufe0f Transilien \ud83d\ude86"}, "geometry": {"type": "Point", "coordinates": [2.550026754158765, 48.84088525041221]}}, {"type": "Feature", "properties": {"start": "Conflans Fin d'Oise", "stop_name": "Bry-sur-Marne", "type": "Gare accessible", "transport": "transilien", "transport_legende": "\ud83d\udeb2 \u2764\ufe0f Transilien \ud83d\ude86"}, "geometry": {"type": "Point", "coordinates": [2.525670945020106, 48.84513747628085]}}, {"type": "Feature", "properties": {"start": "Conflans Fin d'Oise", "stop_name": "Neuilly-Plaisance", "type": "Gare accessible", "transport": "transilien", "transport_legende": "\ud83d\udeb2 \u2764\ufe0f Transilien \ud83d\ude86"}, "geometry": {"type": "Point", "coordinates": [2.5145898211367705, 48.85252451313788]}}, {"type": "Feature", "properties": {"start": "Conflans Fin d'Oise", "stop_name": "Val de Fontenay", "type": "Gare accessible", "transport": "transilien", "transport_legende": "\ud83d\udeb2 \u2764\ufe0f Transilien \ud83d\ude86"}, "geometry": {"type": "Point", "coordinates": [2.4890536307751616, 48.85424654032024]}}, {"type": "Feature", "properties": {"start": "Conflans Fin d'Oise", "stop_name": "Marne-la-Vall\u00e9e Chessy", "type": "Gare accessible", "transport": "transilien", "transport_legende": "\ud83d\udeb2 \u2764\ufe0f Transilien \ud83d\ude86"}, "geometry": {"type": "Point", "coordinates": [2.7824826512673546, 48.86979506673141]}}, {"type": "Feature", "properties": {"start": "Conflans Fin d'Oise", "stop_name": "Val d'Europe", "type": "Gare accessible", "transport": "transilien", "transport_legende": "\ud83d\udeb2 \u2764\ufe0f Transilien \ud83d\ude86"}, "geometry": {"type": "Point", "coordinates": [2.772426894234028, 48.85484622851565]}}, {"type": "Feature", "properties": {"start": "Conflans Fin d'Oise", "stop_name": "Bussy-Saint-Georges", "type": "Gare accessible", "transport": "transilien", "transport_legende": "\ud83d\udeb2 \u2764\ufe0f Transilien \ud83d\ude86"}, "geometry": {"type": "Point", "coordinates": [2.710382839509696, 48.83671337078136]}}, {"type": "Feature", "properties": {"start": "Conflans Fin d'Oise", "stop_name": "Nanterre - Universit\u00e9 RER", "type": "Gare accessible", "transport": "transilien", "transport_legende": "\ud83d\udeb2 \u2764\ufe0f Transilien \ud83d\ude86"}, "geometry": {"type": "Point", "coordinates": [2.213305678667332, 48.90060661909857]}}, {"type": "Feature", "properties": {"start": "Conflans Fin d'Oise", "stop_name": "Gare de La Garenne-Colombes", "type": "Gare accessible", "transport": "transilien", "transport_legende": "\ud83d\udeb2 \u2764\ufe0f Transilien \ud83d\ude86"}, "geometry": {"type": "Point", "coordinates": [2.236189381075624, 48.90937925699904]}}, {"type": "Feature", "properties": {"start": "Conflans Fin d'Oise", "stop_name": "Les Vall\u00e9es", "type": "Gare accessible", "transport": "transilien", "transport_legende": "\ud83d\udeb2 \u2764\ufe0f Transilien \ud83d\ude86"}, "geometry": {"type": "Point", "coordinates": [2.2572045759752384, 48.91365276270651]}}, {"type": "Feature", "properties": {"start": "Conflans Fin d'Oise", "stop_name": "Place de Belgique", "type": "Gare accessible", "transport": "transilien", "transport_legende": "\ud83d\udeb2 \u2764\ufe0f Transilien \ud83d\ude86"}, "geometry": {"type": "Point", "coordinates": [2.2685128381221875, 48.90337570199484]}}, {"type": "Feature", "properties": {"start": "Conflans Fin d'Oise", "stop_name": "Rue de la Station", "type": "Gare accessible", "transport": "transilien", "transport_legende": "\ud83d\udeb2 \u2764\ufe0f Transilien \ud83d\ude86"}, "geometry": {"type": "Point", "coordinates": [2.2862735514302344, 48.90641463115114]}}, {"type": "Feature", "properties": {"start": "Conflans Fin d'Oise", "stop_name": "Gare de Clichy - Levallois", "type": "Gare accessible", "transport": "transilien", "transport_legende": "\ud83d\udeb2 \u2764\ufe0f Transilien \ud83d\ude86"}, "geometry": {"type": "Point", "coordinates": [2.2985594842830053, 48.89672958963551]}}, {"type": "Feature", "properties": {"start": "Conflans Fin d'Oise", "stop_name": "Pont Cardinet", "type": "Gare accessible", "transport": "transilien", "transport_legende": "\ud83d\udeb2 \u2764\ufe0f Transilien \ud83d\ude86"}, "geometry": {"type": "Point", "coordinates": [2.312950431098551, 48.88839532721545]}}, {"type": "Feature", "properties": {"start": "Conflans Fin d'Oise", "stop_name": "Nanterre Universit\u00e9", "type": "Gare accessible", "transport": "transilien", "transport_legende": "\ud83d\udeb2 \u2764\ufe0f Transilien \ud83d\ude86"}, "geometry": {"type": "Point", "coordinates": [2.213536495127317, 48.90112974604822]}}, {"type": "Feature", "properties": {"start": "Conflans Fin d'Oise", "stop_name": "La Garenne-Colombes", "type": "Gare accessible", "transport": "transilien", "transport_legende": "\ud83d\udeb2 \u2764\ufe0f Transilien \ud83d\ude86"}, "geometry": {"type": "Point", "coordinates": [2.2397947530458278, 48.90957685679064]}}, {"type": "Feature", "properties": {"start": "Conflans Fin d'Oise", "stop_name": "B\u00e9con les Bruy\u00e8res", "type": "Gare accessible", "transport": "transilien", "transport_legende": "\ud83d\udeb2 \u2764\ufe0f Transilien \ud83d\ude86"}, "geometry": {"type": "Point", "coordinates": [2.268790065027107, 48.90549079769296]}}, {"type": "Feature", "properties": {"start": "Conflans Fin d'Oise", "stop_name": "Asni\u00e8res-sur-Seine", "type": "Gare accessible", "transport": "transilien", "transport_legende": "\ud83d\udeb2 \u2764\ufe0f Transilien \ud83d\ude86"}, "geometry": {"type": "Point", "coordinates": [2.2832114335873186, 48.90587474197106]}}, {"type": "Feature", "properties": {"start": "Conflans Fin d'Oise", "stop_name": "Clichy - Levallois", "type": "Gare accessible", "transport": "transilien", "transport_legende": "\ud83d\udeb2 \u2764\ufe0f Transilien \ud83d\ude86"}, "geometry": {"type": "Point", "coordinates": [2.2974715210323566, 48.89750112711205]}}, {"type": "Feature", "properties": {"start": "Conflans Fin d'Oise", "stop_name": "Gare d'Argenteuil", "type": "Gare accessible", "transport": "transilien", "transport_legende": "\ud83d\udeb2 \u2764\ufe0f Transilien \ud83d\ude86"}, "geometry": {"type": "Point", "coordinates": [2.2574327819077094, 48.94661803093192]}}, {"type": "Feature", "properties": {"start": "Conflans Fin d'Oise", "stop_name": "Gare de Cormeilles en Parisis", "type": "Gare accessible", "transport": "transilien", "transport_legende": "\ud83d\udeb2 \u2764\ufe0f Transilien \ud83d\ude86"}, "geometry": {"type": "Point", "coordinates": [2.194111796010436, 48.96851133173576]}}, {"type": "Feature", "properties": {"start": "Conflans Fin d'Oise", "stop_name": "Place Coutisson", "type": "Gare accessible", "transport": "transilien", "transport_legende": "\ud83d\udeb2 \u2764\ufe0f Transilien \ud83d\ude86"}, "geometry": {"type": "Point", "coordinates": [2.097496390224522, 48.99635720614124]}}, {"type": "Feature", "properties": {"start": "Conflans Fin d'Oise", "stop_name": "Foch Pasteur - Maurecourt", "type": "Gare accessible", "transport": "transilien", "transport_legende": "\ud83d\udeb2 \u2764\ufe0f Transilien \ud83d\ude86"}, "geometry": {"type": "Point", "coordinates": [2.064363853548564, 48.987533377298526]}}, {"type": "Feature", "properties": {"start": "Conflans Fin d'Oise", "stop_name": "Gare de Chanteloup-les-Vignes", "type": "Gare accessible", "transport": "transilien", "transport_legende": "\ud83d\udeb2 \u2764\ufe0f Transilien \ud83d\ude86"}, "geometry": {"type": "Point", "coordinates": [2.027638020100813, 48.97055056111148]}}, {"type": "Feature", "properties": {"start": "Conflans Fin d'Oise", "stop_name": "Gare de Triel-sur-Seine", "type": "Gare accessible", "transport": "transilien", "transport_legende": "\ud83d\udeb2 \u2764\ufe0f Transilien \ud83d\ude86"}, "geometry": {"type": "Point", "coordinates": [2.005654048684108, 48.98082909711723]}}, {"type": "Feature", "properties": {"start": "Conflans Fin d'Oise", "stop_name": "Cacao Barry - Meulan Hardricourt", "type": "Gare accessible", "transport": "transilien", "transport_legende": "\ud83d\udeb2 \u2764\ufe0f Transilien \ud83d\ude86"}, "geometry": {"type": "Point", "coordinates": [1.9017153686545123, 49.00508477258868]}}, {"type": "Feature", "properties": {"start": "Conflans Fin d'Oise", "stop_name": "Gare de Juziers", "type": "Gare accessible", "transport": "transilien", "transport_legende": "\ud83d\udeb2 \u2764\ufe0f Transilien \ud83d\ude86"}, "geometry": {"type": "Point", "coordinates": [1.8456212983506992, 48.99258865891842]}}, {"type": "Feature", "properties": {"start": "Conflans Fin d'Oise", "stop_name": "Place Robespierre", "type": "Gare accessible", "transport": "transilien", "transport_legende": "\ud83d\udeb2 \u2764\ufe0f Transilien \ud83d\ude86"}, "geometry": {"type": "Point", "coordinates": [1.745911588745307, 48.98530161323569]}}, {"type": "Feature", "properties": {"start": "Conflans Fin d'Oise", "stop_name": "Calmette - Mantes Station", "type": "Gare accessible", "transport": "transilien", "transport_legende": "\ud83d\udeb2 \u2764\ufe0f Transilien \ud83d\ude86"}, "geometry": {"type": "Point", "coordinates": [1.716026210470374, 48.98369942603822]}}, {"type": "Feature", "properties": {"start": "Conflans Fin d'Oise", "stop_name": "Mantes la Jolie", "type": "Gare accessible", "transport": "transilien", "transport_legende": "\ud83d\udeb2 \u2764\ufe0f Transilien \ud83d\ude86"}, "geometry": {"type": "Point", "coordinates": [1.7050685546106672, 48.98750274305828]}}, {"type": "Feature", "properties": {"start": "Conflans Fin d'Oise", "stop_name": "Gare de Poissy", "type": "Gare accessible", "transport": "transilien", "transport_legende": "\ud83d\udeb2 \u2764\ufe0f Transilien \ud83d\ude86"}, "geometry": {"type": "Point", "coordinates": [2.041508186816997, 48.93246856087812]}}]}