{"type": "FeatureCollection", "features": [{"type": "Feature", "properties": {"start": "Enghien-les-Bains", "stop_name": "Enghien-les-Bains", "type": "Gare s\u00e9lectionn\u00e9e", "transport": "transilien", "nombre_trajet_moyen": 0.8, "transport_legende": "\ud83d\udeb2 \u2764\ufe0f Transilien \ud83d\ude86"}, "geometry": {"type": "Point", "coordinates": [2.306793374168272, 48.97288052394267]}}, {"type": "Feature", "properties": {"start": "Enghien-les-Bains", "stop_name": "Pontoise", "type": "Gare accessible", "transport": "transilien", "nombre_trajet_moyen": 0.77, "transport_legende": "\ud83d\udeb2 \u2764\ufe0f Transilien \ud83d\ude86"}, "geometry": {"type": "Point", "coordinates": [2.0957859968423524, 49.04673337596684]}}, {"type": "Feature", "properties": {"start": "Enghien-les-Bains", "stop_name": "Saint-Ouen-l'Aum\u00f4ne", "type": "Gare accessible", "transport": "transilien", "nombre_trajet_moyen": 0.77, "transport_legende": "\ud83d\udeb2 \u2764\ufe0f Transilien \ud83d\ude86"}, "geometry": {"type": "Point", "coordinates": [2.105230857870794, 49.04530690087292]}}, {"type": "Feature", "properties": {"start": "Enghien-les-Bains", "stop_name": "Saint-Ouen-l'Aum\u00f4ne Liesse", "type": "Gare accessible", "transport": "transilien", "nombre_trajet_moyen": 0.77, "transport_legende": "\ud83d\udeb2 \u2764\ufe0f Transilien \ud83d\ude86"}, "geometry": {"type": "Point", "coordinates": [2.128124092657316, 49.0341234164973]}}, {"type": "Feature", "properties": {"start": "Enghien-les-Bains", "stop_name": "Pierrelaye", "type": "Gare accessible", "transport": "transilien", "nombre_trajet_moyen": 0.77, "transport_legende": "\ud83d\udeb2 \u2764\ufe0f Transilien \ud83d\ude86"}, "geometry": {"type": "Point", "coordinates": [2.1545313948758564, 49.01917957374756]}}, {"type": "Feature", "properties": {"start": "Enghien-les-Bains", "stop_name": "Montigny - Beauchamp", "type": "Gare accessible", "transport": "transilien", "nombre_trajet_moyen": 0.77, "transport_legende": "\ud83d\udeb2 \u2764\ufe0f Transilien \ud83d\ude86"}, "geometry": {"type": "Point", "coordinates": [2.1965151756043038, 49.007744118117]}}, {"type": "Feature", "properties": {"start": "Enghien-les-Bains", "stop_name": "Franconville - Le Plessis-Bouchard", "type": "Gare accessible", "transport": "transilien", "nombre_trajet_moyen": 0.77, "transport_legende": "\ud83d\udeb2 \u2764\ufe0f Transilien \ud83d\ude86"}, "geometry": {"type": "Point", "coordinates": [2.2341907839306554, 48.99374640051787]}}, {"type": "Feature", "properties": {"start": "Enghien-les-Bains", "stop_name": "Cernay", "type": "Gare accessible", "transport": "transilien", "nombre_trajet_moyen": 0.77, "transport_legende": "\ud83d\udeb2 \u2764\ufe0f Transilien \ud83d\ude86"}, "geometry": {"type": "Point", "coordinates": [2.257017857907824, 48.985149200200375]}}, {"type": "Feature", "properties": {"start": "Enghien-les-Bains", "stop_name": "Ermont - Eaubonne", "type": "Gare accessible", "transport": "transilien", "nombre_trajet_moyen": 0.8, "transport_legende": "\ud83d\udeb2 \u2764\ufe0f Transilien \ud83d\ude86"}, "geometry": {"type": "Point", "coordinates": [2.2707541014797794, 48.98049890628609]}}, {"type": "Feature", "properties": {"start": "Enghien-les-Bains", "stop_name": "Champ de Courses d'Enghien", "type": "Gare accessible", "transport": "transilien", "nombre_trajet_moyen": 0.8, "transport_legende": "\ud83d\udeb2 \u2764\ufe0f Transilien \ud83d\ude86"}, "geometry": {"type": "Point", "coordinates": [2.291148632256432, 48.9796949197308]}}, {"type": "Feature", "properties": {"start": "Enghien-les-Bains", "stop_name": "La Barre Ormesson", "type": "Gare accessible", "transport": "transilien", "nombre_trajet_moyen": 0.8, "transport_legende": "\ud83d\udeb2 \u2764\ufe0f Transilien \ud83d\ude86"}, "geometry": {"type": "Point", "coordinates": [2.3167036448125224, 48.96628415206348]}}, {"type": "Feature", "properties": {"start": "Enghien-les-Bains", "stop_name": "\u00c9pinay - Villetaneuse", "type": "Gare accessible", "transport": "transilien", "nombre_trajet_moyen": 0.8, "transport_legende": "\ud83d\udeb2 \u2764\ufe0f Transilien \ud83d\ude86"}, "geometry": {"type": "Point", "coordinates": [2.3287601965958715, 48.95792884911306]}}, {"type": "Feature", "properties": {"start": "Enghien-les-Bains", "stop_name": "Saint-Denis", "type": "Gare accessible", "transport": "transilien", "nombre_trajet_moyen": 0.8, "transport_legende": "\ud83d\udeb2 \u2764\ufe0f Transilien \ud83d\ude86"}, "geometry": {"type": "Point", "coordinates": [2.345479004987329, 48.93482889939617]}}, {"type": "Feature", "properties": {"start": "Enghien-les-Bains", "stop_name": "Gare du Nord", "type": "Gare accessible", "transport": "transilien", "nombre_trajet_moyen": 0.8, "transport_legende": "\ud83d\udeb2 \u2764\ufe0f Transilien \ud83d\ude86"}, "geometry": {"type": "Point", "coordinates": [2.356693437528564, 48.88230685842714]}}, {"type": "Feature", "properties": {"start": "Enghien-les-Bains", "stop_name": "Saint-Leu-la-For\u00eat", "type": "Gare accessible", "transport": "transilien", "nombre_trajet_moyen": 0.53, "transport_legende": "\ud83d\udeb2 \u2764\ufe0f Transilien \ud83d\ude86"}, "geometry": {"type": "Point", "coordinates": [2.2428869689226687, 49.01523840177278]}}, {"type": "Feature", "properties": {"start": "Enghien-les-Bains", "stop_name": "Gros Noyer Saint-Prix", "type": "Gare accessible", "transport": "transilien", "nombre_trajet_moyen": 0.53, "transport_legende": "\ud83d\udeb2 \u2764\ufe0f Transilien \ud83d\ude86"}, "geometry": {"type": "Point", "coordinates": [2.2596836105712628, 48.99607903406629]}}, {"type": "Feature", "properties": {"start": "Enghien-les-Bains", "stop_name": "Ermont Halte", "type": "Gare accessible", "transport": "transilien", "nombre_trajet_moyen": 0.53, "transport_legende": "\ud83d\udeb2 \u2764\ufe0f Transilien \ud83d\ude86"}, "geometry": {"type": "Point", "coordinates": [2.26320025038274, 48.990533377371726]}}, {"type": "Feature", "properties": {"start": "Enghien-les-Bains", "stop_name": "Persan - Beaumont", "type": "Gare accessible", "transport": "transilien", "nombre_trajet_moyen": 0.5, "transport_legende": "\ud83d\udeb2 \u2764\ufe0f Transilien \ud83d\ude86"}, "geometry": {"type": "Point", "coordinates": [2.2777997330536137, 49.14758294460079]}}, {"type": "Feature", "properties": {"start": "Enghien-les-Bains", "stop_name": "Champagne-sur-Oise", "type": "Gare accessible", "transport": "transilien", "nombre_trajet_moyen": 0.5, "transport_legende": "\ud83d\udeb2 \u2764\ufe0f Transilien \ud83d\ude86"}, "geometry": {"type": "Point", "coordinates": [2.242987667830016, 49.136089580289706]}}, {"type": "Feature", "properties": {"start": "Enghien-les-Bains", "stop_name": "L'Isle-Adam - Parmain", "type": "Gare accessible", "transport": "transilien", "nombre_trajet_moyen": 0.5, "transport_legende": "\ud83d\udeb2 \u2764\ufe0f Transilien \ud83d\ude86"}, "geometry": {"type": "Point", "coordinates": [2.209941858169547, 49.11454854558362]}}, {"type": "Feature", "properties": {"start": "Enghien-les-Bains", "stop_name": "Valmondois", "type": "Gare accessible", "transport": "transilien", "nombre_trajet_moyen": 0.53, "transport_legende": "\ud83d\udeb2 \u2764\ufe0f Transilien \ud83d\ude86"}, "geometry": {"type": "Point", "coordinates": [2.2019152338634327, 49.09093718795672]}}, {"type": "Feature", "properties": {"start": "Enghien-les-Bains", "stop_name": "M\u00e9riel", "type": "Gare accessible", "transport": "transilien", "nombre_trajet_moyen": 0.53, "transport_legende": "\ud83d\udeb2 \u2764\ufe0f Transilien \ud83d\ude86"}, "geometry": {"type": "Point", "coordinates": [2.205438463461229, 49.07775311707399]}}, {"type": "Feature", "properties": {"start": "Enghien-les-Bains", "stop_name": "M\u00e9ry-sur-Oise", "type": "Gare accessible", "transport": "transilien", "nombre_trajet_moyen": 0.53, "transport_legende": "\ud83d\udeb2 \u2764\ufe0f Transilien \ud83d\ude86"}, "geometry": {"type": "Point", "coordinates": [2.19141823646768, 49.058277435287074]}}, {"type": "Feature", "properties": {"start": "Enghien-les-Bains", "stop_name": "Fr\u00e9pillon", "type": "Gare accessible", "transport": "transilien", "nombre_trajet_moyen": 0.53, "transport_legende": "\ud83d\udeb2 \u2764\ufe0f Transilien \ud83d\ude86"}, "geometry": {"type": "Point", "coordinates": [2.197098920791642, 49.04527720662213]}}, {"type": "Feature", "properties": {"start": "Enghien-les-Bains", "stop_name": "Bessancourt", "type": "Gare accessible", "transport": "transilien", "nombre_trajet_moyen": 0.53, "transport_legende": "\ud83d\udeb2 \u2764\ufe0f Transilien \ud83d\ude86"}, "geometry": {"type": "Point", "coordinates": [2.2103009348975013, 49.03527556641014]}}, {"type": "Feature", "properties": {"start": "Enghien-les-Bains", "stop_name": "Taverny", "type": "Gare accessible", "transport": "transilien", "nombre_trajet_moyen": 0.53, "transport_legende": "\ud83d\udeb2 \u2764\ufe0f Transilien \ud83d\ude86"}, "geometry": {"type": "Point", "coordinates": [2.222287008769188, 49.0249763828466]}}, {"type": "Feature", "properties": {"start": "Enghien-les-Bains", "stop_name": "Vaucelles", "type": "Gare accessible", "transport": "transilien", "nombre_trajet_moyen": 0.53, "transport_legende": "\ud83d\udeb2 \u2764\ufe0f Transilien \ud83d\ude86"}, "geometry": {"type": "Point", "coordinates": [2.2294526219892656, 49.02172683988197]}}]}