{"type": "FeatureCollection", "features": [{"type": "Feature", "properties": {"start": "Ermont - Eaubonne", "stop_name": "Ermont - Eaubonne", "type": "Gare s\u00e9lectionn\u00e9e", "transport": "transilien", "transport_legende": "\ud83d\udeb2 \u2764\ufe0f Transilien \ud83d\ude86"}, "geometry": {"type": "Point", "coordinates": [2.2707541014797794, 48.98049890628609]}}, {"type": "Feature", "properties": {"start": "Ermont - Eaubonne", "stop_name": "Montigny - Beauchamp", "type": "Gare accessible", "transport": "transilien", "transport_legende": "\ud83d\udeb2 \u2764\ufe0f Transilien \ud83d\ude86"}, "geometry": {"type": "Point", "coordinates": [2.1965151756043038, 49.007744118117]}}, {"type": "Feature", "properties": {"start": "Ermont - Eaubonne", "stop_name": "Franconville - Le Plessis-Bouchard", "type": "Gare accessible", "transport": "transilien", "transport_legende": "\ud83d\udeb2 \u2764\ufe0f Transilien \ud83d\ude86"}, "geometry": {"type": "Point", "coordinates": [2.2341907839306554, 48.99374640051787]}}, {"type": "Feature", "properties": {"start": "Ermont - Eaubonne", "stop_name": "Cernay", "type": "Gare accessible", "transport": "transilien", "transport_legende": "\ud83d\udeb2 \u2764\ufe0f Transilien \ud83d\ude86"}, "geometry": {"type": "Point", "coordinates": [2.257017857907824, 48.985149200200375]}}, {"type": "Feature", "properties": {"start": "Ermont - Eaubonne", "stop_name": "Saint-Gratien", "type": "Gare accessible", "transport": "transilien", "transport_legende": "\ud83d\udeb2 \u2764\ufe0f Transilien \ud83d\ude86"}, "geometry": {"type": "Point", "coordinates": [2.285777828585351, 48.96365827352943]}}, {"type": "Feature", "properties": {"start": "Ermont - Eaubonne", "stop_name": "\u00c9pinay-sur-Seine", "type": "Gare accessible", "transport": "transilien", "transport_legende": "\ud83d\udeb2 \u2764\ufe0f Transilien \ud83d\ude86"}, "geometry": {"type": "Point", "coordinates": [2.302388375122374, 48.95382604164122]}}, {"type": "Feature", "properties": {"start": "Ermont - Eaubonne", "stop_name": "Gennevilliers", "type": "Gare accessible", "transport": "transilien", "transport_legende": "\ud83d\udeb2 \u2764\ufe0f Transilien \ud83d\ude86"}, "geometry": {"type": "Point", "coordinates": [2.307982254553742, 48.93282405536431]}}, {"type": "Feature", "properties": {"start": "Ermont - Eaubonne", "stop_name": "Les Gr\u00e9sillons", "type": "Gare accessible", "transport": "transilien", "transport_legende": "\ud83d\udeb2 \u2764\ufe0f Transilien \ud83d\ude86"}, "geometry": {"type": "Point", "coordinates": [2.313901968217972, 48.9206901983449]}}, {"type": "Feature", "properties": {"start": "Ermont - Eaubonne", "stop_name": "Saint-Ouen", "type": "Gare accessible", "transport": "transilien", "transport_legende": "\ud83d\udeb2 \u2764\ufe0f Transilien \ud83d\ude86"}, "geometry": {"type": "Point", "coordinates": [2.322694729473372, 48.90456082213364]}}, {"type": "Feature", "properties": {"start": "Ermont - Eaubonne", "stop_name": "Porte de Clichy", "type": "Gare accessible", "transport": "transilien", "transport_legende": "\ud83d\udeb2 \u2764\ufe0f Transilien \ud83d\ude86"}, "geometry": {"type": "Point", "coordinates": [2.315941153551472, 48.89426256830957]}}, {"type": "Feature", "properties": {"start": "Ermont - Eaubonne", "stop_name": "P\u00e9reire Levallois", "type": "Gare accessible", "transport": "transilien", "transport_legende": "\ud83d\udeb2 \u2764\ufe0f Transilien \ud83d\ude86"}, "geometry": {"type": "Point", "coordinates": [2.2992286819828145, 48.88602700780433]}}, {"type": "Feature", "properties": {"start": "Ermont - Eaubonne", "stop_name": "Neuilly Porte Maillot", "type": "Gare accessible", "transport": "transilien", "transport_legende": "\ud83d\udeb2 \u2764\ufe0f Transilien \ud83d\ude86"}, "geometry": {"type": "Point", "coordinates": [2.284217509613705, 48.87834780404864]}}, {"type": "Feature", "properties": {"start": "Ermont - Eaubonne", "stop_name": "Avenue Foch", "type": "Gare accessible", "transport": "transilien", "transport_legende": "\ud83d\udeb2 \u2764\ufe0f Transilien \ud83d\ude86"}, "geometry": {"type": "Point", "coordinates": [2.2747712644338454, 48.86985281215763]}}, {"type": "Feature", "properties": {"start": "Ermont - Eaubonne", "stop_name": "Avenue Henri Martin", "type": "Gare accessible", "transport": "transilien", "transport_legende": "\ud83d\udeb2 \u2764\ufe0f Transilien \ud83d\ude86"}, "geometry": {"type": "Point", "coordinates": [2.2722351438875577, 48.86545537297977]}}, {"type": "Feature", "properties": {"start": "Ermont - Eaubonne", "stop_name": "Pont de Rungis A\u00e9roport d'Orly", "type": "Gare accessible", "transport": "transilien", "transport_legende": "\ud83d\udeb2 \u2764\ufe0f Transilien \ud83d\ude86"}, "geometry": {"type": "Point", "coordinates": [2.373209854795934, 48.74834625868034]}}, {"type": "Feature", "properties": {"start": "Ermont - Eaubonne", "stop_name": "Orly Ville", "type": "Gare accessible", "transport": "transilien", "transport_legende": "\ud83d\udeb2 \u2764\ufe0f Transilien \ud83d\ude86"}, "geometry": {"type": "Point", "coordinates": [2.4030548924063897, 48.74163230680523]}}, {"type": "Feature", "properties": {"start": "Ermont - Eaubonne", "stop_name": "Les Saules", "type": "Gare accessible", "transport": "transilien", "transport_legende": "\ud83d\udeb2 \u2764\ufe0f Transilien \ud83d\ude86"}, "geometry": {"type": "Point", "coordinates": [2.4174549898851208, 48.74520105223681]}}, {"type": "Feature", "properties": {"start": "Ermont - Eaubonne", "stop_name": "Choisy-le-Roi", "type": "Gare accessible", "transport": "transilien", "transport_legende": "\ud83d\udeb2 \u2764\ufe0f Transilien \ud83d\ude86"}, "geometry": {"type": "Point", "coordinates": [2.411287538155699, 48.76387977763339]}}, {"type": "Feature", "properties": {"start": "Ermont - Eaubonne", "stop_name": "Les Ardoines", "type": "Gare accessible", "transport": "transilien", "transport_legende": "\ud83d\udeb2 \u2764\ufe0f Transilien \ud83d\ude86"}, "geometry": {"type": "Point", "coordinates": [2.409587305033223, 48.78248922625494]}}, {"type": "Feature", "properties": {"start": "Ermont - Eaubonne", "stop_name": "Vitry-sur-Seine", "type": "Gare accessible", "transport": "transilien", "transport_legende": "\ud83d\udeb2 \u2764\ufe0f Transilien \ud83d\ude86"}, "geometry": {"type": "Point", "coordinates": [2.40269438767449, 48.80028105254759]}}, {"type": "Feature", "properties": {"start": "Ermont - Eaubonne", "stop_name": "Ivry-sur-Seine", "type": "Gare accessible", "transport": "transilien", "transport_legende": "\ud83d\udeb2 \u2764\ufe0f Transilien \ud83d\ude86"}, "geometry": {"type": "Point", "coordinates": [2.391677280020743, 48.8139591342409]}}, {"type": "Feature", "properties": {"start": "Ermont - Eaubonne", "stop_name": "Biblioth\u00e8que Fran\u00e7ois Mitterrand", "type": "Gare accessible", "transport": "transilien", "transport_legende": "\ud83d\udeb2 \u2764\ufe0f Transilien \ud83d\ude86"}, "geometry": {"type": "Point", "coordinates": [2.377826283136205, 48.82891195295035]}}, {"type": "Feature", "properties": {"start": "Ermont - Eaubonne", "stop_name": "Gare d'Austerlitz", "type": "Gare accessible", "transport": "transilien", "transport_legende": "\ud83d\udeb2 \u2764\ufe0f Transilien \ud83d\ude86"}, "geometry": {"type": "Point", "coordinates": [2.367818767583529, 48.84032035638395]}}, {"type": "Feature", "properties": {"start": "Ermont - Eaubonne", "stop_name": "Mus\u00e9e d'Orsay", "type": "Gare accessible", "transport": "transilien", "transport_legende": "\ud83d\udeb2 \u2764\ufe0f Transilien \ud83d\ude86"}, "geometry": {"type": "Point", "coordinates": [2.326623034830927, 48.860365575927474]}}, {"type": "Feature", "properties": {"start": "Ermont - Eaubonne", "stop_name": "Invalides", "type": "Gare accessible", "transport": "transilien", "transport_legende": "\ud83d\udeb2 \u2764\ufe0f Transilien \ud83d\ude86"}, "geometry": {"type": "Point", "coordinates": [2.3126576509104404, 48.8627130056211]}}, {"type": "Feature", "properties": {"start": "Ermont - Eaubonne", "stop_name": "Pont de l'Alma", "type": "Gare accessible", "transport": "transilien", "transport_legende": "\ud83d\udeb2 \u2764\ufe0f Transilien \ud83d\ude86"}, "geometry": {"type": "Point", "coordinates": [2.3003592740110994, 48.86247496310803]}}, {"type": "Feature", "properties": {"start": "Ermont - Eaubonne", "stop_name": "Champ de Mars Tour Eiffel", "type": "Gare accessible", "transport": "transilien", "transport_legende": "\ud83d\udeb2 \u2764\ufe0f Transilien \ud83d\ude86"}, "geometry": {"type": "Point", "coordinates": [2.289656249386548, 48.8564765666592]}}, {"type": "Feature", "properties": {"start": "Ermont - Eaubonne", "stop_name": "Avenue du Pr\u00e9sident Kennedy Maison de Radio France", "type": "Gare accessible", "transport": "transilien", "transport_legende": "\ud83d\udeb2 \u2764\ufe0f Transilien \ud83d\ude86"}, "geometry": {"type": "Point", "coordinates": [2.279679454187814, 48.85352548506894]}}, {"type": "Feature", "properties": {"start": "Ermont - Eaubonne", "stop_name": "Boulainvilliers", "type": "Gare accessible", "transport": "transilien", "transport_legende": "\ud83d\udeb2 \u2764\ufe0f Transilien \ud83d\ude86"}, "geometry": {"type": "Point", "coordinates": [2.274806827480264, 48.856981095562965]}}, {"type": "Feature", "properties": {"start": "Ermont - Eaubonne", "stop_name": "Dourdan", "type": "Gare accessible", "transport": "transilien", "transport_legende": "\ud83d\udeb2 \u2764\ufe0f Transilien \ud83d\ude86"}, "geometry": {"type": "Point", "coordinates": [2.008756915662106, 48.53376051220457]}}, {"type": "Feature", "properties": {"start": "Ermont - Eaubonne", "stop_name": "Sermaise", "type": "Gare accessible", "transport": "transilien", "transport_legende": "\ud83d\udeb2 \u2764\ufe0f Transilien \ud83d\ude86"}, "geometry": {"type": "Point", "coordinates": [2.069088468619773, 48.535687624993614]}}, {"type": "Feature", "properties": {"start": "Ermont - Eaubonne", "stop_name": "Saint-Ch\u00e9ron", "type": "Gare accessible", "transport": "transilien", "transport_legende": "\ud83d\udeb2 \u2764\ufe0f Transilien \ud83d\ude86"}, "geometry": {"type": "Point", "coordinates": [2.1249767315730463, 48.55093774535708]}}, {"type": "Feature", "properties": {"start": "Ermont - Eaubonne", "stop_name": "Breuillet Village", "type": "Gare accessible", "transport": "transilien", "transport_legende": "\ud83d\udeb2 \u2764\ufe0f Transilien \ud83d\ude86"}, "geometry": {"type": "Point", "coordinates": [2.170354257290333, 48.56433413404574]}}, {"type": "Feature", "properties": {"start": "Ermont - Eaubonne", "stop_name": "Breuillet - Bruy\u00e8res-le-Ch\u00e2tel", "type": "Gare accessible", "transport": "transilien", "transport_legende": "\ud83d\udeb2 \u2764\ufe0f Transilien \ud83d\ude86"}, "geometry": {"type": "Point", "coordinates": [2.1922487394356454, 48.57760979436327]}}, {"type": "Feature", "properties": {"start": "Ermont - Eaubonne", "stop_name": "\u00c9gly", "type": "Gare accessible", "transport": "transilien", "transport_legende": "\ud83d\udeb2 \u2764\ufe0f Transilien \ud83d\ude86"}, "geometry": {"type": "Point", "coordinates": [2.2234625238542307, 48.582715781664064]}}, {"type": "Feature", "properties": {"start": "Ermont - Eaubonne", "stop_name": "Arpajon", "type": "Gare accessible", "transport": "transilien", "transport_legende": "\ud83d\udeb2 \u2764\ufe0f Transilien \ud83d\ude86"}, "geometry": {"type": "Point", "coordinates": [2.2412169696111426, 48.58599680822646]}}, {"type": "Feature", "properties": {"start": "Ermont - Eaubonne", "stop_name": "La Norville - Saint-Germain-l\u00e8s-Arpajon", "type": "Gare accessible", "transport": "transilien", "transport_legende": "\ud83d\udeb2 \u2764\ufe0f Transilien \ud83d\ude86"}, "geometry": {"type": "Point", "coordinates": [2.266215906699314, 48.59111916474817]}}, {"type": "Feature", "properties": {"start": "Ermont - Eaubonne", "stop_name": "Br\u00e9tigny", "type": "Gare accessible", "transport": "transilien", "transport_legende": "\ud83d\udeb2 \u2764\ufe0f Transilien \ud83d\ude86"}, "geometry": {"type": "Point", "coordinates": [2.30195738288606, 48.60664906621052]}}, {"type": "Feature", "properties": {"start": "Ermont - Eaubonne", "stop_name": "Saint-Michel-sur-Orge", "type": "Gare accessible", "transport": "transilien", "transport_legende": "\ud83d\udeb2 \u2764\ufe0f Transilien \ud83d\ude86"}, "geometry": {"type": "Point", "coordinates": [2.3068029676156123, 48.635615525211605]}}, {"type": "Feature", "properties": {"start": "Ermont - Eaubonne", "stop_name": "Sainte-Genevi\u00e8ve-des-Bois", "type": "Gare accessible", "transport": "transilien", "transport_legende": "\ud83d\udeb2 \u2764\ufe0f Transilien \ud83d\ude86"}, "geometry": {"type": "Point", "coordinates": [2.3129608959702024, 48.65295347339147]}}, {"type": "Feature", "properties": {"start": "Ermont - Eaubonne", "stop_name": "\u00c9pinay-sur-Orge", "type": "Gare accessible", "transport": "transilien", "transport_legende": "\ud83d\udeb2 \u2764\ufe0f Transilien \ud83d\ude86"}, "geometry": {"type": "Point", "coordinates": [2.332043500451718, 48.6693475106473]}}, {"type": "Feature", "properties": {"start": "Ermont - Eaubonne", "stop_name": "Savigny-sur-Orge", "type": "Gare accessible", "transport": "transilien", "transport_legende": "\ud83d\udeb2 \u2764\ufe0f Transilien \ud83d\ude86"}, "geometry": {"type": "Point", "coordinates": [2.352354180405684, 48.67639468866699]}}, {"type": "Feature", "properties": {"start": "Ermont - Eaubonne", "stop_name": "Juvisy", "type": "Gare accessible", "transport": "transilien", "transport_legende": "\ud83d\udeb2 \u2764\ufe0f Transilien \ud83d\ude86"}, "geometry": {"type": "Point", "coordinates": [2.383334629403869, 48.68970940912314]}}, {"type": "Feature", "properties": {"start": "Ermont - Eaubonne", "stop_name": "Pierrelaye", "type": "Gare accessible", "transport": "transilien", "transport_legende": "\ud83d\udeb2 \u2764\ufe0f Transilien \ud83d\ude86"}, "geometry": {"type": "Point", "coordinates": [2.1545313948758564, 49.01917957374756]}}, {"type": "Feature", "properties": {"start": "Ermont - Eaubonne", "stop_name": "Saint-Ouen-l'Aum\u00f4ne Liesse", "type": "Gare accessible", "transport": "transilien", "transport_legende": "\ud83d\udeb2 \u2764\ufe0f Transilien \ud83d\ude86"}, "geometry": {"type": "Point", "coordinates": [2.128124092657316, 49.0341234164973]}}, {"type": "Feature", "properties": {"start": "Ermont - Eaubonne", "stop_name": "Saint-Ouen-l'Aum\u00f4ne", "type": "Gare accessible", "transport": "transilien", "transport_legende": "\ud83d\udeb2 \u2764\ufe0f Transilien \ud83d\ude86"}, "geometry": {"type": "Point", "coordinates": [2.105230857870794, 49.04530690087292]}}, {"type": "Feature", "properties": {"start": "Ermont - Eaubonne", "stop_name": "Pontoise", "type": "Gare accessible", "transport": "transilien", "transport_legende": "\ud83d\udeb2 \u2764\ufe0f Transilien \ud83d\ude86"}, "geometry": {"type": "Point", "coordinates": [2.0957859968423524, 49.04673337596684]}}, {"type": "Feature", "properties": {"start": "Ermont - Eaubonne", "stop_name": "Massy - Palaiseau", "type": "Gare accessible", "transport": "transilien", "transport_legende": "\ud83d\udeb2 \u2764\ufe0f Transilien \ud83d\ude86"}, "geometry": {"type": "Point", "coordinates": [2.2587677282577334, 48.72551907437078]}}, {"type": "Feature", "properties": {"start": "Ermont - Eaubonne", "stop_name": "Massy - Verri\u00e8res", "type": "Gare accessible", "transport": "transilien", "transport_legende": "\ud83d\udeb2 \u2764\ufe0f Transilien \ud83d\ude86"}, "geometry": {"type": "Point", "coordinates": [2.273951148404844, 48.73498926809152]}}, {"type": "Feature", "properties": {"start": "Ermont - Eaubonne", "stop_name": "Chemin d'Antony", "type": "Gare accessible", "transport": "transilien", "transport_legende": "\ud83d\udeb2 \u2764\ufe0f Transilien \ud83d\ude86"}, "geometry": {"type": "Point", "coordinates": [2.312649686391933, 48.74793654258728]}}, {"type": "Feature", "properties": {"start": "Ermont - Eaubonne", "stop_name": "Rungis la Fraternelle", "type": "Gare accessible", "transport": "transilien", "transport_legende": "\ud83d\udeb2 \u2764\ufe0f Transilien \ud83d\ude86"}, "geometry": {"type": "Point", "coordinates": [2.3521980873905326, 48.74021613668418]}}, {"type": "Feature", "properties": {"start": "Ermont - Eaubonne", "stop_name": "Champ de Courses d'Enghien", "type": "Gare accessible", "transport": "transilien", "transport_legende": "\ud83d\udeb2 \u2764\ufe0f Transilien \ud83d\ude86"}, "geometry": {"type": "Point", "coordinates": [2.291148632256432, 48.9796949197308]}}, {"type": "Feature", "properties": {"start": "Ermont - Eaubonne", "stop_name": "Enghien-les-Bains", "type": "Gare accessible", "transport": "transilien", "transport_legende": "\ud83d\udeb2 \u2764\ufe0f Transilien \ud83d\ude86"}, "geometry": {"type": "Point", "coordinates": [2.306793374168272, 48.97288052394267]}}, {"type": "Feature", "properties": {"start": "Ermont - Eaubonne", "stop_name": "La Barre Ormesson", "type": "Gare accessible", "transport": "transilien", "transport_legende": "\ud83d\udeb2 \u2764\ufe0f Transilien \ud83d\ude86"}, "geometry": {"type": "Point", "coordinates": [2.3167036448125224, 48.96628415206348]}}, {"type": "Feature", "properties": {"start": "Ermont - Eaubonne", "stop_name": "\u00c9pinay - Villetaneuse", "type": "Gare accessible", "transport": "transilien", "transport_legende": "\ud83d\udeb2 \u2764\ufe0f Transilien \ud83d\ude86"}, "geometry": {"type": "Point", "coordinates": [2.3287601965958715, 48.95792884911306]}}, {"type": "Feature", "properties": {"start": "Ermont - Eaubonne", "stop_name": "Saint-Denis", "type": "Gare accessible", "transport": "transilien", "transport_legende": "\ud83d\udeb2 \u2764\ufe0f Transilien \ud83d\ude86"}, "geometry": {"type": "Point", "coordinates": [2.345479004987329, 48.93482889939617]}}, {"type": "Feature", "properties": {"start": "Ermont - Eaubonne", "stop_name": "Gare du Nord", "type": "Gare accessible", "transport": "transilien", "transport_legende": "\ud83d\udeb2 \u2764\ufe0f Transilien \ud83d\ude86"}, "geometry": {"type": "Point", "coordinates": [2.356693437528564, 48.88230685842714]}}, {"type": "Feature", "properties": {"start": "Ermont - Eaubonne", "stop_name": "Sannois", "type": "Gare accessible", "transport": "transilien", "transport_legende": "\ud83d\udeb2 \u2764\ufe0f Transilien \ud83d\ude86"}, "geometry": {"type": "Point", "coordinates": [2.263820283806777, 48.970881176549405]}}, {"type": "Feature", "properties": {"start": "Ermont - Eaubonne", "stop_name": "Argenteuil", "type": "Gare accessible", "transport": "transilien", "transport_legende": "\ud83d\udeb2 \u2764\ufe0f Transilien \ud83d\ude86"}, "geometry": {"type": "Point", "coordinates": [2.257913508915154, 48.9468952901277]}}, {"type": "Feature", "properties": {"start": "Ermont - Eaubonne", "stop_name": "Le Stade", "type": "Gare accessible", "transport": "transilien", "transport_legende": "\ud83d\udeb2 \u2764\ufe0f Transilien \ud83d\ude86"}, "geometry": {"type": "Point", "coordinates": [2.260948512567054, 48.93172049557505]}}, {"type": "Feature", "properties": {"start": "Ermont - Eaubonne", "stop_name": "Colombes", "type": "Gare accessible", "transport": "transilien", "transport_legende": "\ud83d\udeb2 \u2764\ufe0f Transilien \ud83d\ude86"}, "geometry": {"type": "Point", "coordinates": [2.259318757710957, 48.92395845032284]}}, {"type": "Feature", "properties": {"start": "Ermont - Eaubonne", "stop_name": "Bois-Colombes", "type": "Gare accessible", "transport": "transilien", "transport_legende": "\ud83d\udeb2 \u2764\ufe0f Transilien \ud83d\ude86"}, "geometry": {"type": "Point", "coordinates": [2.2716490888242244, 48.91419560591249]}}, {"type": "Feature", "properties": {"start": "Ermont - Eaubonne", "stop_name": "Asni\u00e8res-sur-Seine", "type": "Gare accessible", "transport": "transilien", "transport_legende": "\ud83d\udeb2 \u2764\ufe0f Transilien \ud83d\ude86"}, "geometry": {"type": "Point", "coordinates": [2.2832114335873186, 48.90587474197106]}}, {"type": "Feature", "properties": {"start": "Ermont - Eaubonne", "stop_name": "Gare Saint-Lazare", "type": "Gare accessible", "transport": "transilien", "transport_legende": "\ud83d\udeb2 \u2764\ufe0f Transilien \ud83d\ude86"}, "geometry": {"type": "Point", "coordinates": [2.3244386552397684, 48.87747568635212]}}, {"type": "Feature", "properties": {"start": "Ermont - Eaubonne", "stop_name": "Ermont Halte", "type": "Gare accessible", "transport": "transilien", "transport_legende": "\ud83d\udeb2 \u2764\ufe0f Transilien \ud83d\ude86"}, "geometry": {"type": "Point", "coordinates": [2.26320025038274, 48.990533377371726]}}, {"type": "Feature", "properties": {"start": "Ermont - Eaubonne", "stop_name": "Gros Noyer Saint-Prix", "type": "Gare accessible", "transport": "transilien", "transport_legende": "\ud83d\udeb2 \u2764\ufe0f Transilien \ud83d\ude86"}, "geometry": {"type": "Point", "coordinates": [2.2596836105712628, 48.99607903406629]}}, {"type": "Feature", "properties": {"start": "Ermont - Eaubonne", "stop_name": "Saint-Leu-la-For\u00eat", "type": "Gare accessible", "transport": "transilien", "transport_legende": "\ud83d\udeb2 \u2764\ufe0f Transilien \ud83d\ude86"}, "geometry": {"type": "Point", "coordinates": [2.2428869689226687, 49.01523840177278]}}, {"type": "Feature", "properties": {"start": "Ermont - Eaubonne", "stop_name": "Vaucelles", "type": "Gare accessible", "transport": "transilien", "transport_legende": "\ud83d\udeb2 \u2764\ufe0f Transilien \ud83d\ude86"}, "geometry": {"type": "Point", "coordinates": [2.2294526219892656, 49.02172683988197]}}, {"type": "Feature", "properties": {"start": "Ermont - Eaubonne", "stop_name": "Taverny", "type": "Gare accessible", "transport": "transilien", "transport_legende": "\ud83d\udeb2 \u2764\ufe0f Transilien \ud83d\ude86"}, "geometry": {"type": "Point", "coordinates": [2.222287008769188, 49.0249763828466]}}, {"type": "Feature", "properties": {"start": "Ermont - Eaubonne", "stop_name": "Bessancourt", "type": "Gare accessible", "transport": "transilien", "transport_legende": "\ud83d\udeb2 \u2764\ufe0f Transilien \ud83d\ude86"}, "geometry": {"type": "Point", "coordinates": [2.2103009348975013, 49.03527556641014]}}, {"type": "Feature", "properties": {"start": "Ermont - Eaubonne", "stop_name": "Fr\u00e9pillon", "type": "Gare accessible", "transport": "transilien", "transport_legende": "\ud83d\udeb2 \u2764\ufe0f Transilien \ud83d\ude86"}, "geometry": {"type": "Point", "coordinates": [2.197098920791642, 49.04527720662213]}}, {"type": "Feature", "properties": {"start": "Ermont - Eaubonne", "stop_name": "M\u00e9ry-sur-Oise", "type": "Gare accessible", "transport": "transilien", "transport_legende": "\ud83d\udeb2 \u2764\ufe0f Transilien \ud83d\ude86"}, "geometry": {"type": "Point", "coordinates": [2.19141823646768, 49.058277435287074]}}, {"type": "Feature", "properties": {"start": "Ermont - Eaubonne", "stop_name": "M\u00e9riel", "type": "Gare accessible", "transport": "transilien", "transport_legende": "\ud83d\udeb2 \u2764\ufe0f Transilien \ud83d\ude86"}, "geometry": {"type": "Point", "coordinates": [2.205438463461229, 49.07775311707399]}}, {"type": "Feature", "properties": {"start": "Ermont - Eaubonne", "stop_name": "Valmondois", "type": "Gare accessible", "transport": "transilien", "transport_legende": "\ud83d\udeb2 \u2764\ufe0f Transilien \ud83d\ude86"}, "geometry": {"type": "Point", "coordinates": [2.2019152338634327, 49.09093718795672]}}, {"type": "Feature", "properties": {"start": "Ermont - Eaubonne", "stop_name": "L'Isle-Adam - Parmain", "type": "Gare accessible", "transport": "transilien", "transport_legende": "\ud83d\udeb2 \u2764\ufe0f Transilien \ud83d\ude86"}, "geometry": {"type": "Point", "coordinates": [2.209941858169547, 49.11454854558362]}}, {"type": "Feature", "properties": {"start": "Ermont - Eaubonne", "stop_name": "Champagne-sur-Oise", "type": "Gare accessible", "transport": "transilien", "transport_legende": "\ud83d\udeb2 \u2764\ufe0f Transilien \ud83d\ude86"}, "geometry": {"type": "Point", "coordinates": [2.242987667830016, 49.136089580289706]}}, {"type": "Feature", "properties": {"start": "Ermont - Eaubonne", "stop_name": "Persan - Beaumont", "type": "Gare accessible", "transport": "transilien", "transport_legende": "\ud83d\udeb2 \u2764\ufe0f Transilien \ud83d\ude86"}, "geometry": {"type": "Point", "coordinates": [2.2777997330536137, 49.14758294460079]}}, {"type": "Feature", "properties": {"start": "Ermont - Eaubonne", "stop_name": "Igny", "type": "Gare accessible", "transport": "transilien", "transport_legende": "\ud83d\udeb2 \u2764\ufe0f Transilien \ud83d\ude86"}, "geometry": {"type": "Point", "coordinates": [2.230807643224045, 48.74084886110891]}}, {"type": "Feature", "properties": {"start": "Ermont - Eaubonne", "stop_name": "Bi\u00e8vres", "type": "Gare accessible", "transport": "transilien", "transport_legende": "\ud83d\udeb2 \u2764\ufe0f Transilien \ud83d\ude86"}, "geometry": {"type": "Point", "coordinates": [2.2161603396773564, 48.75087243760775]}}, {"type": "Feature", "properties": {"start": "Ermont - Eaubonne", "stop_name": "Vauboyen", "type": "Gare accessible", "transport": "transilien", "transport_legende": "\ud83d\udeb2 \u2764\ufe0f Transilien \ud83d\ude86"}, "geometry": {"type": "Point", "coordinates": [2.1925522822775045, 48.75897132762851]}}, {"type": "Feature", "properties": {"start": "Ermont - Eaubonne", "stop_name": "Jouy-en-Josas", "type": "Gare accessible", "transport": "transilien", "transport_legende": "\ud83d\udeb2 \u2764\ufe0f Transilien \ud83d\ude86"}, "geometry": {"type": "Point", "coordinates": [2.164447836855006, 48.764760068378486]}}, {"type": "Feature", "properties": {"start": "Ermont - Eaubonne", "stop_name": "Petit Jouy Les Loges", "type": "Gare accessible", "transport": "transilien", "transport_legende": "\ud83d\udeb2 \u2764\ufe0f Transilien \ud83d\ude86"}, "geometry": {"type": "Point", "coordinates": [2.146851969344536, 48.77123768805397]}}, {"type": "Feature", "properties": {"start": "Ermont - Eaubonne", "stop_name": "Versailles Chantiers", "type": "Gare accessible", "transport": "transilien", "transport_legende": "\ud83d\udeb2 \u2764\ufe0f Transilien \ud83d\ude86"}, "geometry": {"type": "Point", "coordinates": [2.1349078603373464, 48.79526039893613]}}]}