{"type": "FeatureCollection", "features": [{"type": "Feature", "properties": {"start": "Gare Melun - Quai de d\u00e9pose", "stop_name": "Gare Melun - Quai de d\u00e9pose", "type": "Gare s\u00e9lectionn\u00e9e", "transport": "transilien", "nombre_trajet_moyen": 0.2, "transport_legende": "\ud83d\udeb2 \u2764\ufe0f Transilien \ud83d\ude86"}, "geometry": {"type": "Point", "coordinates": [2.6561026290826533, 48.52607400971013]}}, {"type": "Feature", "properties": {"start": "Gare Melun - Quai de d\u00e9pose", "stop_name": "Gare de Villeneuve", "type": "Gare accessible", "transport": "transilien", "nombre_trajet_moyen": 0.07, "transport_legende": "\ud83d\udeb2 \u2764\ufe0f Transilien \ud83d\ude86"}, "geometry": {"type": "Point", "coordinates": [2.44708425278972, 48.72965664548239]}}, {"type": "Feature", "properties": {"start": "Gare Melun - Quai de d\u00e9pose", "stop_name": "Gare de Lieusaint Moissy", "type": "Gare accessible", "transport": "transilien", "nombre_trajet_moyen": 0.07, "transport_legende": "\ud83d\udeb2 \u2764\ufe0f Transilien \ud83d\ude86"}, "geometry": {"type": "Point", "coordinates": [2.567876832369949, 48.6287034880494]}}, {"type": "Feature", "properties": {"start": "Gare Melun - Quai de d\u00e9pose", "stop_name": "Gare de Savigny Nandy", "type": "Gare accessible", "transport": "transilien", "nombre_trajet_moyen": 0.07, "transport_legende": "\ud83d\udeb2 \u2764\ufe0f Transilien \ud83d\ude86"}, "geometry": {"type": "Point", "coordinates": [2.584691331944299, 48.59600268392362]}}, {"type": "Feature", "properties": {"start": "Gare Melun - Quai de d\u00e9pose", "stop_name": "Cesson", "type": "Gare accessible", "transport": "transilien", "nombre_trajet_moyen": 0.07, "transport_legende": "\ud83d\udeb2 \u2764\ufe0f Transilien \ud83d\ude86"}, "geometry": {"type": "Point", "coordinates": [2.5946150549367304, 48.56486314053174]}}, {"type": "Feature", "properties": {"start": "Gare Melun - Quai de d\u00e9pose", "stop_name": "Le M\u00e9e", "type": "Gare accessible", "transport": "transilien", "nombre_trajet_moyen": 0.07, "transport_legende": "\ud83d\udeb2 \u2764\ufe0f Transilien \ud83d\ude86"}, "geometry": {"type": "Point", "coordinates": [2.6255537322060074, 48.538746730738936]}}, {"type": "Feature", "properties": {"start": "Gare Melun - Quai de d\u00e9pose", "stop_name": "Gare de Montgeron", "type": "Gare accessible", "transport": "transilien", "nombre_trajet_moyen": 0.07, "transport_legende": "\ud83d\udeb2 \u2764\ufe0f Transilien \ud83d\ude86"}, "geometry": {"type": "Point", "coordinates": [2.4622488481847955, 48.70804017669453]}}, {"type": "Feature", "properties": {"start": "Gare Melun - Quai de d\u00e9pose", "stop_name": "Gare de Yerres", "type": "Gare accessible", "transport": "transilien", "nombre_trajet_moyen": 0.07, "transport_legende": "\ud83d\udeb2 \u2764\ufe0f Transilien \ud83d\ude86"}, "geometry": {"type": "Point", "coordinates": [2.483216976400423, 48.70685561343884]}}, {"type": "Feature", "properties": {"start": "Gare Melun - Quai de d\u00e9pose", "stop_name": "Brunoy", "type": "Gare accessible", "transport": "transilien", "nombre_trajet_moyen": 0.07, "transport_legende": "\ud83d\udeb2 \u2764\ufe0f Transilien \ud83d\ude86"}, "geometry": {"type": "Point", "coordinates": [2.506850312311369, 48.698914475306886]}}, {"type": "Feature", "properties": {"start": "Gare Melun - Quai de d\u00e9pose", "stop_name": "Gare de Boussy Saint-Antoine", "type": "Gare accessible", "transport": "transilien", "nombre_trajet_moyen": 0.07, "transport_legende": "\ud83d\udeb2 \u2764\ufe0f Transilien \ud83d\ude86"}, "geometry": {"type": "Point", "coordinates": [2.5312891894453764, 48.682147995223694]}}, {"type": "Feature", "properties": {"start": "Gare Melun - Quai de d\u00e9pose", "stop_name": "Gare de Combs-la-Ville Quincy", "type": "Gare accessible", "transport": "transilien", "nombre_trajet_moyen": 0.07, "transport_legende": "\ud83d\udeb2 \u2764\ufe0f Transilien \ud83d\ude86"}, "geometry": {"type": "Point", "coordinates": [2.5481878095615254, 48.667929510052176]}}, {"type": "Feature", "properties": {"start": "Gare Melun - Quai de d\u00e9pose", "stop_name": "Gare de Bois le Roi", "type": "Gare accessible", "transport": "transilien", "nombre_trajet_moyen": 0.13, "transport_legende": "\ud83d\udeb2 \u2764\ufe0f Transilien \ud83d\ude86"}, "geometry": {"type": "Point", "coordinates": [2.69231748820218, 48.47516605438728]}}, {"type": "Feature", "properties": {"start": "Gare Melun - Quai de d\u00e9pose", "stop_name": "Gare Routi\u00e8re Quai 1", "type": "Gare accessible", "transport": "transilien", "nombre_trajet_moyen": 0.13, "transport_legende": "\ud83d\udeb2 \u2764\ufe0f Transilien \ud83d\ude86"}, "geometry": {"type": "Point", "coordinates": [2.726912605033356, 48.4155058684311]}}, {"type": "Feature", "properties": {"start": "Gare Melun - Quai de d\u00e9pose", "stop_name": "Thomery", "type": "Gare accessible", "transport": "transilien", "nombre_trajet_moyen": 0.13, "transport_legende": "\ud83d\udeb2 \u2764\ufe0f Transilien \ud83d\ude86"}, "geometry": {"type": "Point", "coordinates": [2.764187149192088, 48.39428183783365]}}, {"type": "Feature", "properties": {"start": "Gare Melun - Quai de d\u00e9pose", "stop_name": "Moret - Veneux-les-Sablons", "type": "Gare accessible", "transport": "transilien", "nombre_trajet_moyen": 0.13, "transport_legende": "\ud83d\udeb2 \u2764\ufe0f Transilien \ud83d\ude86"}, "geometry": {"type": "Point", "coordinates": [2.800462899908886, 48.37789836789835]}}, {"type": "Feature", "properties": {"start": "Gare Melun - Quai de d\u00e9pose", "stop_name": "Montigny-sur-Loing", "type": "Gare accessible", "transport": "transilien", "nombre_trajet_moyen": 0.0, "transport_legende": "\ud83d\udeb2 \u2764\ufe0f Transilien \ud83d\ude86"}, "geometry": {"type": "Point", "coordinates": [2.738336123575285, 48.33649861774928]}}, {"type": "Feature", "properties": {"start": "Gare Melun - Quai de d\u00e9pose", "stop_name": "Gare Bourron", "type": "Gare accessible", "transport": "transilien", "nombre_trajet_moyen": 0.0, "transport_legende": "\ud83d\udeb2 \u2764\ufe0f Transilien \ud83d\ude86"}, "geometry": {"type": "Point", "coordinates": [2.6924061379201074, 48.333010232655]}}, {"type": "Feature", "properties": {"start": "Gare Melun - Quai de d\u00e9pose", "stop_name": "Nemours - Saint-Pierre", "type": "Gare accessible", "transport": "transilien", "nombre_trajet_moyen": 0.0, "transport_legende": "\ud83d\udeb2 \u2764\ufe0f Transilien \ud83d\ude86"}, "geometry": {"type": "Point", "coordinates": [2.6850524330729284, 48.26863657605134]}}, {"type": "Feature", "properties": {"start": "Gare Melun - Quai de d\u00e9pose", "stop_name": "Gare de Bagneaux-sur-Loing", "type": "Gare accessible", "transport": "transilien", "nombre_trajet_moyen": 0.0, "transport_legende": "\ud83d\udeb2 \u2764\ufe0f Transilien \ud83d\ude86"}, "geometry": {"type": "Point", "coordinates": [2.703157968239263, 48.23052063512006]}}, {"type": "Feature", "properties": {"start": "Gare Melun - Quai de d\u00e9pose", "stop_name": "Souppes - Ch\u00e2teau-Landon", "type": "Gare accessible", "transport": "transilien", "nombre_trajet_moyen": 0.0, "transport_legende": "\ud83d\udeb2 \u2764\ufe0f Transilien \ud83d\ude86"}, "geometry": {"type": "Point", "coordinates": [2.7358697259911766, 48.18117871674994]}}, {"type": "Feature", "properties": {"start": "Gare Melun - Quai de d\u00e9pose", "stop_name": "Dordives", "type": "Gare accessible", "transport": "transilien", "nombre_trajet_moyen": 0.0, "transport_legende": "\ud83d\udeb2 \u2764\ufe0f Transilien \ud83d\ude86"}, "geometry": {"type": "Point", "coordinates": [2.762658376432018, 48.14790552423752]}}, {"type": "Feature", "properties": {"start": "Gare Melun - Quai de d\u00e9pose", "stop_name": "Gare de Ferri\u00e8res - Fontenay", "type": "Gare accessible", "transport": "transilien", "nombre_trajet_moyen": 0.0, "transport_legende": "\ud83d\udeb2 \u2764\ufe0f Transilien \ud83d\ude86"}, "geometry": {"type": "Point", "coordinates": [2.772727657116635, 48.09646710081935]}}, {"type": "Feature", "properties": {"start": "Gare Melun - Quai de d\u00e9pose", "stop_name": "Montargis", "type": "Gare accessible", "transport": "transilien", "nombre_trajet_moyen": 0.0, "transport_legende": "\ud83d\udeb2 \u2764\ufe0f Transilien \ud83d\ude86"}, "geometry": {"type": "Point", "coordinates": [2.743201130533139, 48.00669739961254]}}, {"type": "Feature", "properties": {"start": "Gare Melun - Quai de d\u00e9pose", "stop_name": "Paris Gare de Lyon", "type": "Gare accessible", "transport": "transilien", "nombre_trajet_moyen": 0.0, "transport_legende": "\ud83d\udeb2 \u2764\ufe0f Transilien \ud83d\ude86"}, "geometry": {"type": "Point", "coordinates": [2.3754276162953336, 48.84265525074534]}}, {"type": "Feature", "properties": {"start": "Gare Melun - Quai de d\u00e9pose", "stop_name": "Gare de Lyon - Van Gogh", "type": "Gare accessible", "transport": "transilien", "nombre_trajet_moyen": 0.13, "transport_legende": "\ud83d\udeb2 \u2764\ufe0f Transilien \ud83d\ude86"}, "geometry": {"type": "Point", "coordinates": [2.37177448281981, 48.84503741254108]}}, {"type": "Feature", "properties": {"start": "Gare Melun - Quai de d\u00e9pose", "stop_name": "Gare de Montereau Quai 9", "type": "Gare accessible", "transport": "transilien", "nombre_trajet_moyen": 0.13, "transport_legende": "\ud83d\udeb2 \u2764\ufe0f Transilien \ud83d\ude86"}, "geometry": {"type": "Point", "coordinates": [2.9428858304560537, 48.38005388120789]}}, {"type": "Feature", "properties": {"start": "Gare Melun - Quai de d\u00e9pose", "stop_name": "Saint-Mamm\u00e8s", "type": "Gare accessible", "transport": "transilien", "nombre_trajet_moyen": 0.13, "transport_legende": "\ud83d\udeb2 \u2764\ufe0f Transilien \ud83d\ude86"}, "geometry": {"type": "Point", "coordinates": [2.816506976966753, 48.38264713543743]}}]}