{"type": "FeatureCollection", "features": [{"type": "Feature", "properties": {"start": "Gare de Villeneuve-le-Roi", "stop_name": "Gare de Villeneuve-le-Roi", "type": "Gare s\u00e9lectionn\u00e9e", "transport": "transilien", "transport_legende": "\ud83d\udeb2 \u2764\ufe0f Transilien \ud83d\ude86"}, "geometry": {"type": "Point", "coordinates": [2.423505885411325, 48.73976274768902]}}, {"type": "Feature", "properties": {"start": "Gare de Villeneuve-le-Roi", "stop_name": "Juvisy RER", "type": "Gare accessible", "transport": "transilien", "transport_legende": "\ud83d\udeb2 \u2764\ufe0f Transilien \ud83d\ude86"}, "geometry": {"type": "Point", "coordinates": [2.382055029825166, 48.6904988251228]}}, {"type": "Feature", "properties": {"start": "Gare de Villeneuve-le-Roi", "stop_name": "Athis-Mons RER", "type": "Gare accessible", "transport": "transilien", "transport_legende": "\ud83d\udeb2 \u2764\ufe0f Transilien \ud83d\ude86"}, "geometry": {"type": "Point", "coordinates": [2.4026412215474013, 48.71278460911634]}}, {"type": "Feature", "properties": {"start": "Gare de Villeneuve-le-Roi", "stop_name": "Ablon", "type": "Gare accessible", "transport": "transilien", "transport_legende": "\ud83d\udeb2 \u2764\ufe0f Transilien \ud83d\ude86"}, "geometry": {"type": "Point", "coordinates": [2.4198671478914595, 48.72578126379895]}}, {"type": "Feature", "properties": {"start": "Gare de Villeneuve-le-Roi", "stop_name": "Paul Painlev\u00e9 - Place Gounot", "type": "Gare accessible", "transport": "transilien", "transport_legende": "\ud83d\udeb2 \u2764\ufe0f Transilien \ud83d\ude86"}, "geometry": {"type": "Point", "coordinates": [2.411857019198422, 48.73688168667152]}}, {"type": "Feature", "properties": {"start": "Gare de Villeneuve-le-Roi", "stop_name": "Gare d'Orly-Ville", "type": "Gare accessible", "transport": "transilien", "transport_legende": "\ud83d\udeb2 \u2764\ufe0f Transilien \ud83d\ude86"}, "geometry": {"type": "Point", "coordinates": [2.402443990866147, 48.74191677305021]}}, {"type": "Feature", "properties": {"start": "Gare de Villeneuve-le-Roi", "stop_name": "Gaston Viens", "type": "Gare accessible", "transport": "transilien", "transport_legende": "\ud83d\udeb2 \u2764\ufe0f Transilien \ud83d\ude86"}, "geometry": {"type": "Point", "coordinates": [2.4067375731500897, 48.7446454890726]}}, {"type": "Feature", "properties": {"start": "Gare de Villeneuve-le-Roi", "stop_name": "Les Tilleuls", "type": "Gare accessible", "transport": "transilien", "transport_legende": "\ud83d\udeb2 \u2764\ufe0f Transilien \ud83d\ude86"}, "geometry": {"type": "Point", "coordinates": [2.4056586392447024, 48.752213343207146]}}, {"type": "Feature", "properties": {"start": "Gare de Villeneuve-le-Roi", "stop_name": "Choisy le Roi - Rouget de Lisle", "type": "Gare accessible", "transport": "transilien", "transport_legende": "\ud83d\udeb2 \u2764\ufe0f Transilien \ud83d\ude86"}, "geometry": {"type": "Point", "coordinates": [2.405068788803732, 48.76458648830146]}}, {"type": "Feature", "properties": {"start": "Gare de Villeneuve-le-Roi", "stop_name": "Les Ardoines RER", "type": "Gare accessible", "transport": "transilien", "transport_legende": "\ud83d\udeb2 \u2764\ufe0f Transilien \ud83d\ude86"}, "geometry": {"type": "Point", "coordinates": [2.407623334676664, 48.78405346394676]}}, {"type": "Feature", "properties": {"start": "Gare de Villeneuve-le-Roi", "stop_name": "Jean-Pierre Timbaud", "type": "Gare accessible", "transport": "transilien", "transport_legende": "\ud83d\udeb2 \u2764\ufe0f Transilien \ud83d\ude86"}, "geometry": {"type": "Point", "coordinates": [2.406855808261793, 48.78691875244302]}}, {"type": "Feature", "properties": {"start": "Gare de Villeneuve-le-Roi", "stop_name": "R\u00e9publique - Vaillant Couturier", "type": "Gare accessible", "transport": "transilien", "transport_legende": "\ud83d\udeb2 \u2764\ufe0f Transilien \ud83d\ude86"}, "geometry": {"type": "Point", "coordinates": [2.400637175249809, 48.79981206444767]}}, {"type": "Feature", "properties": {"start": "Gare de Villeneuve-le-Roi", "stop_name": "Ivry Sur Seine - Voltaire", "type": "Gare accessible", "transport": "transilien", "transport_legende": "\ud83d\udeb2 \u2764\ufe0f Transilien \ud83d\ude86"}, "geometry": {"type": "Point", "coordinates": [2.386094122154385, 48.81277938659155]}}, {"type": "Feature", "properties": {"start": "Gare de Villeneuve-le-Roi", "stop_name": "Porte de Vitry", "type": "Gare accessible", "transport": "transilien", "transport_legende": "\ud83d\udeb2 \u2764\ufe0f Transilien \ud83d\ude86"}, "geometry": {"type": "Point", "coordinates": [2.3772875900959383, 48.82383218744681]}}, {"type": "Feature", "properties": {"start": "Gare de Villeneuve-le-Roi", "stop_name": "Biblioth\u00e8que Chevaleret", "type": "Gare accessible", "transport": "transilien", "transport_legende": "\ud83d\udeb2 \u2764\ufe0f Transilien \ud83d\ude86"}, "geometry": {"type": "Point", "coordinates": [2.375728079832685, 48.830083691705084]}}, {"type": "Feature", "properties": {"start": "Gare de Villeneuve-le-Roi", "stop_name": "Quai de la Gare", "type": "Gare accessible", "transport": "transilien", "transport_legende": "\ud83d\udeb2 \u2764\ufe0f Transilien \ud83d\ude86"}, "geometry": {"type": "Point", "coordinates": [2.37399661764362, 48.837008766854055]}}, {"type": "Feature", "properties": {"start": "Gare de Villeneuve-le-Roi", "stop_name": "Paris Austerlitz", "type": "Gare accessible", "transport": "transilien", "transport_legende": "\ud83d\udeb2 \u2764\ufe0f Transilien \ud83d\ude86"}, "geometry": {"type": "Point", "coordinates": [2.367960704266045, 48.841536799703]}}, {"type": "Feature", "properties": {"start": "Gare de Villeneuve-le-Roi", "stop_name": "Gare de Lyon - Van Gogh", "type": "Gare accessible", "transport": "transilien", "transport_legende": "\ud83d\udeb2 \u2764\ufe0f Transilien \ud83d\ude86"}, "geometry": {"type": "Point", "coordinates": [2.37177448281981, 48.84503741254108]}}, {"type": "Feature", "properties": {"start": "Gare de Villeneuve-le-Roi", "stop_name": "Gare d'Austerlitz - Cour Seine", "type": "Gare accessible", "transport": "transilien", "transport_legende": "\ud83d\udeb2 \u2764\ufe0f Transilien \ud83d\ude86"}, "geometry": {"type": "Point", "coordinates": [2.365936462786417, 48.84328883582449]}}, {"type": "Feature", "properties": {"start": "Gare de Villeneuve-le-Roi", "stop_name": "Ivry-sur-Seine - Voltaire", "type": "Gare accessible", "transport": "transilien", "transport_legende": "\ud83d\udeb2 \u2764\ufe0f Transilien \ud83d\ude86"}, "geometry": {"type": "Point", "coordinates": [2.385808377211655, 48.81275993132755]}}, {"type": "Feature", "properties": {"start": "Gare de Villeneuve-le-Roi", "stop_name": "Gare d'Ablon", "type": "Gare accessible", "transport": "transilien", "transport_legende": "\ud83d\udeb2 \u2764\ufe0f Transilien \ud83d\ude86"}, "geometry": {"type": "Point", "coordinates": [2.418552549726059, 48.72541058971868]}}, {"type": "Feature", "properties": {"start": "Gare de Villeneuve-le-Roi", "stop_name": "Juvisy", "type": "Gare accessible", "transport": "transilien", "transport_legende": "\ud83d\udeb2 \u2764\ufe0f Transilien \ud83d\ude86"}, "geometry": {"type": "Point", "coordinates": [2.383334629403869, 48.68970940912314]}}, {"type": "Feature", "properties": {"start": "Gare de Villeneuve-le-Roi", "stop_name": "Choisy-le-Roi RER", "type": "Gare accessible", "transport": "transilien", "transport_legende": "\ud83d\udeb2 \u2764\ufe0f Transilien \ud83d\ude86"}, "geometry": {"type": "Point", "coordinates": [2.4121016828937027, 48.76467527679301]}}, {"type": "Feature", "properties": {"start": "Gare de Villeneuve-le-Roi", "stop_name": "Biblioth\u00e8que Fran\u00e7ois Mitterrand", "type": "Gare accessible", "transport": "transilien", "transport_legende": "\ud83d\udeb2 \u2764\ufe0f Transilien \ud83d\ude86"}, "geometry": {"type": "Point", "coordinates": [2.377826283136205, 48.82891195295035]}}, {"type": "Feature", "properties": {"start": "Gare de Villeneuve-le-Roi", "stop_name": "Gare routi\u00e8re de Versailles Chantiers - Quai H", "type": "Gare accessible", "transport": "transilien", "transport_legende": "\ud83d\udeb2 \u2764\ufe0f Transilien \ud83d\ude86"}, "geometry": {"type": "Point", "coordinates": [2.133520106872908, 48.79561972288378]}}, {"type": "Feature", "properties": {"start": "Gare de Villeneuve-le-Roi", "stop_name": "Gare de Massy Palaiseau", "type": "Gare accessible", "transport": "transilien", "transport_legende": "\ud83d\udeb2 \u2764\ufe0f Transilien \ud83d\ude86"}, "geometry": {"type": "Point", "coordinates": [2.2573460833872727, 48.72606340692455]}}, {"type": "Feature", "properties": {"start": "Gare de Villeneuve-le-Roi", "stop_name": "Gare RER Longjumeau", "type": "Gare accessible", "transport": "transilien", "transport_legende": "\ud83d\udeb2 \u2764\ufe0f Transilien \ud83d\ude86"}, "geometry": {"type": "Point", "coordinates": [2.294118339716738, 48.702153799044325]}}, {"type": "Feature", "properties": {"start": "Gare de Villeneuve-le-Roi", "stop_name": "Gare de Chilly-Mazarin", "type": "Gare accessible", "transport": "transilien", "transport_legende": "\ud83d\udeb2 \u2764\ufe0f Transilien \ud83d\ude86"}, "geometry": {"type": "Point", "coordinates": [2.3085895722306637, 48.70018774214699]}}, {"type": "Feature", "properties": {"start": "Gare de Villeneuve-le-Roi", "stop_name": "Gare de Gravigny Balizy", "type": "Gare accessible", "transport": "transilien", "transport_legende": "\ud83d\udeb2 \u2764\ufe0f Transilien \ud83d\ude86"}, "geometry": {"type": "Point", "coordinates": [2.3170874694442003, 48.68524230606057]}}, {"type": "Feature", "properties": {"start": "Gare de Villeneuve-le-Roi", "stop_name": "Petit Vaux", "type": "Gare accessible", "transport": "transilien", "transport_legende": "\ud83d\udeb2 \u2764\ufe0f Transilien \ud83d\ude86"}, "geometry": {"type": "Point", "coordinates": [2.332868506135788, 48.67655855621464]}}, {"type": "Feature", "properties": {"start": "Gare de Villeneuve-le-Roi", "stop_name": "Gare de Savigny-sur-Orge", "type": "Gare accessible", "transport": "transilien", "transport_legende": "\ud83d\udeb2 \u2764\ufe0f Transilien \ud83d\ude86"}, "geometry": {"type": "Point", "coordinates": [2.3525904654385625, 48.67595971797696]}}, {"type": "Feature", "properties": {"start": "Gare de Villeneuve-le-Roi", "stop_name": "Gare du Petit-Jouy - Les Loges", "type": "Gare accessible", "transport": "transilien", "transport_legende": "\ud83d\udeb2 \u2764\ufe0f Transilien \ud83d\ude86"}, "geometry": {"type": "Point", "coordinates": [2.147822925316284, 48.77177070181183]}}, {"type": "Feature", "properties": {"start": "Gare de Villeneuve-le-Roi", "stop_name": "Gare de Jouy-en-Josas", "type": "Gare accessible", "transport": "transilien", "transport_legende": "\ud83d\udeb2 \u2764\ufe0f Transilien \ud83d\ude86"}, "geometry": {"type": "Point", "coordinates": [2.163390419214656, 48.76494604700003]}}, {"type": "Feature", "properties": {"start": "Gare de Villeneuve-le-Roi", "stop_name": "Gare de Vauboyen", "type": "Gare accessible", "transport": "transilien", "transport_legende": "\ud83d\udeb2 \u2764\ufe0f Transilien \ud83d\ude86"}, "geometry": {"type": "Point", "coordinates": [2.19048067829034, 48.75783823568276]}}, {"type": "Feature", "properties": {"start": "Gare de Villeneuve-le-Roi", "stop_name": "Gare de Bi\u00e8vres", "type": "Gare accessible", "transport": "transilien", "transport_legende": "\ud83d\udeb2 \u2764\ufe0f Transilien \ud83d\ude86"}, "geometry": {"type": "Point", "coordinates": [2.2157586957609348, 48.75135100564622]}}, {"type": "Feature", "properties": {"start": "Gare de Villeneuve-le-Roi", "stop_name": "Gare d'Igny", "type": "Gare accessible", "transport": "transilien", "transport_legende": "\ud83d\udeb2 \u2764\ufe0f Transilien \ud83d\ude86"}, "geometry": {"type": "Point", "coordinates": [2.2305211423998137, 48.73998803455092]}}]}