{"type": "FeatureCollection", "features": [{"type": "Feature", "properties": {"start": "Gare de Pontoise", "stop_name": "Gare de Pontoise", "type": "Gare s\u00e9lectionn\u00e9e", "transport": "transilien", "nombre_trajet_moyen": 0.43, "transport_legende": "\ud83d\udeb2 \u2764\ufe0f Transilien \ud83d\ude86"}, "geometry": {"type": "Point", "coordinates": [2.095683907287571, 49.04709679175885]}}, {"type": "Feature", "properties": {"start": "Gare de Pontoise", "stop_name": "Paris Saint-Lazare", "type": "Gare accessible", "transport": "transilien", "nombre_trajet_moyen": 0.0, "transport_legende": "\ud83d\udeb2 \u2764\ufe0f Transilien \ud83d\ude86"}, "geometry": {"type": "Point", "coordinates": [2.324777828487545, 48.87550321748135]}}, {"type": "Feature", "properties": {"start": "Gare de Pontoise", "stop_name": "Gare de Montigny - Beauchamp", "type": "Gare accessible", "transport": "transilien", "nombre_trajet_moyen": 0.0, "transport_legende": "\ud83d\udeb2 \u2764\ufe0f Transilien \ud83d\ude86"}, "geometry": {"type": "Point", "coordinates": [2.197754685736834, 49.00771643969731]}}, {"type": "Feature", "properties": {"start": "Gare de Pontoise", "stop_name": "Gare de Pierrelaye", "type": "Gare accessible", "transport": "transilien", "nombre_trajet_moyen": 0.0, "transport_legende": "\ud83d\udeb2 \u2764\ufe0f Transilien \ud83d\ude86"}, "geometry": {"type": "Point", "coordinates": [2.152204903396823, 49.01967799633365]}}, {"type": "Feature", "properties": {"start": "Gare de Pontoise", "stop_name": "Gare de Liesse - Quai F", "type": "Gare accessible", "transport": "transilien", "nombre_trajet_moyen": 0.0, "transport_legende": "\ud83d\udeb2 \u2764\ufe0f Transilien \ud83d\ude86"}, "geometry": {"type": "Point", "coordinates": [2.1280196311174677, 49.033442895804285]}}, {"type": "Feature", "properties": {"start": "Gare de Pontoise", "stop_name": "Mairie", "type": "Gare accessible", "transport": "transilien", "nombre_trajet_moyen": 0.1, "transport_legende": "\ud83d\udeb2 \u2764\ufe0f Transilien \ud83d\ude86"}, "geometry": {"type": "Point", "coordinates": [1.9751843367210649, 48.978863999006606]}}, {"type": "Feature", "properties": {"start": "Gare de Pontoise", "stop_name": "Gare de Cergy Pr\u00e9fecture (E)", "type": "Gare accessible", "transport": "transilien", "nombre_trajet_moyen": 0.0, "transport_legende": "\ud83d\udeb2 \u2764\ufe0f Transilien \ud83d\ude86"}, "geometry": {"type": "Point", "coordinates": [2.079971509818675, 49.03674427048807]}}, {"type": "Feature", "properties": {"start": "Gare de Pontoise", "stop_name": "Saint-Christophe RER", "type": "Gare accessible", "transport": "transilien", "nombre_trajet_moyen": 0.0, "transport_legende": "\ud83d\udeb2 \u2764\ufe0f Transilien \ud83d\ude86"}, "geometry": {"type": "Point", "coordinates": [2.033673166473447, 49.05003999398652]}}, {"type": "Feature", "properties": {"start": "Gare de Pontoise", "stop_name": "Gare de Cergy le Haut", "type": "Gare accessible", "transport": "transilien", "nombre_trajet_moyen": 0.0, "transport_legende": "\ud83d\udeb2 \u2764\ufe0f Transilien \ud83d\ude86"}, "geometry": {"type": "Point", "coordinates": [2.010366364856136, 49.04762015418292]}}, {"type": "Feature", "properties": {"start": "Gare de Pontoise", "stop_name": "Gare de Cergy Pr\u00e9fecture (C)", "type": "Gare accessible", "transport": "transilien", "nombre_trajet_moyen": 0.0, "transport_legende": "\ud83d\udeb2 \u2764\ufe0f Transilien \ud83d\ude86"}, "geometry": {"type": "Point", "coordinates": [2.079182333735157, 49.03959777443762]}}, {"type": "Feature", "properties": {"start": "Gare de Pontoise", "stop_name": "Gare de Liesse - Quai A", "type": "Gare accessible", "transport": "transilien", "nombre_trajet_moyen": 0.1, "transport_legende": "\ud83d\udeb2 \u2764\ufe0f Transilien \ud83d\ude86"}, "geometry": {"type": "Point", "coordinates": [2.128233741882647, 49.03372321097234]}}, {"type": "Feature", "properties": {"start": "Gare de Pontoise", "stop_name": "Gare Saint-Lazare", "type": "Gare accessible", "transport": "transilien", "nombre_trajet_moyen": 0.0, "transport_legende": "\ud83d\udeb2 \u2764\ufe0f Transilien \ud83d\ude86"}, "geometry": {"type": "Point", "coordinates": [2.3244386552397684, 48.87747568635212]}}, {"type": "Feature", "properties": {"start": "Gare de Pontoise", "stop_name": "Osny", "type": "Gare accessible", "transport": "transilien", "nombre_trajet_moyen": 0.0, "transport_legende": "\ud83d\udeb2 \u2764\ufe0f Transilien \ud83d\ude86"}, "geometry": {"type": "Point", "coordinates": [2.058155650874632, 49.06281914403825]}}, {"type": "Feature", "properties": {"start": "Gare de Pontoise", "stop_name": "Victor Hugo", "type": "Gare accessible", "transport": "transilien", "nombre_trajet_moyen": 0.0, "transport_legende": "\ud83d\udeb2 \u2764\ufe0f Transilien \ud83d\ude86"}, "geometry": {"type": "Point", "coordinates": [2.0280661343398965, 49.074768167972735]}}, {"type": "Feature", "properties": {"start": "Gare de Pontoise", "stop_name": "Montgeroult - Courcelles", "type": "Gare accessible", "transport": "transilien", "nombre_trajet_moyen": 0.0, "transport_legende": "\ud83d\udeb2 \u2764\ufe0f Transilien \ud83d\ude86"}, "geometry": {"type": "Point", "coordinates": [2.0029460458068105, 49.080811910011626]}}, {"type": "Feature", "properties": {"start": "Gare de Pontoise", "stop_name": "Us", "type": "Gare accessible", "transport": "transilien", "nombre_trajet_moyen": 0.0, "transport_legende": "\ud83d\udeb2 \u2764\ufe0f Transilien \ud83d\ude86"}, "geometry": {"type": "Point", "coordinates": [1.9705444983242864, 49.09955483034093]}}, {"type": "Feature", "properties": {"start": "Gare de Pontoise", "stop_name": "Santeuil - Le Perchay", "type": "Gare accessible", "transport": "transilien", "nombre_trajet_moyen": 0.0, "transport_legende": "\ud83d\udeb2 \u2764\ufe0f Transilien \ud83d\ude86"}, "geometry": {"type": "Point", "coordinates": [1.949406923865895, 49.12334471123142]}}, {"type": "Feature", "properties": {"start": "Gare de Pontoise", "stop_name": "Chars", "type": "Gare accessible", "transport": "transilien", "nombre_trajet_moyen": 0.0, "transport_legende": "\ud83d\udeb2 \u2764\ufe0f Transilien \ud83d\ude86"}, "geometry": {"type": "Point", "coordinates": [1.936865953454158, 49.16300140123273]}}, {"type": "Feature", "properties": {"start": "Gare de Pontoise", "stop_name": "Lavilletertre", "type": "Gare accessible", "transport": "transilien", "nombre_trajet_moyen": 0.0, "transport_legende": "\ud83d\udeb2 \u2764\ufe0f Transilien \ud83d\ude86"}, "geometry": {"type": "Point", "coordinates": [1.9205792747729, 49.20238205277644]}}, {"type": "Feature", "properties": {"start": "Gare de Pontoise", "stop_name": "Liancourt-Saint-Pierre", "type": "Gare accessible", "transport": "transilien", "nombre_trajet_moyen": 0.0, "transport_legende": "\ud83d\udeb2 \u2764\ufe0f Transilien \ud83d\ude86"}, "geometry": {"type": "Point", "coordinates": [1.9054790812050528, 49.22054256178432]}}, {"type": "Feature", "properties": {"start": "Gare de Pontoise", "stop_name": "Chaumont-en-Vexin", "type": "Gare accessible", "transport": "transilien", "nombre_trajet_moyen": 0.0, "transport_legende": "\ud83d\udeb2 \u2764\ufe0f Transilien \ud83d\ude86"}, "geometry": {"type": "Point", "coordinates": [1.8732362595841847, 49.26118959499568]}}, {"type": "Feature", "properties": {"start": "Gare de Pontoise", "stop_name": "Trie-Ch\u00e2teau", "type": "Gare accessible", "transport": "transilien", "nombre_trajet_moyen": 0.0, "transport_legende": "\ud83d\udeb2 \u2764\ufe0f Transilien \ud83d\ude86"}, "geometry": {"type": "Point", "coordinates": [1.818497020989674, 49.2824007109848]}}, {"type": "Feature", "properties": {"start": "Gare de Pontoise", "stop_name": "Gisors", "type": "Gare accessible", "transport": "transilien", "nombre_trajet_moyen": 0.0, "transport_legende": "\ud83d\udeb2 \u2764\ufe0f Transilien \ud83d\ude86"}, "geometry": {"type": "Point", "coordinates": [1.784761124033206, 49.28550462482687]}}, {"type": "Feature", "properties": {"start": "Gare de Pontoise", "stop_name": "Place Coutisson", "type": "Gare accessible", "transport": "transilien", "nombre_trajet_moyen": 0.33, "transport_legende": "\ud83d\udeb2 \u2764\ufe0f Transilien \ud83d\ude86"}, "geometry": {"type": "Point", "coordinates": [2.097496390224522, 48.99635720614124]}}, {"type": "Feature", "properties": {"start": "Gare de Pontoise", "stop_name": "\u00c9ragny - Neuville", "type": "Gare accessible", "transport": "transilien", "nombre_trajet_moyen": 0.33, "transport_legende": "\ud83d\udeb2 \u2764\ufe0f Transilien \ud83d\ude86"}, "geometry": {"type": "Point", "coordinates": [2.090571123307668, 49.01790068888594]}}, {"type": "Feature", "properties": {"start": "Gare de Pontoise", "stop_name": "Saint-Ouen-l'Aum\u00f4ne Quartier de l'\u00c9glise", "type": "Gare accessible", "transport": "transilien", "nombre_trajet_moyen": 0.33, "transport_legende": "\ud83d\udeb2 \u2764\ufe0f Transilien \ud83d\ude86"}, "geometry": {"type": "Point", "coordinates": [2.1034691329132857, 49.03909361746138]}}, {"type": "Feature", "properties": {"start": "Gare de Pontoise", "stop_name": "Bobigny - Pablo Picasso", "type": "Gare accessible", "transport": "transilien", "nombre_trajet_moyen": 0.0, "transport_legende": "\ud83d\udeb2 \u2764\ufe0f Transilien \ud83d\ude86"}, "geometry": {"type": "Point", "coordinates": [2.449488196092228, 48.90662845154713]}}, {"type": "Feature", "properties": {"start": "Gare de Pontoise", "stop_name": "Saint-Denis", "type": "Gare accessible", "transport": "transilien", "nombre_trajet_moyen": 0.1, "transport_legende": "\ud83d\udeb2 \u2764\ufe0f Transilien \ud83d\ude86"}, "geometry": {"type": "Point", "coordinates": [2.345479004987329, 48.93482889939617]}}, {"type": "Feature", "properties": {"start": "Gare de Pontoise", "stop_name": "Gare d'Epinay Villetaneuse", "type": "Gare accessible", "transport": "transilien", "nombre_trajet_moyen": 0.1, "transport_legende": "\ud83d\udeb2 \u2764\ufe0f Transilien \ud83d\ude86"}, "geometry": {"type": "Point", "coordinates": [2.3291286473493003, 48.95794889655021]}}, {"type": "Feature", "properties": {"start": "Gare de Pontoise", "stop_name": "Place de la Barre", "type": "Gare accessible", "transport": "transilien", "nombre_trajet_moyen": 0.1, "transport_legende": "\ud83d\udeb2 \u2764\ufe0f Transilien \ud83d\ude86"}, "geometry": {"type": "Point", "coordinates": [2.316519821303781, 48.967634734431485]}}, {"type": "Feature", "properties": {"start": "Gare de Pontoise", "stop_name": "Gare d'Enghien-les-Bains", "type": "Gare accessible", "transport": "transilien", "nombre_trajet_moyen": 0.1, "transport_legende": "\ud83d\udeb2 \u2764\ufe0f Transilien \ud83d\ude86"}, "geometry": {"type": "Point", "coordinates": [2.3063894895425485, 48.973457743604655]}}, {"type": "Feature", "properties": {"start": "Gare de Pontoise", "stop_name": "Gare de Champ de Courses d'Enghien", "type": "Gare accessible", "transport": "transilien", "nombre_trajet_moyen": 0.1, "transport_legende": "\ud83d\udeb2 \u2764\ufe0f Transilien \ud83d\ude86"}, "geometry": {"type": "Point", "coordinates": [2.292620278998685, 48.98077821621487]}}, {"type": "Feature", "properties": {"start": "Gare de Pontoise", "stop_name": "Gare d'Ermont-Eaubonne", "type": "Gare accessible", "transport": "transilien", "nombre_trajet_moyen": 0.1, "transport_legende": "\ud83d\udeb2 \u2764\ufe0f Transilien \ud83d\ude86"}, "geometry": {"type": "Point", "coordinates": [2.271203813127117, 48.98009247741121]}}, {"type": "Feature", "properties": {"start": "Gare de Pontoise", "stop_name": "Gare de Cernay", "type": "Gare accessible", "transport": "transilien", "nombre_trajet_moyen": 0.1, "transport_legende": "\ud83d\udeb2 \u2764\ufe0f Transilien \ud83d\ude86"}, "geometry": {"type": "Point", "coordinates": [2.2574464900249405, 48.984864092575314]}}, {"type": "Feature", "properties": {"start": "Gare de Pontoise", "stop_name": "Gare de Franconville", "type": "Gare accessible", "transport": "transilien", "nombre_trajet_moyen": 0.1, "transport_legende": "\ud83d\udeb2 \u2764\ufe0f Transilien \ud83d\ude86"}, "geometry": {"type": "Point", "coordinates": [2.23382802021407, 48.99378904721819]}}, {"type": "Feature", "properties": {"start": "Gare de Pontoise", "stop_name": "Montigny - Beauchamp", "type": "Gare accessible", "transport": "transilien", "nombre_trajet_moyen": 0.1, "transport_legende": "\ud83d\udeb2 \u2764\ufe0f Transilien \ud83d\ude86"}, "geometry": {"type": "Point", "coordinates": [2.1965151756043038, 49.007744118117]}}, {"type": "Feature", "properties": {"start": "Gare de Pontoise", "stop_name": "Pierrelaye", "type": "Gare accessible", "transport": "transilien", "nombre_trajet_moyen": 0.1, "transport_legende": "\ud83d\udeb2 \u2764\ufe0f Transilien \ud83d\ude86"}, "geometry": {"type": "Point", "coordinates": [2.1545313948758564, 49.01917957374756]}}, {"type": "Feature", "properties": {"start": "Gare de Pontoise", "stop_name": "La Fayette - Dunkerque", "type": "Gare accessible", "transport": "transilien", "nombre_trajet_moyen": 0.0, "transport_legende": "\ud83d\udeb2 \u2764\ufe0f Transilien \ud83d\ude86"}, "geometry": {"type": "Point", "coordinates": [2.355748307343345, 48.879343185478696]}}, {"type": "Feature", "properties": {"start": "Gare de Pontoise", "stop_name": "Gare de l'Est", "type": "Gare accessible", "transport": "transilien", "nombre_trajet_moyen": 0.0, "transport_legende": "\ud83d\udeb2 \u2764\ufe0f Transilien \ud83d\ude86"}, "geometry": {"type": "Point", "coordinates": [2.360305141171757, 48.87857171221123]}}, {"type": "Feature", "properties": {"start": "Gare de Pontoise", "stop_name": "La Plaine - Stade de France RER", "type": "Gare accessible", "transport": "transilien", "nombre_trajet_moyen": 0.1, "transport_legende": "\ud83d\udeb2 \u2764\ufe0f Transilien \ud83d\ude86"}, "geometry": {"type": "Point", "coordinates": [2.361951651891786, 48.9183527528777]}}, {"type": "Feature", "properties": {"start": "Gare de Pontoise", "stop_name": "Herblay", "type": "Gare accessible", "transport": "transilien", "nombre_trajet_moyen": 0.0, "transport_legende": "\ud83d\udeb2 \u2764\ufe0f Transilien \ud83d\ude86"}, "geometry": {"type": "Point", "coordinates": [2.1622316587721904, 48.990136140429954]}}, {"type": "Feature", "properties": {"start": "Gare de Pontoise", "stop_name": "La Frette - Montigny", "type": "Gare accessible", "transport": "transilien", "nombre_trajet_moyen": 0.0, "transport_legende": "\ud83d\udeb2 \u2764\ufe0f Transilien \ud83d\ude86"}, "geometry": {"type": "Point", "coordinates": [2.180341866372171, 48.97988373233732]}}, {"type": "Feature", "properties": {"start": "Gare de Pontoise", "stop_name": "Gare de Cormeilles en Parisis", "type": "Gare accessible", "transport": "transilien", "nombre_trajet_moyen": 0.0, "transport_legende": "\ud83d\udeb2 \u2764\ufe0f Transilien \ud83d\ude86"}, "geometry": {"type": "Point", "coordinates": [2.194111796010436, 48.96851133173576]}}, {"type": "Feature", "properties": {"start": "Gare de Pontoise", "stop_name": "Val d'Argenteuil", "type": "Gare accessible", "transport": "transilien", "nombre_trajet_moyen": 0.0, "transport_legende": "\ud83d\udeb2 \u2764\ufe0f Transilien \ud83d\ude86"}, "geometry": {"type": "Point", "coordinates": [2.232694050053452, 48.95065749524003]}}, {"type": "Feature", "properties": {"start": "Gare de Pontoise", "stop_name": "Gare d'Argenteuil", "type": "Gare accessible", "transport": "transilien", "nombre_trajet_moyen": 0.0, "transport_legende": "\ud83d\udeb2 \u2764\ufe0f Transilien \ud83d\ude86"}, "geometry": {"type": "Point", "coordinates": [2.2574327819077094, 48.94661803093192]}}, {"type": "Feature", "properties": {"start": "Gare de Pontoise", "stop_name": "Le Stade", "type": "Gare accessible", "transport": "transilien", "nombre_trajet_moyen": 0.0, "transport_legende": "\ud83d\udeb2 \u2764\ufe0f Transilien \ud83d\ude86"}, "geometry": {"type": "Point", "coordinates": [2.260948512567054, 48.93172049557505]}}, {"type": "Feature", "properties": {"start": "Gare de Pontoise", "stop_name": "Gare de Colombes", "type": "Gare accessible", "transport": "transilien", "nombre_trajet_moyen": 0.0, "transport_legende": "\ud83d\udeb2 \u2764\ufe0f Transilien \ud83d\ude86"}, "geometry": {"type": "Point", "coordinates": [2.259412959527749, 48.92357233126087]}}, {"type": "Feature", "properties": {"start": "Gare de Pontoise", "stop_name": "Gare de Bois-Colombes", "type": "Gare accessible", "transport": "transilien", "nombre_trajet_moyen": 0.0, "transport_legende": "\ud83d\udeb2 \u2764\ufe0f Transilien \ud83d\ude86"}, "geometry": {"type": "Point", "coordinates": [2.272012118044856, 48.913604266401045]}}, {"type": "Feature", "properties": {"start": "Gare de Pontoise", "stop_name": "Rue de la Station", "type": "Gare accessible", "transport": "transilien", "nombre_trajet_moyen": 0.0, "transport_legende": "\ud83d\udeb2 \u2764\ufe0f Transilien \ud83d\ude86"}, "geometry": {"type": "Point", "coordinates": [2.2862735514302344, 48.90641463115114]}}]}