{"type": "FeatureCollection", "features": [{"type": "Feature", "properties": {"start": "Gare de Lyon", "stop_name": "Gare de Lyon", "type": "Gare s\u00e9lectionn\u00e9e", "transport": "transilien", "transport_legende": "\ud83d\udeb2 \u2764\ufe0f Transilien \ud83d\ude86"}, "geometry": {"type": "Point", "coordinates": [2.376365660931201, 48.84340211646564]}}, {"type": "Feature", "properties": {"start": "Gare de Lyon", "stop_name": "Villiers-le-Bel - Gonesse - Arnouville", "type": "Gare accessible", "transport": "transilien", "transport_legende": "\ud83d\udeb2 \u2764\ufe0f Transilien \ud83d\ude86"}, "geometry": {"type": "Point", "coordinates": [2.416246795897305, 48.99377204005172]}}, {"type": "Feature", "properties": {"start": "Gare de Lyon", "stop_name": "Garges - Sarcelles", "type": "Gare accessible", "transport": "transilien", "transport_legende": "\ud83d\udeb2 \u2764\ufe0f Transilien \ud83d\ude86"}, "geometry": {"type": "Point", "coordinates": [2.3899547555239407, 48.97632635843972]}}, {"type": "Feature", "properties": {"start": "Gare de Lyon", "stop_name": "Pierrefitte - Stains", "type": "Gare accessible", "transport": "transilien", "transport_legende": "\ud83d\udeb2 \u2764\ufe0f Transilien \ud83d\ude86"}, "geometry": {"type": "Point", "coordinates": [2.3703314284767747, 48.96277628555098]}}, {"type": "Feature", "properties": {"start": "Gare de Lyon", "stop_name": "Saint-Denis", "type": "Gare accessible", "transport": "transilien", "transport_legende": "\ud83d\udeb2 \u2764\ufe0f Transilien \ud83d\ude86"}, "geometry": {"type": "Point", "coordinates": [2.345479004987329, 48.93482889939617]}}, {"type": "Feature", "properties": {"start": "Gare de Lyon", "stop_name": "Stade de France Saint-Denis", "type": "Gare accessible", "transport": "transilien", "transport_legende": "\ud83d\udeb2 \u2764\ufe0f Transilien \ud83d\ude86"}, "geometry": {"type": "Point", "coordinates": [2.3504430479100207, 48.91769737260247]}}, {"type": "Feature", "properties": {"start": "Gare de Lyon", "stop_name": "Gare du Nord", "type": "Gare accessible", "transport": "transilien", "transport_legende": "\ud83d\udeb2 \u2764\ufe0f Transilien \ud83d\ude86"}, "geometry": {"type": "Point", "coordinates": [2.356693437528564, 48.88230685842714]}}, {"type": "Feature", "properties": {"start": "Gare de Lyon", "stop_name": "Ch\u00e2telet les Halles", "type": "Gare accessible", "transport": "transilien", "transport_legende": "\ud83d\udeb2 \u2764\ufe0f Transilien \ud83d\ude86"}, "geometry": {"type": "Point", "coordinates": [2.34697651043533, 48.86174503191322]}}, {"type": "Feature", "properties": {"start": "Gare de Lyon", "stop_name": "Maisons-Alfort - Alfortville", "type": "Gare accessible", "transport": "transilien", "transport_legende": "\ud83d\udeb2 \u2764\ufe0f Transilien \ud83d\ude86"}, "geometry": {"type": "Point", "coordinates": [2.4264376603578035, 48.80217813521484]}}, {"type": "Feature", "properties": {"start": "Gare de Lyon", "stop_name": "Villeneuve-Saint-Georges", "type": "Gare accessible", "transport": "transilien", "transport_legende": "\ud83d\udeb2 \u2764\ufe0f Transilien \ud83d\ude86"}, "geometry": {"type": "Point", "coordinates": [2.446304786739812, 48.730080267741016]}}, {"type": "Feature", "properties": {"start": "Gare de Lyon", "stop_name": "Vigneux-sur-Seine", "type": "Gare accessible", "transport": "transilien", "transport_legende": "\ud83d\udeb2 \u2764\ufe0f Transilien \ud83d\ude86"}, "geometry": {"type": "Point", "coordinates": [2.413499342148242, 48.70808932141768]}}, {"type": "Feature", "properties": {"start": "Gare de Lyon", "stop_name": "Juvisy", "type": "Gare accessible", "transport": "transilien", "transport_legende": "\ud83d\udeb2 \u2764\ufe0f Transilien \ud83d\ude86"}, "geometry": {"type": "Point", "coordinates": [2.383334629403869, 48.68970940912314]}}, {"type": "Feature", "properties": {"start": "Gare de Lyon", "stop_name": "Ris-Orangis", "type": "Gare accessible", "transport": "transilien", "transport_legende": "\ud83d\udeb2 \u2764\ufe0f Transilien \ud83d\ude86"}, "geometry": {"type": "Point", "coordinates": [2.414997460834355, 48.659057463386254]}}, {"type": "Feature", "properties": {"start": "Gare de Lyon", "stop_name": "Grand Bourg", "type": "Gare accessible", "transport": "transilien", "transport_legende": "\ud83d\udeb2 \u2764\ufe0f Transilien \ud83d\ude86"}, "geometry": {"type": "Point", "coordinates": [2.4348387319350167, 48.64880840591746]}}, {"type": "Feature", "properties": {"start": "Gare de Lyon", "stop_name": "\u00c9vry - Val de Seine", "type": "Gare accessible", "transport": "transilien", "transport_legende": "\ud83d\udeb2 \u2764\ufe0f Transilien \ud83d\ude86"}, "geometry": {"type": "Point", "coordinates": [2.4523091616356028, 48.63439299320402]}}, {"type": "Feature", "properties": {"start": "Gare de Lyon", "stop_name": "Corbeil-Essonnes", "type": "Gare accessible", "transport": "transilien", "transport_legende": "\ud83d\udeb2 \u2764\ufe0f Transilien \ud83d\ude86"}, "geometry": {"type": "Point", "coordinates": [2.472467657639279, 48.61323864277619]}}, {"type": "Feature", "properties": {"start": "Gare de Lyon", "stop_name": "Creil", "type": "Gare accessible", "transport": "transilien", "transport_legende": "\ud83d\udeb2 \u2764\ufe0f Transilien \ud83d\ude86"}, "geometry": {"type": "Point", "coordinates": [2.46892902764167, 49.264185555044406]}}, {"type": "Feature", "properties": {"start": "Gare de Lyon", "stop_name": "Chantilly - Gouvieux", "type": "Gare accessible", "transport": "transilien", "transport_legende": "\ud83d\udeb2 \u2764\ufe0f Transilien \ud83d\ude86"}, "geometry": {"type": "Point", "coordinates": [2.459515914008524, 49.187030004664]}}, {"type": "Feature", "properties": {"start": "Gare de Lyon", "stop_name": "Orry-la-Ville - Coye", "type": "Gare accessible", "transport": "transilien", "transport_legende": "\ud83d\udeb2 \u2764\ufe0f Transilien \ud83d\ude86"}, "geometry": {"type": "Point", "coordinates": [2.489862086302069, 49.13840546145438]}}, {"type": "Feature", "properties": {"start": "Gare de Lyon", "stop_name": "La Borne Blanche", "type": "Gare accessible", "transport": "transilien", "transport_legende": "\ud83d\udeb2 \u2764\ufe0f Transilien \ud83d\ude86"}, "geometry": {"type": "Point", "coordinates": [2.5069908684194053, 49.1261949449139]}}, {"type": "Feature", "properties": {"start": "Gare de Lyon", "stop_name": "Survilliers - Fosses", "type": "Gare accessible", "transport": "transilien", "transport_legende": "\ud83d\udeb2 \u2764\ufe0f Transilien \ud83d\ude86"}, "geometry": {"type": "Point", "coordinates": [2.525517836696695, 49.09951161811565]}}, {"type": "Feature", "properties": {"start": "Gare de Lyon", "stop_name": "Louvres", "type": "Gare accessible", "transport": "transilien", "transport_legende": "\ud83d\udeb2 \u2764\ufe0f Transilien \ud83d\ude86"}, "geometry": {"type": "Point", "coordinates": [2.5018113143714777, 49.04933726826723]}}, {"type": "Feature", "properties": {"start": "Gare de Lyon", "stop_name": "Les Noues", "type": "Gare accessible", "transport": "transilien", "transport_legende": "\ud83d\udeb2 \u2764\ufe0f Transilien \ud83d\ude86"}, "geometry": {"type": "Point", "coordinates": [2.477713962139221, 49.03307204384692]}}, {"type": "Feature", "properties": {"start": "Gare de Lyon", "stop_name": "Goussainville", "type": "Gare accessible", "transport": "transilien", "transport_legende": "\ud83d\udeb2 \u2764\ufe0f Transilien \ud83d\ude86"}, "geometry": {"type": "Point", "coordinates": [2.46256580793126, 49.02341075826703]}}, {"type": "Feature", "properties": {"start": "Gare de Lyon", "stop_name": "Viry-Ch\u00e2tillon", "type": "Gare accessible", "transport": "transilien", "transport_legende": "\ud83d\udeb2 \u2764\ufe0f Transilien \ud83d\ude86"}, "geometry": {"type": "Point", "coordinates": [2.387021960013403, 48.67590783936994]}}, {"type": "Feature", "properties": {"start": "Gare de Lyon", "stop_name": "Grigny Centre", "type": "Gare accessible", "transport": "transilien", "transport_legende": "\ud83d\udeb2 \u2764\ufe0f Transilien \ud83d\ude86"}, "geometry": {"type": "Point", "coordinates": [2.39678605544789, 48.65484195083382]}}, {"type": "Feature", "properties": {"start": "Gare de Lyon", "stop_name": "Orangis Bois de l'\u00c9pine", "type": "Gare accessible", "transport": "transilien", "transport_legende": "\ud83d\udeb2 \u2764\ufe0f Transilien \ud83d\ude86"}, "geometry": {"type": "Point", "coordinates": [2.40769076622141, 48.6363396147683]}}, {"type": "Feature", "properties": {"start": "Gare de Lyon", "stop_name": "\u00c9vry - Courcouronnes", "type": "Gare accessible", "transport": "transilien", "transport_legende": "\ud83d\udeb2 \u2764\ufe0f Transilien \ud83d\ude86"}, "geometry": {"type": "Point", "coordinates": [2.430032909521453, 48.62588794663492]}}, {"type": "Feature", "properties": {"start": "Gare de Lyon", "stop_name": "Le Bras de Fer", "type": "Gare accessible", "transport": "transilien", "transport_legende": "\ud83d\udeb2 \u2764\ufe0f Transilien \ud83d\ude86"}, "geometry": {"type": "Point", "coordinates": [2.4520047548737254, 48.62330639719716]}}, {"type": "Feature", "properties": {"start": "Gare de Lyon", "stop_name": "Le Vert de Maisons", "type": "Gare accessible", "transport": "transilien", "transport_legende": "\ud83d\udeb2 \u2764\ufe0f Transilien \ud83d\ude86"}, "geometry": {"type": "Point", "coordinates": [2.4321242678299977, 48.78883131123265]}}, {"type": "Feature", "properties": {"start": "Gare de Lyon", "stop_name": "Cr\u00e9teil Pompadour", "type": "Gare accessible", "transport": "transilien", "transport_legende": "\ud83d\udeb2 \u2764\ufe0f Transilien \ud83d\ude86"}, "geometry": {"type": "Point", "coordinates": [2.435080408386999, 48.77100562083573]}}, {"type": "Feature", "properties": {"start": "Gare de Lyon", "stop_name": "Villeneuve Triage", "type": "Gare accessible", "transport": "transilien", "transport_legende": "\ud83d\udeb2 \u2764\ufe0f Transilien \ud83d\ude86"}, "geometry": {"type": "Point", "coordinates": [2.438697833840877, 48.74461113914048]}}, {"type": "Feature", "properties": {"start": "Gare de Lyon", "stop_name": "Montgeron - Crosne", "type": "Gare accessible", "transport": "transilien", "transport_legende": "\ud83d\udeb2 \u2764\ufe0f Transilien \ud83d\ude86"}, "geometry": {"type": "Point", "coordinates": [2.461377446437224, 48.70871108366713]}}, {"type": "Feature", "properties": {"start": "Gare de Lyon", "stop_name": "Yerres", "type": "Gare accessible", "transport": "transilien", "transport_legende": "\ud83d\udeb2 \u2764\ufe0f Transilien \ud83d\ude86"}, "geometry": {"type": "Point", "coordinates": [2.483187005163047, 48.7064507273249]}}, {"type": "Feature", "properties": {"start": "Gare de Lyon", "stop_name": "Brunoy", "type": "Gare accessible", "transport": "transilien", "transport_legende": "\ud83d\udeb2 \u2764\ufe0f Transilien \ud83d\ude86"}, "geometry": {"type": "Point", "coordinates": [2.506850312311369, 48.698914475306886]}}, {"type": "Feature", "properties": {"start": "Gare de Lyon", "stop_name": "Boussy-Saint-Antoine", "type": "Gare accessible", "transport": "transilien", "transport_legende": "\ud83d\udeb2 \u2764\ufe0f Transilien \ud83d\ude86"}, "geometry": {"type": "Point", "coordinates": [2.533195809235637, 48.68087387117553]}}, {"type": "Feature", "properties": {"start": "Gare de Lyon", "stop_name": "Combs-la-Ville - Quincy", "type": "Gare accessible", "transport": "transilien", "transport_legende": "\ud83d\udeb2 \u2764\ufe0f Transilien \ud83d\ude86"}, "geometry": {"type": "Point", "coordinates": [2.5476998823085504, 48.667819721800015]}}, {"type": "Feature", "properties": {"start": "Gare de Lyon", "stop_name": "Lieusaint - Moissy", "type": "Gare accessible", "transport": "transilien", "transport_legende": "\ud83d\udeb2 \u2764\ufe0f Transilien \ud83d\ude86"}, "geometry": {"type": "Point", "coordinates": [2.569507070898012, 48.62833648393033]}}, {"type": "Feature", "properties": {"start": "Gare de Lyon", "stop_name": "Savigny-le-Temple - Nandy", "type": "Gare accessible", "transport": "transilien", "transport_legende": "\ud83d\udeb2 \u2764\ufe0f Transilien \ud83d\ude86"}, "geometry": {"type": "Point", "coordinates": [2.5839359760934317, 48.59548998563483]}}, {"type": "Feature", "properties": {"start": "Gare de Lyon", "stop_name": "Cesson", "type": "Gare accessible", "transport": "transilien", "transport_legende": "\ud83d\udeb2 \u2764\ufe0f Transilien \ud83d\ude86"}, "geometry": {"type": "Point", "coordinates": [2.5946150549367304, 48.56486314053174]}}, {"type": "Feature", "properties": {"start": "Gare de Lyon", "stop_name": "Le M\u00e9e", "type": "Gare accessible", "transport": "transilien", "transport_legende": "\ud83d\udeb2 \u2764\ufe0f Transilien \ud83d\ude86"}, "geometry": {"type": "Point", "coordinates": [2.6255537322060074, 48.538746730738936]}}, {"type": "Feature", "properties": {"start": "Gare de Lyon", "stop_name": "Melun", "type": "Gare accessible", "transport": "transilien", "transport_legende": "\ud83d\udeb2 \u2764\ufe0f Transilien \ud83d\ude86"}, "geometry": {"type": "Point", "coordinates": [2.65469836071817, 48.527491277248295]}}, {"type": "Feature", "properties": {"start": "Gare de Lyon", "stop_name": "Bois-le-Roi", "type": "Gare accessible", "transport": "transilien", "transport_legende": "\ud83d\udeb2 \u2764\ufe0f Transilien \ud83d\ude86"}, "geometry": {"type": "Point", "coordinates": [2.691542568002651, 48.47579827327959]}}, {"type": "Feature", "properties": {"start": "Gare de Lyon", "stop_name": "Fontainebleau - Avon", "type": "Gare accessible", "transport": "transilien", "transport_legende": "\ud83d\udeb2 \u2764\ufe0f Transilien \ud83d\ude86"}, "geometry": {"type": "Point", "coordinates": [2.7267714287220346, 48.416666098921]}}, {"type": "Feature", "properties": {"start": "Gare de Lyon", "stop_name": "Moret - Veneux-les-Sablons", "type": "Gare accessible", "transport": "transilien", "transport_legende": "\ud83d\udeb2 \u2764\ufe0f Transilien \ud83d\ude86"}, "geometry": {"type": "Point", "coordinates": [2.800462899908886, 48.37789836789835]}}, {"type": "Feature", "properties": {"start": "Gare de Lyon", "stop_name": "Saint-Mamm\u00e8s", "type": "Gare accessible", "transport": "transilien", "transport_legende": "\ud83d\udeb2 \u2764\ufe0f Transilien \ud83d\ude86"}, "geometry": {"type": "Point", "coordinates": [2.816506976966753, 48.38264713543743]}}, {"type": "Feature", "properties": {"start": "Gare de Lyon", "stop_name": "Montereau", "type": "Gare accessible", "transport": "transilien", "transport_legende": "\ud83d\udeb2 \u2764\ufe0f Transilien \ud83d\ude86"}, "geometry": {"type": "Point", "coordinates": [2.942541935520315, 48.37960363189276]}}, {"type": "Feature", "properties": {"start": "Gare de Lyon", "stop_name": "Villeneuve-la-Guyard", "type": "Gare accessible", "transport": "transilien", "transport_legende": "\ud83d\udeb2 \u2764\ufe0f Transilien \ud83d\ude86"}, "geometry": {"type": "Point", "coordinates": [3.0720201061041963, 48.34261875935412]}}, {"type": "Feature", "properties": {"start": "Gare de Lyon", "stop_name": "Champigny-sur-Yonne", "type": "Gare accessible", "transport": "transilien", "transport_legende": "\ud83d\udeb2 \u2764\ufe0f Transilien \ud83d\ude86"}, "geometry": {"type": "Point", "coordinates": [3.130154840410363, 48.32421062271411]}}, {"type": "Feature", "properties": {"start": "Gare de Lyon", "stop_name": "Pont-sur-Yonne", "type": "Gare accessible", "transport": "transilien", "transport_legende": "\ud83d\udeb2 \u2764\ufe0f Transilien \ud83d\ude86"}, "geometry": {"type": "Point", "coordinates": [3.201822135556628, 48.286200143295794]}}, {"type": "Feature", "properties": {"start": "Gare de Lyon", "stop_name": "Sens", "type": "Gare accessible", "transport": "transilien", "transport_legende": "\ud83d\udeb2 \u2764\ufe0f Transilien \ud83d\ude86"}, "geometry": {"type": "Point", "coordinates": [3.2673805413803247, 48.19822559869753]}}, {"type": "Feature", "properties": {"start": "Gare de Lyon", "stop_name": "Villeneuve-sur-Yonne", "type": "Gare accessible", "transport": "transilien", "transport_legende": "\ud83d\udeb2 \u2764\ufe0f Transilien \ud83d\ude86"}, "geometry": {"type": "Point", "coordinates": [3.28650469508052, 48.08520669575616]}}, {"type": "Feature", "properties": {"start": "Gare de Lyon", "stop_name": "Saint-Julien du Sault", "type": "Gare accessible", "transport": "transilien", "transport_legende": "\ud83d\udeb2 \u2764\ufe0f Transilien \ud83d\ude86"}, "geometry": {"type": "Point", "coordinates": [3.302762450780337, 48.02662402302481]}}, {"type": "Feature", "properties": {"start": "Gare de Lyon", "stop_name": "Joigny", "type": "Gare accessible", "transport": "transilien", "transport_legende": "\ud83d\udeb2 \u2764\ufe0f Transilien \ud83d\ude86"}, "geometry": {"type": "Point", "coordinates": [3.393667054376571, 47.97365568630087]}}, {"type": "Feature", "properties": {"start": "Gare de Lyon", "stop_name": "Laroche - Migennes", "type": "Gare accessible", "transport": "transilien", "transport_legende": "\ud83d\udeb2 \u2764\ufe0f Transilien \ud83d\ude86"}, "geometry": {"type": "Point", "coordinates": [3.5126763134529835, 47.96107924372578]}}, {"type": "Feature", "properties": {"start": "Gare de Lyon", "stop_name": "\u00c9tigny - V\u00e9ron", "type": "Gare accessible", "transport": "transilien", "transport_legende": "\ud83d\udeb2 \u2764\ufe0f Transilien \ud83d\ude86"}, "geometry": {"type": "Point", "coordinates": [3.2900826338816094, 48.13765030143217]}}, {"type": "Feature", "properties": {"start": "Gare de Lyon", "stop_name": "Champagne-sur-Seine", "type": "Gare accessible", "transport": "transilien", "transport_legende": "\ud83d\udeb2 \u2764\ufe0f Transilien \ud83d\ude86"}, "geometry": {"type": "Point", "coordinates": [2.798915755216375, 48.40726498958356]}}, {"type": "Feature", "properties": {"start": "Gare de Lyon", "stop_name": "Cergy le Haut", "type": "Gare accessible", "transport": "transilien", "transport_legende": "\ud83d\udeb2 \u2764\ufe0f Transilien \ud83d\ude86"}, "geometry": {"type": "Point", "coordinates": [2.011579068023536, 49.04823262405815]}}, {"type": "Feature", "properties": {"start": "Gare de Lyon", "stop_name": "Cergy Saint-Christophe", "type": "Gare accessible", "transport": "transilien", "transport_legende": "\ud83d\udeb2 \u2764\ufe0f Transilien \ud83d\ude86"}, "geometry": {"type": "Point", "coordinates": [2.0345219282999176, 49.049642166828754]}}, {"type": "Feature", "properties": {"start": "Gare de Lyon", "stop_name": "Cergy Pr\u00e9fecture", "type": "Gare accessible", "transport": "transilien", "transport_legende": "\ud83d\udeb2 \u2764\ufe0f Transilien \ud83d\ude86"}, "geometry": {"type": "Point", "coordinates": [2.0797809490013077, 49.036306683133965]}}, {"type": "Feature", "properties": {"start": "Gare de Lyon", "stop_name": "Neuville Universit\u00e9", "type": "Gare accessible", "transport": "transilien", "transport_legende": "\ud83d\udeb2 \u2764\ufe0f Transilien \ud83d\ude86"}, "geometry": {"type": "Point", "coordinates": [2.078348820578231, 49.01374275942672]}}, {"type": "Feature", "properties": {"start": "Gare de Lyon", "stop_name": "Conflans Fin d'Oise", "type": "Gare accessible", "transport": "transilien", "transport_legende": "\ud83d\udeb2 \u2764\ufe0f Transilien \ud83d\ude86"}, "geometry": {"type": "Point", "coordinates": [2.0746499245710197, 48.99115628725848]}}, {"type": "Feature", "properties": {"start": "Gare de Lyon", "stop_name": "Ach\u00e8res Ville", "type": "Gare accessible", "transport": "transilien", "transport_legende": "\ud83d\udeb2 \u2764\ufe0f Transilien \ud83d\ude86"}, "geometry": {"type": "Point", "coordinates": [2.0777265246565437, 48.97064357081442]}}, {"type": "Feature", "properties": {"start": "Gare de Lyon", "stop_name": "Maisons-Laffitte", "type": "Gare accessible", "transport": "transilien", "transport_legende": "\ud83d\udeb2 \u2764\ufe0f Transilien \ud83d\ude86"}, "geometry": {"type": "Point", "coordinates": [2.144672265933885, 48.94574060746957]}}, {"type": "Feature", "properties": {"start": "Gare de Lyon", "stop_name": "Sartrouville", "type": "Gare accessible", "transport": "transilien", "transport_legende": "\ud83d\udeb2 \u2764\ufe0f Transilien \ud83d\ude86"}, "geometry": {"type": "Point", "coordinates": [2.157220038850732, 48.93769529363442]}}, {"type": "Feature", "properties": {"start": "Gare de Lyon", "stop_name": "Houilles - Carri\u00e8res-sur-Seine", "type": "Gare accessible", "transport": "transilien", "transport_legende": "\ud83d\udeb2 \u2764\ufe0f Transilien \ud83d\ude86"}, "geometry": {"type": "Point", "coordinates": [2.1851757042018707, 48.92034757911033]}}, {"type": "Feature", "properties": {"start": "Gare de Lyon", "stop_name": "Nanterre Pr\u00e9fecture", "type": "Gare accessible", "transport": "transilien", "transport_legende": "\ud83d\udeb2 \u2764\ufe0f Transilien \ud83d\ude86"}, "geometry": {"type": "Point", "coordinates": [2.222986242991368, 48.895886773064674]}}, {"type": "Feature", "properties": {"start": "Gare de Lyon", "stop_name": "La D\u00e9fense", "type": "Gare accessible", "transport": "transilien", "transport_legende": "\ud83d\udeb2 \u2764\ufe0f Transilien \ud83d\ude86"}, "geometry": {"type": "Point", "coordinates": [2.238418596250407, 48.892229801568206]}}, {"type": "Feature", "properties": {"start": "Gare de Lyon", "stop_name": "Charles de Gaulle - Etoile", "type": "Gare accessible", "transport": "transilien", "transport_legende": "\ud83d\udeb2 \u2764\ufe0f Transilien \ud83d\ude86"}, "geometry": {"type": "Point", "coordinates": [2.295231447641207, 48.874172759565376]}}, {"type": "Feature", "properties": {"start": "Gare de Lyon", "stop_name": "Auber", "type": "Gare accessible", "transport": "transilien", "transport_legende": "\ud83d\udeb2 \u2764\ufe0f Transilien \ud83d\ude86"}, "geometry": {"type": "Point", "coordinates": [2.3296591495793595, 48.8723488407182]}}, {"type": "Feature", "properties": {"start": "Gare de Lyon", "stop_name": "Nation", "type": "Gare accessible", "transport": "transilien", "transport_legende": "\ud83d\udeb2 \u2764\ufe0f Transilien \ud83d\ude86"}, "geometry": {"type": "Point", "coordinates": [2.3959444654495297, 48.84823319072756]}}, {"type": "Feature", "properties": {"start": "Gare de Lyon", "stop_name": "Vincennes", "type": "Gare accessible", "transport": "transilien", "transport_legende": "\ud83d\udeb2 \u2764\ufe0f Transilien \ud83d\ude86"}, "geometry": {"type": "Point", "coordinates": [2.4325836014183, 48.84734683460296]}}, {"type": "Feature", "properties": {"start": "Gare de Lyon", "stop_name": "Fontenay-sous-Bois", "type": "Gare accessible", "transport": "transilien", "transport_legende": "\ud83d\udeb2 \u2764\ufe0f Transilien \ud83d\ude86"}, "geometry": {"type": "Point", "coordinates": [2.463537806527943, 48.8437885964859]}}, {"type": "Feature", "properties": {"start": "Gare de Lyon", "stop_name": "Nogent-sur-Marne", "type": "Gare accessible", "transport": "transilien", "transport_legende": "\ud83d\udeb2 \u2764\ufe0f Transilien \ud83d\ude86"}, "geometry": {"type": "Point", "coordinates": [2.471683791180998, 48.834306538503405]}}, {"type": "Feature", "properties": {"start": "Gare de Lyon", "stop_name": "Joinville-le-Pont", "type": "Gare accessible", "transport": "transilien", "transport_legende": "\ud83d\udeb2 \u2764\ufe0f Transilien \ud83d\ude86"}, "geometry": {"type": "Point", "coordinates": [2.4638739495546496, 48.82119737360793]}}, {"type": "Feature", "properties": {"start": "Gare de Lyon", "stop_name": "Saint-Maur - Cr\u00e9teil", "type": "Gare accessible", "transport": "transilien", "transport_legende": "\ud83d\udeb2 \u2764\ufe0f Transilien \ud83d\ude86"}, "geometry": {"type": "Point", "coordinates": [2.4729094308778183, 48.80619648110731]}}, {"type": "Feature", "properties": {"start": "Gare de Lyon", "stop_name": "Le Parc de Saint-Maur", "type": "Gare accessible", "transport": "transilien", "transport_legende": "\ud83d\udeb2 \u2764\ufe0f Transilien \ud83d\ude86"}, "geometry": {"type": "Point", "coordinates": [2.486623744135692, 48.8054097518155]}}, {"type": "Feature", "properties": {"start": "Gare de Lyon", "stop_name": "Champigny", "type": "Gare accessible", "transport": "transilien", "transport_legende": "\ud83d\udeb2 \u2764\ufe0f Transilien \ud83d\ude86"}, "geometry": {"type": "Point", "coordinates": [2.510538043646919, 48.80682309456137]}}, {"type": "Feature", "properties": {"start": "Gare de Lyon", "stop_name": "La Varenne - Chennevi\u00e8res", "type": "Gare accessible", "transport": "transilien", "transport_legende": "\ud83d\udeb2 \u2764\ufe0f Transilien \ud83d\ude86"}, "geometry": {"type": "Point", "coordinates": [2.5132322873015256, 48.79532749459459]}}, {"type": "Feature", "properties": {"start": "Gare de Lyon", "stop_name": "Sucy - Bonneuil", "type": "Gare accessible", "transport": "transilien", "transport_legende": "\ud83d\udeb2 \u2764\ufe0f Transilien \ud83d\ude86"}, "geometry": {"type": "Point", "coordinates": [2.5074994611650823, 48.77206393780998]}}, {"type": "Feature", "properties": {"start": "Gare de Lyon", "stop_name": "Boissy-Saint-L\u00e9ger", "type": "Gare accessible", "transport": "transilien", "transport_legende": "\ud83d\udeb2 \u2764\ufe0f Transilien \ud83d\ude86"}, "geometry": {"type": "Point", "coordinates": [2.504498176690716, 48.752267307821874]}}, {"type": "Feature", "properties": {"start": "Gare de Lyon", "stop_name": "Marne-la-Vall\u00e9e Chessy", "type": "Gare accessible", "transport": "transilien", "transport_legende": "\ud83d\udeb2 \u2764\ufe0f Transilien \ud83d\ude86"}, "geometry": {"type": "Point", "coordinates": [2.7824826512673546, 48.86979506673141]}}, {"type": "Feature", "properties": {"start": "Gare de Lyon", "stop_name": "Val d'Europe", "type": "Gare accessible", "transport": "transilien", "transport_legende": "\ud83d\udeb2 \u2764\ufe0f Transilien \ud83d\ude86"}, "geometry": {"type": "Point", "coordinates": [2.772426894234028, 48.85484622851565]}}, {"type": "Feature", "properties": {"start": "Gare de Lyon", "stop_name": "Bussy-Saint-Georges", "type": "Gare accessible", "transport": "transilien", "transport_legende": "\ud83d\udeb2 \u2764\ufe0f Transilien \ud83d\ude86"}, "geometry": {"type": "Point", "coordinates": [2.710382839509696, 48.83671337078136]}}, {"type": "Feature", "properties": {"start": "Gare de Lyon", "stop_name": "Torcy", "type": "Gare accessible", "transport": "transilien", "transport_legende": "\ud83d\udeb2 \u2764\ufe0f Transilien \ud83d\ude86"}, "geometry": {"type": "Point", "coordinates": [2.655169106193295, 48.83971015133779]}}, {"type": "Feature", "properties": {"start": "Gare de Lyon", "stop_name": "Lognes", "type": "Gare accessible", "transport": "transilien", "transport_legende": "\ud83d\udeb2 \u2764\ufe0f Transilien \ud83d\ude86"}, "geometry": {"type": "Point", "coordinates": [2.633026934567703, 48.839255049438655]}}, {"type": "Feature", "properties": {"start": "Gare de Lyon", "stop_name": "Noisiel", "type": "Gare accessible", "transport": "transilien", "transport_legende": "\ud83d\udeb2 \u2764\ufe0f Transilien \ud83d\ude86"}, "geometry": {"type": "Point", "coordinates": [2.616660606000051, 48.84351408493866]}}, {"type": "Feature", "properties": {"start": "Gare de Lyon", "stop_name": "Noisy - Champs", "type": "Gare accessible", "transport": "transilien", "transport_legende": "\ud83d\udeb2 \u2764\ufe0f Transilien \ud83d\ude86"}, "geometry": {"type": "Point", "coordinates": [2.580103342831972, 48.84289619599068]}}, {"type": "Feature", "properties": {"start": "Gare de Lyon", "stop_name": "Noisy-le-Grand - Mont d'Est", "type": "Gare accessible", "transport": "transilien", "transport_legende": "\ud83d\udeb2 \u2764\ufe0f Transilien \ud83d\ude86"}, "geometry": {"type": "Point", "coordinates": [2.550026754158765, 48.84088525041221]}}, {"type": "Feature", "properties": {"start": "Gare de Lyon", "stop_name": "Bry-sur-Marne", "type": "Gare accessible", "transport": "transilien", "transport_legende": "\ud83d\udeb2 \u2764\ufe0f Transilien \ud83d\ude86"}, "geometry": {"type": "Point", "coordinates": [2.525670945020106, 48.84513747628085]}}, {"type": "Feature", "properties": {"start": "Gare de Lyon", "stop_name": "Neuilly-Plaisance", "type": "Gare accessible", "transport": "transilien", "transport_legende": "\ud83d\udeb2 \u2764\ufe0f Transilien \ud83d\ude86"}, "geometry": {"type": "Point", "coordinates": [2.5145898211367705, 48.85252451313788]}}, {"type": "Feature", "properties": {"start": "Gare de Lyon", "stop_name": "Val de Fontenay", "type": "Gare accessible", "transport": "transilien", "transport_legende": "\ud83d\udeb2 \u2764\ufe0f Transilien \ud83d\ude86"}, "geometry": {"type": "Point", "coordinates": [2.4890536307751616, 48.85424654032024]}}, {"type": "Feature", "properties": {"start": "Gare de Lyon", "stop_name": "Nanterre Universit\u00e9", "type": "Gare accessible", "transport": "transilien", "transport_legende": "\ud83d\udeb2 \u2764\ufe0f Transilien \ud83d\ude86"}, "geometry": {"type": "Point", "coordinates": [2.213536495127317, 48.90112974604822]}}, {"type": "Feature", "properties": {"start": "Gare de Lyon", "stop_name": "Nanterre Ville", "type": "Gare accessible", "transport": "transilien", "transport_legende": "\ud83d\udeb2 \u2764\ufe0f Transilien \ud83d\ude86"}, "geometry": {"type": "Point", "coordinates": [2.19511769490499, 48.89501972616058]}}, {"type": "Feature", "properties": {"start": "Gare de Lyon", "stop_name": "Rueil-Malmaison", "type": "Gare accessible", "transport": "transilien", "transport_legende": "\ud83d\udeb2 \u2764\ufe0f Transilien \ud83d\ude86"}, "geometry": {"type": "Point", "coordinates": [2.172366417897185, 48.88767250064626]}}, {"type": "Feature", "properties": {"start": "Gare de Lyon", "stop_name": "Chatou - Croissy", "type": "Gare accessible", "transport": "transilien", "transport_legende": "\ud83d\udeb2 \u2764\ufe0f Transilien \ud83d\ude86"}, "geometry": {"type": "Point", "coordinates": [2.155937662470897, 48.88519702561107]}}, {"type": "Feature", "properties": {"start": "Gare de Lyon", "stop_name": "Le V\u00e9sinet - Centre", "type": "Gare accessible", "transport": "transilien", "transport_legende": "\ud83d\udeb2 \u2764\ufe0f Transilien \ud83d\ude86"}, "geometry": {"type": "Point", "coordinates": [2.1343339900216813, 48.89013759185911]}}, {"type": "Feature", "properties": {"start": "Gare de Lyon", "stop_name": "Le V\u00e9sinet - Le Pecq", "type": "Gare accessible", "transport": "transilien", "transport_legende": "\ud83d\udeb2 \u2764\ufe0f Transilien \ud83d\ude86"}, "geometry": {"type": "Point", "coordinates": [2.122132232303764, 48.89794951079969]}}, {"type": "Feature", "properties": {"start": "Gare de Lyon", "stop_name": "Saint-Germain-en-Laye", "type": "Gare accessible", "transport": "transilien", "transport_legende": "\ud83d\udeb2 \u2764\ufe0f Transilien \ud83d\ude86"}, "geometry": {"type": "Point", "coordinates": [2.095041912326374, 48.898745300550765]}}, {"type": "Feature", "properties": {"start": "Gare de Lyon", "stop_name": "Ach\u00e8res Grand Cormier", "type": "Gare accessible", "transport": "transilien", "transport_legende": "\ud83d\udeb2 \u2764\ufe0f Transilien \ud83d\ude86"}, "geometry": {"type": "Point", "coordinates": [2.0936529195192275, 48.95541092942684]}}, {"type": "Feature", "properties": {"start": "Gare de Lyon", "stop_name": "Poissy", "type": "Gare accessible", "transport": "transilien", "transport_legende": "\ud83d\udeb2 \u2764\ufe0f Transilien \ud83d\ude86"}, "geometry": {"type": "Point", "coordinates": [2.040804469960689, 48.93324983956547]}}, {"type": "Feature", "properties": {"start": "Gare de Lyon", "stop_name": "Montargis", "type": "Gare accessible", "transport": "transilien", "transport_legende": "\ud83d\udeb2 \u2764\ufe0f Transilien \ud83d\ude86"}, "geometry": {"type": "Point", "coordinates": [2.743201130533139, 48.00669739961254]}}, {"type": "Feature", "properties": {"start": "Gare de Lyon", "stop_name": "Ferri\u00e8res - Fontenay", "type": "Gare accessible", "transport": "transilien", "transport_legende": "\ud83d\udeb2 \u2764\ufe0f Transilien \ud83d\ude86"}, "geometry": {"type": "Point", "coordinates": [2.772092076153004, 48.09588996416835]}}, {"type": "Feature", "properties": {"start": "Gare de Lyon", "stop_name": "Dordives", "type": "Gare accessible", "transport": "transilien", "transport_legende": "\ud83d\udeb2 \u2764\ufe0f Transilien \ud83d\ude86"}, "geometry": {"type": "Point", "coordinates": [2.762658376432018, 48.14790552423752]}}, {"type": "Feature", "properties": {"start": "Gare de Lyon", "stop_name": "Souppes - Ch\u00e2teau-Landon", "type": "Gare accessible", "transport": "transilien", "transport_legende": "\ud83d\udeb2 \u2764\ufe0f Transilien \ud83d\ude86"}, "geometry": {"type": "Point", "coordinates": [2.7358697259911766, 48.18117871674994]}}, {"type": "Feature", "properties": {"start": "Gare de Lyon", "stop_name": "Bagneaux-sur-Loing", "type": "Gare accessible", "transport": "transilien", "transport_legende": "\ud83d\udeb2 \u2764\ufe0f Transilien \ud83d\ude86"}, "geometry": {"type": "Point", "coordinates": [2.7040329448732985, 48.22938980618883]}}, {"type": "Feature", "properties": {"start": "Gare de Lyon", "stop_name": "Nemours - Saint-Pierre", "type": "Gare accessible", "transport": "transilien", "transport_legende": "\ud83d\udeb2 \u2764\ufe0f Transilien \ud83d\ude86"}, "geometry": {"type": "Point", "coordinates": [2.6850524330729284, 48.26863657605134]}}, {"type": "Feature", "properties": {"start": "Gare de Lyon", "stop_name": "Bourron-Marlotte - Grez", "type": "Gare accessible", "transport": "transilien", "transport_legende": "\ud83d\udeb2 \u2764\ufe0f Transilien \ud83d\ude86"}, "geometry": {"type": "Point", "coordinates": [2.6918764214147592, 48.33245103346405]}}, {"type": "Feature", "properties": {"start": "Gare de Lyon", "stop_name": "Montigny-sur-Loing", "type": "Gare accessible", "transport": "transilien", "transport_legende": "\ud83d\udeb2 \u2764\ufe0f Transilien \ud83d\ude86"}, "geometry": {"type": "Point", "coordinates": [2.738336123575285, 48.33649861774928]}}, {"type": "Feature", "properties": {"start": "Gare de Lyon", "stop_name": "Thomery", "type": "Gare accessible", "transport": "transilien", "transport_legende": "\ud83d\udeb2 \u2764\ufe0f Transilien \ud83d\ude86"}, "geometry": {"type": "Point", "coordinates": [2.764187149192088, 48.39428183783365]}}]}