{"type": "FeatureCollection", "features": [{"type": "Feature", "properties": {"start": "Gare de Ballancourt", "stop_name": "Gare de Ballancourt", "type": "Gare s\u00e9lectionn\u00e9e", "transport": "transilien", "nombre_trajet_moyen": 0.0, "transport_legende": "\ud83d\udeb2 \u2764\ufe0f Transilien \ud83d\ude86"}, "geometry": {"type": "Point", "coordinates": [2.371467080777462, 48.5322100532332]}}, {"type": "Feature", "properties": {"start": "Gare de Ballancourt", "stop_name": "Gare de Corbeil-Essonnes", "type": "Gare accessible", "transport": "transilien", "nombre_trajet_moyen": 0.0, "transport_legende": "\ud83d\udeb2 \u2764\ufe0f Transilien \ud83d\ude86"}, "geometry": {"type": "Point", "coordinates": [2.4742716122476227, 48.61394375582231]}}, {"type": "Feature", "properties": {"start": "Gare de Ballancourt", "stop_name": "Gare de Moulin Galant", "type": "Gare accessible", "transport": "transilien", "nombre_trajet_moyen": 0.0, "transport_legende": "\ud83d\udeb2 \u2764\ufe0f Transilien \ud83d\ude86"}, "geometry": {"type": "Point", "coordinates": [2.4727059126089443, 48.5862130303447]}}, {"type": "Feature", "properties": {"start": "Gare de Ballancourt", "stop_name": "Mennecy", "type": "Gare accessible", "transport": "transilien", "nombre_trajet_moyen": 0.0, "transport_legende": "\ud83d\udeb2 \u2764\ufe0f Transilien \ud83d\ude86"}, "geometry": {"type": "Point", "coordinates": [2.4319348900260658, 48.57054850948166]}}, {"type": "Feature", "properties": {"start": "Gare de Ballancourt", "stop_name": "Gare de la Fert\u00e9-Alais", "type": "Gare accessible", "transport": "transilien", "nombre_trajet_moyen": 0.0, "transport_legende": "\ud83d\udeb2 \u2764\ufe0f Transilien \ud83d\ude86"}, "geometry": {"type": "Point", "coordinates": [2.3511416888856176, 48.48511842150954]}}, {"type": "Feature", "properties": {"start": "Gare de Ballancourt", "stop_name": "Moulin Galant", "type": "Gare accessible", "transport": "transilien", "nombre_trajet_moyen": 0.0, "transport_legende": "\ud83d\udeb2 \u2764\ufe0f Transilien \ud83d\ude86"}, "geometry": {"type": "Point", "coordinates": [2.473444919964576, 48.58688228073328]}}, {"type": "Feature", "properties": {"start": "Gare de Ballancourt", "stop_name": "Gare de Mennecy Rue de l'Abreuvoir", "type": "Gare accessible", "transport": "transilien", "nombre_trajet_moyen": 0.0, "transport_legende": "\ud83d\udeb2 \u2764\ufe0f Transilien \ud83d\ude86"}, "geometry": {"type": "Point", "coordinates": [2.4333676539149303, 48.57154935945596]}}, {"type": "Feature", "properties": {"start": "Gare de Ballancourt", "stop_name": "Boutigny", "type": "Gare accessible", "transport": "transilien", "nombre_trajet_moyen": 0.0, "transport_legende": "\ud83d\udeb2 \u2764\ufe0f Transilien \ud83d\ude86"}, "geometry": {"type": "Point", "coordinates": [2.3767454804181263, 48.43442542513416]}}, {"type": "Feature", "properties": {"start": "Gare de Ballancourt", "stop_name": "Gare de Maisse", "type": "Gare accessible", "transport": "transilien", "nombre_trajet_moyen": 0.0, "transport_legende": "\ud83d\udeb2 \u2764\ufe0f Transilien \ud83d\ude86"}, "geometry": {"type": "Point", "coordinates": [2.3928767871568906, 48.39269200651419]}}, {"type": "Feature", "properties": {"start": "Gare de Ballancourt", "stop_name": "Gare SNCF", "type": "Gare accessible", "transport": "transilien", "nombre_trajet_moyen": 0.0, "transport_legende": "\ud83d\udeb2 \u2764\ufe0f Transilien \ud83d\ude86"}, "geometry": {"type": "Point", "coordinates": [2.386519727869182, 48.37020275020897]}}, {"type": "Feature", "properties": {"start": "Gare de Ballancourt", "stop_name": "Gare de Boigneville", "type": "Gare accessible", "transport": "transilien", "nombre_trajet_moyen": 0.0, "transport_legende": "\ud83d\udeb2 \u2764\ufe0f Transilien \ud83d\ude86"}, "geometry": {"type": "Point", "coordinates": [2.3784663331668394, 48.34208956802877]}}, {"type": "Feature", "properties": {"start": "Gare de Ballancourt", "stop_name": "Malesherbes", "type": "Gare accessible", "transport": "transilien", "nombre_trajet_moyen": 0.0, "transport_legende": "\ud83d\udeb2 \u2764\ufe0f Transilien \ud83d\ude86"}, "geometry": {"type": "Point", "coordinates": [2.401036441728877, 48.293633291470464]}}]}