{"type": "FeatureCollection", "features": [{"type": "Feature", "properties": {"start": "Gare de Ponthierry-Pringy", "stop_name": "Gare de Ponthierry-Pringy", "type": "Gare s\u00e9lectionn\u00e9e", "transport": "transilien", "nombre_trajet_moyen": 0.0, "transport_legende": "\ud83d\udeb2 \u2764\ufe0f Transilien \ud83d\ude86"}, "geometry": {"type": "Point", "coordinates": [2.5440646873620527, 48.53491784257896]}}, {"type": "Feature", "properties": {"start": "Gare de Ponthierry-Pringy", "stop_name": "Gare de Corbeil-Essonnes", "type": "Gare accessible", "transport": "transilien", "nombre_trajet_moyen": 0.0, "transport_legende": "\ud83d\udeb2 \u2764\ufe0f Transilien \ud83d\ude86"}, "geometry": {"type": "Point", "coordinates": [2.4742716122476227, 48.61394375582231]}}, {"type": "Feature", "properties": {"start": "Gare de Ponthierry-Pringy", "stop_name": "Gare de Saint Fargeau", "type": "Gare accessible", "transport": "transilien", "nombre_trajet_moyen": 0.0, "transport_legende": "\ud83d\udeb2 \u2764\ufe0f Transilien \ud83d\ude86"}, "geometry": {"type": "Point", "coordinates": [2.542314393327341, 48.56474089499119]}}, {"type": "Feature", "properties": {"start": "Gare de Ponthierry-Pringy", "stop_name": "Boissise-le-Roi", "type": "Gare accessible", "transport": "transilien", "nombre_trajet_moyen": 0.0, "transport_legende": "\ud83d\udeb2 \u2764\ufe0f Transilien \ud83d\ude86"}, "geometry": {"type": "Point", "coordinates": [2.57179291425262, 48.52985734002498]}}, {"type": "Feature", "properties": {"start": "Gare de Ponthierry-Pringy", "stop_name": "Vosves", "type": "Gare accessible", "transport": "transilien", "nombre_trajet_moyen": 0.0, "transport_legende": "\ud83d\udeb2 \u2764\ufe0f Transilien \ud83d\ude86"}, "geometry": {"type": "Point", "coordinates": [2.5994097381795305, 48.51507609100275]}}, {"type": "Feature", "properties": {"start": "Gare de Ponthierry-Pringy", "stop_name": "Farcy", "type": "Gare accessible", "transport": "transilien", "nombre_trajet_moyen": 0.0, "transport_legende": "\ud83d\udeb2 \u2764\ufe0f Transilien \ud83d\ude86"}, "geometry": {"type": "Point", "coordinates": [2.624647986074666, 48.51577753685524]}}, {"type": "Feature", "properties": {"start": "Gare de Ponthierry-Pringy", "stop_name": "Jean Jaur\u00e8s", "type": "Gare accessible", "transport": "transilien", "nombre_trajet_moyen": 0.0, "transport_legende": "\ud83d\udeb2 \u2764\ufe0f Transilien \ud83d\ude86"}, "geometry": {"type": "Point", "coordinates": [2.406639836988374, 48.65030843612308]}}, {"type": "Feature", "properties": {"start": "Gare de Ponthierry-Pringy", "stop_name": "Melun", "type": "Gare accessible", "transport": "transilien", "nombre_trajet_moyen": 0.0, "transport_legende": "\ud83d\udeb2 \u2764\ufe0f Transilien \ud83d\ude86"}, "geometry": {"type": "Point", "coordinates": [2.65469836071817, 48.527491277248295]}}]}