{"type": "FeatureCollection", "features": [{"type": "Feature", "properties": {"start": "Gare de Bellevue", "stop_name": "Gare de Bellevue", "type": "Gare s\u00e9lectionn\u00e9e", "transport": "transilien", "nombre_trajet_moyen": 0.0, "transport_legende": "\ud83d\udeb2 \u2764\ufe0f Transilien \ud83d\ude86"}, "geometry": {"type": "Point", "coordinates": [2.229427997723925, 48.81868070498045]}}, {"type": "Feature", "properties": {"start": "Gare de Bellevue", "stop_name": "Gare Routi\u00e8re de Mantes-la-Ville - Quai 21", "type": "Gare accessible", "transport": "transilien", "nombre_trajet_moyen": 0.0, "transport_legende": "\ud83d\udeb2 \u2764\ufe0f Transilien \ud83d\ude86"}, "geometry": {"type": "Point", "coordinates": [1.7040981345169726, 48.988058844577104]}}, {"type": "Feature", "properties": {"start": "Gare de Bellevue", "stop_name": "Gare d'Ep\u00f4ne M\u00e9zi\u00e8res", "type": "Gare accessible", "transport": "transilien", "nombre_trajet_moyen": 0.0, "transport_legende": "\ud83d\udeb2 \u2764\ufe0f Transilien \ud83d\ude86"}, "geometry": {"type": "Point", "coordinates": [1.808521323912108, 48.96264723455797]}}, {"type": "Feature", "properties": {"start": "Gare de Bellevue", "stop_name": "Gare de N\u00e9zel - Aulnay", "type": "Gare accessible", "transport": "transilien", "nombre_trajet_moyen": 0.0, "transport_legende": "\ud83d\udeb2 \u2764\ufe0f Transilien \ud83d\ude86"}, "geometry": {"type": "Point", "coordinates": [1.8410491414486967, 48.93840504514152]}}, {"type": "Feature", "properties": {"start": "Gare de Bellevue", "stop_name": "Gare de Maule", "type": "Gare accessible", "transport": "transilien", "nombre_trajet_moyen": 0.0, "transport_legende": "\ud83d\udeb2 \u2764\ufe0f Transilien \ud83d\ude86"}, "geometry": {"type": "Point", "coordinates": [1.8563016893133213, 48.90906154340309]}}, {"type": "Feature", "properties": {"start": "Gare de Bellevue", "stop_name": "Maurice Cayen", "type": "Gare accessible", "transport": "transilien", "nombre_trajet_moyen": 0.0, "transport_legende": "\ud83d\udeb2 \u2764\ufe0f Transilien \ud83d\ude86"}, "geometry": {"type": "Point", "coordinates": [1.86911760243534, 48.895054028985946]}}, {"type": "Feature", "properties": {"start": "Gare de Bellevue", "stop_name": "Gare de Beynes", "type": "Gare accessible", "transport": "transilien", "nombre_trajet_moyen": 0.0, "transport_legende": "\ud83d\udeb2 \u2764\ufe0f Transilien \ud83d\ude86"}, "geometry": {"type": "Point", "coordinates": [1.875462373121668, 48.85959666217409]}}, {"type": "Feature", "properties": {"start": "Gare de Bellevue", "stop_name": "Plaisir - Grignon", "type": "Gare accessible", "transport": "transilien", "nombre_trajet_moyen": 0.0, "transport_legende": "\ud83d\udeb2 \u2764\ufe0f Transilien \ud83d\ude86"}, "geometry": {"type": "Point", "coordinates": [1.943537514733802, 48.831926089228816]}}, {"type": "Feature", "properties": {"start": "Gare de Bellevue", "stop_name": "Gare de Plaisir-Les Clayes", "type": "Gare accessible", "transport": "transilien", "nombre_trajet_moyen": 0.0, "transport_legende": "\ud83d\udeb2 \u2764\ufe0f Transilien \ud83d\ude86"}, "geometry": {"type": "Point", "coordinates": [1.9596683972743336, 48.830533982237945]}}, {"type": "Feature", "properties": {"start": "Gare de Bellevue", "stop_name": "Gare Routi\u00e8re des Clayes", "type": "Gare accessible", "transport": "transilien", "nombre_trajet_moyen": 0.0, "transport_legende": "\ud83d\udeb2 \u2764\ufe0f Transilien \ud83d\ude86"}, "geometry": {"type": "Point", "coordinates": [1.991282787252901, 48.82375337300829]}}, {"type": "Feature", "properties": {"start": "Gare de Bellevue", "stop_name": "Gare de Fontenay-le-Fleury", "type": "Gare accessible", "transport": "transilien", "nombre_trajet_moyen": 0.0, "transport_legende": "\ud83d\udeb2 \u2764\ufe0f Transilien \ud83d\ude86"}, "geometry": {"type": "Point", "coordinates": [2.0400207016804064, 48.80743434880633]}}, {"type": "Feature", "properties": {"start": "Gare de Bellevue", "stop_name": "R\u00e9publique Gare Saint-Cyr", "type": "Gare accessible", "transport": "transilien", "nombre_trajet_moyen": 0.0, "transport_legende": "\ud83d\udeb2 \u2764\ufe0f Transilien \ud83d\ude86"}, "geometry": {"type": "Point", "coordinates": [2.070472084327202, 48.79958017987412]}}, {"type": "Feature", "properties": {"start": "Gare de Bellevue", "stop_name": "Gare routi\u00e8re de Versailles Chantiers - Quai I", "type": "Gare accessible", "transport": "transilien", "nombre_trajet_moyen": 0.0, "transport_legende": "\ud83d\udeb2 \u2764\ufe0f Transilien \ud83d\ude86"}, "geometry": {"type": "Point", "coordinates": [2.1333310315245493, 48.795528409527606]}}, {"type": "Feature", "properties": {"start": "Gare de Bellevue", "stop_name": "Viroflay Rive Gauche - Gabriel P\u00e9ri", "type": "Gare accessible", "transport": "transilien", "nombre_trajet_moyen": 0.0, "transport_legende": "\ud83d\udeb2 \u2764\ufe0f Transilien \ud83d\ude86"}, "geometry": {"type": "Point", "coordinates": [2.1693130210664644, 48.80401357883364]}}, {"type": "Feature", "properties": {"start": "Gare de Bellevue", "stop_name": "Gare de Chaville Rive Gauche", "type": "Gare accessible", "transport": "transilien", "nombre_trajet_moyen": 0.0, "transport_legende": "\ud83d\udeb2 \u2764\ufe0f Transilien \ud83d\ude86"}, "geometry": {"type": "Point", "coordinates": [2.1885378476002337, 48.80493711428725]}}, {"type": "Feature", "properties": {"start": "Gare de Bellevue", "stop_name": "Gare de S\u00e8vres - Rive Gauche", "type": "Gare accessible", "transport": "transilien", "nombre_trajet_moyen": 0.0, "transport_legende": "\ud83d\udeb2 \u2764\ufe0f Transilien \ud83d\ude86"}, "geometry": {"type": "Point", "coordinates": [2.218729314552705, 48.82098567968587]}}, {"type": "Feature", "properties": {"start": "Gare de Bellevue", "stop_name": "Meudon", "type": "Gare accessible", "transport": "transilien", "nombre_trajet_moyen": 0.0, "transport_legende": "\ud83d\udeb2 \u2764\ufe0f Transilien \ud83d\ude86"}, "geometry": {"type": "Point", "coordinates": [2.2428787225795106, 48.81436409632574]}}, {"type": "Feature", "properties": {"start": "Gare de Bellevue", "stop_name": "Gare de Clamart", "type": "Gare accessible", "transport": "transilien", "nombre_trajet_moyen": 0.0, "transport_legende": "\ud83d\udeb2 \u2764\ufe0f Transilien \ud83d\ude86"}, "geometry": {"type": "Point", "coordinates": [2.2718242035669416, 48.81390981971501]}}, {"type": "Feature", "properties": {"start": "Gare de Bellevue", "stop_name": "Gare de Vanves - Malakoff", "type": "Gare accessible", "transport": "transilien", "nombre_trajet_moyen": 0.0, "transport_legende": "\ud83d\udeb2 \u2764\ufe0f Transilien \ud83d\ude86"}, "geometry": {"type": "Point", "coordinates": [2.2920212011966, 48.81884285708921]}}, {"type": "Feature", "properties": {"start": "Gare de Bellevue", "stop_name": "Gare Montparnasse", "type": "Gare accessible", "transport": "transilien", "nombre_trajet_moyen": 0.0, "transport_legende": "\ud83d\udeb2 \u2764\ufe0f Transilien \ud83d\ude86"}, "geometry": {"type": "Point", "coordinates": [2.316388731382968, 48.83841119933774]}}, {"type": "Feature", "properties": {"start": "Gare de Bellevue", "stop_name": "Gare de Rambouillet - Prud'homme", "type": "Gare accessible", "transport": "transilien", "nombre_trajet_moyen": 0.0, "transport_legende": "\ud83d\udeb2 \u2764\ufe0f Transilien \ud83d\ude86"}, "geometry": {"type": "Point", "coordinates": [1.83095476743366, 48.64341541935165]}}, {"type": "Feature", "properties": {"start": "Gare de Bellevue", "stop_name": "Le Perray", "type": "Gare accessible", "transport": "transilien", "nombre_trajet_moyen": 0.0, "transport_legende": "\ud83d\udeb2 \u2764\ufe0f Transilien \ud83d\ude86"}, "geometry": {"type": "Point", "coordinates": [1.8566531860615936, 48.69336112490438]}}, {"type": "Feature", "properties": {"start": "Gare de Bellevue", "stop_name": "Les Essarts-le-Roi", "type": "Gare accessible", "transport": "transilien", "nombre_trajet_moyen": 0.0, "transport_legende": "\ud83d\udeb2 \u2764\ufe0f Transilien \ud83d\ude86"}, "geometry": {"type": "Point", "coordinates": [1.889661391894688, 48.72169335309528]}}, {"type": "Feature", "properties": {"start": "Gare de Bellevue", "stop_name": "Gare de Coigni\u00e8res", "type": "Gare accessible", "transport": "transilien", "nombre_trajet_moyen": 0.0, "transport_legende": "\ud83d\udeb2 \u2764\ufe0f Transilien \ud83d\ude86"}, "geometry": {"type": "Point", "coordinates": [1.9211491512273335, 48.74394344932612]}}, {"type": "Feature", "properties": {"start": "Gare de Bellevue", "stop_name": "La Verri\u00e8re", "type": "Gare accessible", "transport": "transilien", "nombre_trajet_moyen": 0.0, "transport_legende": "\ud83d\udeb2 \u2764\ufe0f Transilien \ud83d\ude86"}, "geometry": {"type": "Point", "coordinates": [1.943057018064192, 48.7551716132828]}}, {"type": "Feature", "properties": {"start": "Gare de Bellevue", "stop_name": "Trappes", "type": "Gare accessible", "transport": "transilien", "nombre_trajet_moyen": 0.0, "transport_legende": "\ud83d\udeb2 \u2764\ufe0f Transilien \ud83d\ude86"}, "geometry": {"type": "Point", "coordinates": [2.0065902166898377, 48.7747853970692]}}, {"type": "Feature", "properties": {"start": "Gare de Bellevue", "stop_name": "Saint-Quentin - Gare Routi\u00e8re des Pr\u00e9s", "type": "Gare accessible", "transport": "transilien", "nombre_trajet_moyen": 0.0, "transport_legende": "\ud83d\udeb2 \u2764\ufe0f Transilien \ud83d\ude86"}, "geometry": {"type": "Point", "coordinates": [2.046693294953489, 48.78805098717245]}}, {"type": "Feature", "properties": {"start": "Gare de Bellevue", "stop_name": "Gabriel P\u00e9ri - Viroflay Rive Gauche", "type": "Gare accessible", "transport": "transilien", "nombre_trajet_moyen": 0.0, "transport_legende": "\ud83d\udeb2 \u2764\ufe0f Transilien \ud83d\ude86"}, "geometry": {"type": "Point", "coordinates": [2.168536429201074, 48.804044155990695]}}, {"type": "Feature", "properties": {"start": "Gare de Bellevue", "stop_name": "Gare routi\u00e8re de Versailles Chantiers - Quai J", "type": "Gare accessible", "transport": "transilien", "nombre_trajet_moyen": 0.0, "transport_legende": "\ud83d\udeb2 \u2764\ufe0f Transilien \ud83d\ude86"}, "geometry": {"type": "Point", "coordinates": [2.1331690315110152, 48.7954462864825]}}, {"type": "Feature", "properties": {"start": "Gare de Bellevue", "stop_name": "R\u00e9publique - La Poste", "type": "Gare accessible", "transport": "transilien", "nombre_trajet_moyen": 0.0, "transport_legende": "\ud83d\udeb2 \u2764\ufe0f Transilien \ud83d\ude86"}, "geometry": {"type": "Point", "coordinates": [2.067875421584617, 48.7986065618531]}}, {"type": "Feature", "properties": {"start": "Gare de Bellevue", "stop_name": "Trappes Gare", "type": "Gare accessible", "transport": "transilien", "nombre_trajet_moyen": 0.0, "transport_legende": "\ud83d\udeb2 \u2764\ufe0f Transilien \ud83d\ude86"}, "geometry": {"type": "Point", "coordinates": [2.0066491564949382, 48.77506052296785]}}, {"type": "Feature", "properties": {"start": "Gare de Bellevue", "stop_name": "Saint Cyr", "type": "Gare accessible", "transport": "transilien", "nombre_trajet_moyen": 0.0, "transport_legende": "\ud83d\udeb2 \u2764\ufe0f Transilien \ud83d\ude86"}, "geometry": {"type": "Point", "coordinates": [2.069853262520194, 48.79916162824371]}}, {"type": "Feature", "properties": {"start": "Gare de Bellevue", "stop_name": "Villepreux - Les Clayes", "type": "Gare accessible", "transport": "transilien", "nombre_trajet_moyen": 0.0, "transport_legende": "\ud83d\udeb2 \u2764\ufe0f Transilien \ud83d\ude86"}, "geometry": {"type": "Point", "coordinates": [1.992798523459497, 48.82366793006802]}}, {"type": "Feature", "properties": {"start": "Gare de Bellevue", "stop_name": "Gare de Plaisir Grignon", "type": "Gare accessible", "transport": "transilien", "nombre_trajet_moyen": 0.0, "transport_legende": "\ud83d\udeb2 \u2764\ufe0f Transilien \ud83d\ude86"}, "geometry": {"type": "Point", "coordinates": [1.9440624973286127, 48.83156645982695]}}]}