{"type": "FeatureCollection", "features": [{"type": "Feature", "properties": {"start": "Gare de Montgeron", "stop_name": "Gare de Montgeron", "type": "Gare s\u00e9lectionn\u00e9e", "transport": "transilien", "nombre_trajet_moyen": 0.13, "transport_legende": "\ud83d\udeb2 \u2764\ufe0f Transilien \ud83d\ude86"}, "geometry": {"type": "Point", "coordinates": [2.4622488481847955, 48.70804017669453]}}, {"type": "Feature", "properties": {"start": "Gare de Montgeron", "stop_name": "Gare de Combs-la-Ville Quincy", "type": "Gare accessible", "transport": "transilien", "nombre_trajet_moyen": 0.13, "transport_legende": "\ud83d\udeb2 \u2764\ufe0f Transilien \ud83d\ude86"}, "geometry": {"type": "Point", "coordinates": [2.5481878095615254, 48.667929510052176]}}, {"type": "Feature", "properties": {"start": "Gare de Montgeron", "stop_name": "H\u00f4tel de Ville - Quincy-sous-S\u00e9nart", "type": "Gare accessible", "transport": "transilien", "nombre_trajet_moyen": 0.0, "transport_legende": "\ud83d\udeb2 \u2764\ufe0f Transilien \ud83d\ude86"}, "geometry": {"type": "Point", "coordinates": [2.5393546545276853, 48.67171850594942]}}, {"type": "Feature", "properties": {"start": "Gare de Montgeron", "stop_name": "Gare de Boussy Saint-Antoine", "type": "Gare accessible", "transport": "transilien", "nombre_trajet_moyen": 0.13, "transport_legende": "\ud83d\udeb2 \u2764\ufe0f Transilien \ud83d\ude86"}, "geometry": {"type": "Point", "coordinates": [2.5312891894453764, 48.682147995223694]}}, {"type": "Feature", "properties": {"start": "Gare de Montgeron", "stop_name": "Le Stade", "type": "Gare accessible", "transport": "transilien", "nombre_trajet_moyen": 0.07, "transport_legende": "\ud83d\udeb2 \u2764\ufe0f Transilien \ud83d\ude86"}, "geometry": {"type": "Point", "coordinates": [2.260948512567054, 48.93172049557505]}}, {"type": "Feature", "properties": {"start": "Gare de Montgeron", "stop_name": "La Plaine - Epinay sous S\u00e9nart", "type": "Gare accessible", "transport": "transilien", "nombre_trajet_moyen": 0.07, "transport_legende": "\ud83d\udeb2 \u2764\ufe0f Transilien \ud83d\ude86"}, "geometry": {"type": "Point", "coordinates": [2.5251422257782217, 48.696398243763234]}}, {"type": "Feature", "properties": {"start": "Gare de Montgeron", "stop_name": "Brunoy", "type": "Gare accessible", "transport": "transilien", "nombre_trajet_moyen": 0.13, "transport_legende": "\ud83d\udeb2 \u2764\ufe0f Transilien \ud83d\ude86"}, "geometry": {"type": "Point", "coordinates": [2.506850312311369, 48.698914475306886]}}, {"type": "Feature", "properties": {"start": "Gare de Montgeron", "stop_name": "Rond-Point Wittlich", "type": "Gare accessible", "transport": "transilien", "nombre_trajet_moyen": 0.07, "transport_legende": "\ud83d\udeb2 \u2764\ufe0f Transilien \ud83d\ude86"}, "geometry": {"type": "Point", "coordinates": [2.5016361471868422, 48.69497113970025]}}, {"type": "Feature", "properties": {"start": "Gare de Montgeron", "stop_name": "Gare de Yerres", "type": "Gare accessible", "transport": "transilien", "nombre_trajet_moyen": 0.13, "transport_legende": "\ud83d\udeb2 \u2764\ufe0f Transilien \ud83d\ude86"}, "geometry": {"type": "Point", "coordinates": [2.483216976400423, 48.70685561343884]}}, {"type": "Feature", "properties": {"start": "Gare de Montgeron", "stop_name": "Eglise", "type": "Gare accessible", "transport": "transilien", "nombre_trajet_moyen": 0.07, "transport_legende": "\ud83d\udeb2 \u2764\ufe0f Transilien \ud83d\ude86"}, "geometry": {"type": "Point", "coordinates": [2.4089400998692025, 48.68702818742313]}}, {"type": "Feature", "properties": {"start": "Gare de Montgeron", "stop_name": "Gare de Villeneuve", "type": "Gare accessible", "transport": "transilien", "nombre_trajet_moyen": 0.07, "transport_legende": "\ud83d\udeb2 \u2764\ufe0f Transilien \ud83d\ude86"}, "geometry": {"type": "Point", "coordinates": [2.44708425278972, 48.72965664548239]}}, {"type": "Feature", "properties": {"start": "Gare de Montgeron", "stop_name": "Villeneuve Triage - Hector Berlioz", "type": "Gare accessible", "transport": "transilien", "nombre_trajet_moyen": 0.0, "transport_legende": "\ud83d\udeb2 \u2764\ufe0f Transilien \ud83d\ude86"}, "geometry": {"type": "Point", "coordinates": [2.446651015933121, 48.74616830304813]}}, {"type": "Feature", "properties": {"start": "Gare de Montgeron", "stop_name": "Villeneuve Prairie - Pompadour", "type": "Gare accessible", "transport": "transilien", "nombre_trajet_moyen": 0.07, "transport_legende": "\ud83d\udeb2 \u2764\ufe0f Transilien \ud83d\ude86"}, "geometry": {"type": "Point", "coordinates": [2.4417377943063947, 48.76430480258263]}}, {"type": "Feature", "properties": {"start": "Gare de Montgeron", "stop_name": "Le Vert de Maisons", "type": "Gare accessible", "transport": "transilien", "nombre_trajet_moyen": 0.1, "transport_legende": "\ud83d\udeb2 \u2764\ufe0f Transilien \ud83d\ude86"}, "geometry": {"type": "Point", "coordinates": [2.4321242678299977, 48.78883131123265]}}, {"type": "Feature", "properties": {"start": "Gare de Montgeron", "stop_name": "Gare de Maisons Alfort Alfortville", "type": "Gare accessible", "transport": "transilien", "nombre_trajet_moyen": 0.03, "transport_legende": "\ud83d\udeb2 \u2764\ufe0f Transilien \ud83d\ude86"}, "geometry": {"type": "Point", "coordinates": [2.42715143006864, 48.80165091886755]}}, {"type": "Feature", "properties": {"start": "Gare de Montgeron", "stop_name": "Gare de Lyon - Van Gogh", "type": "Gare accessible", "transport": "transilien", "nombre_trajet_moyen": 0.1, "transport_legende": "\ud83d\udeb2 \u2764\ufe0f Transilien \ud83d\ude86"}, "geometry": {"type": "Point", "coordinates": [2.37177448281981, 48.84503741254108]}}, {"type": "Feature", "properties": {"start": "Gare de Montgeron", "stop_name": "Maisons-Alfort - Alfortville", "type": "Gare accessible", "transport": "transilien", "nombre_trajet_moyen": 0.07, "transport_legende": "\ud83d\udeb2 \u2764\ufe0f Transilien \ud83d\ude86"}, "geometry": {"type": "Point", "coordinates": [2.4264376603578035, 48.80217813521484]}}, {"type": "Feature", "properties": {"start": "Gare de Montgeron", "stop_name": "Villeneuve Triage", "type": "Gare accessible", "transport": "transilien", "nombre_trajet_moyen": 0.1, "transport_legende": "\ud83d\udeb2 \u2764\ufe0f Transilien \ud83d\ude86"}, "geometry": {"type": "Point", "coordinates": [2.438697833840877, 48.74461113914048]}}, {"type": "Feature", "properties": {"start": "Gare de Montgeron", "stop_name": "Gare de Villeneuve-Saint-Georges", "type": "Gare accessible", "transport": "transilien", "nombre_trajet_moyen": 0.07, "transport_legende": "\ud83d\udeb2 \u2764\ufe0f Transilien \ud83d\ude86"}, "geometry": {"type": "Point", "coordinates": [2.4465573674434435, 48.729339398302656]}}, {"type": "Feature", "properties": {"start": "Gare de Montgeron", "stop_name": "Quincy-sous-S\u00e9nart", "type": "Gare accessible", "transport": "transilien", "nombre_trajet_moyen": 0.07, "transport_legende": "\ud83d\udeb2 \u2764\ufe0f Transilien \ud83d\ude86"}, "geometry": {"type": "Point", "coordinates": [2.539178425852188, 48.67168184566287]}}, {"type": "Feature", "properties": {"start": "Gare de Montgeron", "stop_name": "Gare de Lieusaint Moissy", "type": "Gare accessible", "transport": "transilien", "nombre_trajet_moyen": 0.07, "transport_legende": "\ud83d\udeb2 \u2764\ufe0f Transilien \ud83d\ude86"}, "geometry": {"type": "Point", "coordinates": [2.567876832369949, 48.6287034880494]}}, {"type": "Feature", "properties": {"start": "Gare de Montgeron", "stop_name": "Gare de Savigny Nandy", "type": "Gare accessible", "transport": "transilien", "nombre_trajet_moyen": 0.07, "transport_legende": "\ud83d\udeb2 \u2764\ufe0f Transilien \ud83d\ude86"}, "geometry": {"type": "Point", "coordinates": [2.584691331944299, 48.59600268392362]}}, {"type": "Feature", "properties": {"start": "Gare de Montgeron", "stop_name": "Cesson", "type": "Gare accessible", "transport": "transilien", "nombre_trajet_moyen": 0.07, "transport_legende": "\ud83d\udeb2 \u2764\ufe0f Transilien \ud83d\ude86"}, "geometry": {"type": "Point", "coordinates": [2.5946150549367304, 48.56486314053174]}}, {"type": "Feature", "properties": {"start": "Gare de Montgeron", "stop_name": "Le M\u00e9e", "type": "Gare accessible", "transport": "transilien", "nombre_trajet_moyen": 0.07, "transport_legende": "\ud83d\udeb2 \u2764\ufe0f Transilien \ud83d\ude86"}, "geometry": {"type": "Point", "coordinates": [2.6255537322060074, 48.538746730738936]}}, {"type": "Feature", "properties": {"start": "Gare de Montgeron", "stop_name": "Gare Melun - Quai de d\u00e9pose", "type": "Gare accessible", "transport": "transilien", "nombre_trajet_moyen": 0.07, "transport_legende": "\ud83d\udeb2 \u2764\ufe0f Transilien \ud83d\ude86"}, "geometry": {"type": "Point", "coordinates": [2.6561026290826533, 48.52607400971013]}}, {"type": "Feature", "properties": {"start": "Gare de Montgeron", "stop_name": "Gare de Melun", "type": "Gare accessible", "transport": "transilien", "nombre_trajet_moyen": 0.03, "transport_legende": "\ud83d\udeb2 \u2764\ufe0f Transilien \ud83d\ude86"}, "geometry": {"type": "Point", "coordinates": [2.655400360800461, 48.52783515481885]}}, {"type": "Feature", "properties": {"start": "Gare de Montgeron", "stop_name": "Gare - H\u00f4tel de Ville", "type": "Gare accessible", "transport": "transilien", "nombre_trajet_moyen": 0.07, "transport_legende": "\ud83d\udeb2 \u2764\ufe0f Transilien \ud83d\ude86"}, "geometry": {"type": "Point", "coordinates": [2.447030327702121, 48.73089762700339]}}, {"type": "Feature", "properties": {"start": "Gare de Montgeron", "stop_name": "Cr\u00e9teil Pompadour", "type": "Gare accessible", "transport": "transilien", "nombre_trajet_moyen": 0.03, "transport_legende": "\ud83d\udeb2 \u2764\ufe0f Transilien \ud83d\ude86"}, "geometry": {"type": "Point", "coordinates": [2.435080408386999, 48.77100562083573]}}, {"type": "Feature", "properties": {"start": "Gare de Montgeron", "stop_name": "Paris Gare de Lyon", "type": "Gare accessible", "transport": "transilien", "nombre_trajet_moyen": 0.03, "transport_legende": "\ud83d\udeb2 \u2764\ufe0f Transilien \ud83d\ude86"}, "geometry": {"type": "Point", "coordinates": [2.3754276162953336, 48.84265525074534]}}]}