{"type": "FeatureCollection", "features": [{"type": "Feature", "properties": {"start": "Gare Routi\u00e8re Nord (C4)", "stop_name": "Gare Routi\u00e8re Nord (C4)", "type": "Gare s\u00e9lectionn\u00e9e", "transport": "transilien", "transport_legende": "\ud83d\udeb2 \u2764\ufe0f Transilien \ud83d\ude86"}, "geometry": {"type": "Point", "coordinates": [2.0391205293704395, 48.93315091405712]}}, {"type": "Feature", "properties": {"start": "Gare Routi\u00e8re Nord (C4)", "stop_name": "Gare de Sartrouville - RER", "type": "Gare accessible", "transport": "transilien", "transport_legende": "\ud83d\udeb2 \u2764\ufe0f Transilien \ud83d\ude86"}, "geometry": {"type": "Point", "coordinates": [2.1575610336100777, 48.938133853964295]}}, {"type": "Feature", "properties": {"start": "Gare Routi\u00e8re Nord (C4)", "stop_name": "Gare de Villennes-sur-Seine", "type": "Gare accessible", "transport": "transilien", "transport_legende": "\ud83d\udeb2 \u2764\ufe0f Transilien \ud83d\ude86"}, "geometry": {"type": "Point", "coordinates": [1.999302620659161, 48.93958798949384]}}, {"type": "Feature", "properties": {"start": "Gare Routi\u00e8re Nord (C4)", "stop_name": "Jean Jaur\u00e8s", "type": "Gare accessible", "transport": "transilien", "transport_legende": "\ud83d\udeb2 \u2764\ufe0f Transilien \ud83d\ude86"}, "geometry": {"type": "Point", "coordinates": [2.406639836988374, 48.65030843612308]}}, {"type": "Feature", "properties": {"start": "Gare Routi\u00e8re Nord (C4)", "stop_name": "Gare de Vernouillet Verneuil", "type": "Gare accessible", "transport": "transilien", "transport_legende": "\ud83d\udeb2 \u2764\ufe0f Transilien \ud83d\ude86"}, "geometry": {"type": "Point", "coordinates": [1.9823949347938237, 48.98075994487832]}}, {"type": "Feature", "properties": {"start": "Gare Routi\u00e8re Nord (C4)", "stop_name": "Mairie", "type": "Gare accessible", "transport": "transilien", "transport_legende": "\ud83d\udeb2 \u2764\ufe0f Transilien \ud83d\ude86"}, "geometry": {"type": "Point", "coordinates": [1.9751843367210649, 48.978863999006606]}}, {"type": "Feature", "properties": {"start": "Gare Routi\u00e8re Nord (C4)", "stop_name": "Gare des Clairi\u00e8res de Verneuil", "type": "Gare accessible", "transport": "transilien", "transport_legende": "\ud83d\udeb2 \u2764\ufe0f Transilien \ud83d\ude86"}, "geometry": {"type": "Point", "coordinates": [1.955065429526773, 48.99218881234461]}}, {"type": "Feature", "properties": {"start": "Gare Routi\u00e8re Nord (C4)", "stop_name": "Gare des Mureaux (D3)", "type": "Gare accessible", "transport": "transilien", "transport_legende": "\ud83d\udeb2 \u2764\ufe0f Transilien \ud83d\ude86"}, "geometry": {"type": "Point", "coordinates": [1.9125426450965068, 48.99326780378758]}}, {"type": "Feature", "properties": {"start": "Gare Routi\u00e8re Nord (C4)", "stop_name": "Gare de Maisons-Laffitte", "type": "Gare accessible", "transport": "transilien", "transport_legende": "\ud83d\udeb2 \u2764\ufe0f Transilien \ud83d\ude86"}, "geometry": {"type": "Point", "coordinates": [2.1437463388036213, 48.94559010915114]}}, {"type": "Feature", "properties": {"start": "Gare Routi\u00e8re Nord (C4)", "stop_name": "Houilles - Carri\u00e8res-sur-Seine", "type": "Gare accessible", "transport": "transilien", "transport_legende": "\ud83d\udeb2 \u2764\ufe0f Transilien \ud83d\ude86"}, "geometry": {"type": "Point", "coordinates": [2.1851757042018707, 48.92034757911033]}}, {"type": "Feature", "properties": {"start": "Gare Routi\u00e8re Nord (C4)", "stop_name": "Nanterre - Universit\u00e9 RER", "type": "Gare accessible", "transport": "transilien", "transport_legende": "\ud83d\udeb2 \u2764\ufe0f Transilien \ud83d\ude86"}, "geometry": {"type": "Point", "coordinates": [2.213305678667332, 48.90060661909857]}}, {"type": "Feature", "properties": {"start": "Gare Routi\u00e8re Nord (C4)", "stop_name": "Gare de La Garenne-Colombes", "type": "Gare accessible", "transport": "transilien", "transport_legende": "\ud83d\udeb2 \u2764\ufe0f Transilien \ud83d\ude86"}, "geometry": {"type": "Point", "coordinates": [2.236189381075624, 48.90937925699904]}}, {"type": "Feature", "properties": {"start": "Gare Routi\u00e8re Nord (C4)", "stop_name": "Les Vall\u00e9es", "type": "Gare accessible", "transport": "transilien", "transport_legende": "\ud83d\udeb2 \u2764\ufe0f Transilien \ud83d\ude86"}, "geometry": {"type": "Point", "coordinates": [2.2572045759752384, 48.91365276270651]}}, {"type": "Feature", "properties": {"start": "Gare Routi\u00e8re Nord (C4)", "stop_name": "Balzac", "type": "Gare accessible", "transport": "transilien", "transport_legende": "\ud83d\udeb2 \u2764\ufe0f Transilien \ud83d\ude86"}, "geometry": {"type": "Point", "coordinates": [2.269286092869848, 48.908542513493245]}}, {"type": "Feature", "properties": {"start": "Gare Routi\u00e8re Nord (C4)", "stop_name": "Rue de la Station", "type": "Gare accessible", "transport": "transilien", "transport_legende": "\ud83d\udeb2 \u2764\ufe0f Transilien \ud83d\ude86"}, "geometry": {"type": "Point", "coordinates": [2.2862735514302344, 48.90641463115114]}}, {"type": "Feature", "properties": {"start": "Gare Routi\u00e8re Nord (C4)", "stop_name": "Gare de Clichy - Levallois", "type": "Gare accessible", "transport": "transilien", "transport_legende": "\ud83d\udeb2 \u2764\ufe0f Transilien \ud83d\ude86"}, "geometry": {"type": "Point", "coordinates": [2.2985594842830053, 48.89672958963551]}}, {"type": "Feature", "properties": {"start": "Gare Routi\u00e8re Nord (C4)", "stop_name": "Pont Cardinet", "type": "Gare accessible", "transport": "transilien", "transport_legende": "\ud83d\udeb2 \u2764\ufe0f Transilien \ud83d\ude86"}, "geometry": {"type": "Point", "coordinates": [2.312950431098551, 48.88839532721545]}}, {"type": "Feature", "properties": {"start": "Gare Routi\u00e8re Nord (C4)", "stop_name": "Gare Saint-Lazare", "type": "Gare accessible", "transport": "transilien", "transport_legende": "\ud83d\udeb2 \u2764\ufe0f Transilien \ud83d\ude86"}, "geometry": {"type": "Point", "coordinates": [2.3244386552397684, 48.87747568635212]}}]}