{"type": "FeatureCollection", "features": [{"type": "Feature", "properties": {"start": "Grigny Centre", "stop_name": "Grigny Centre", "type": "Gare s\u00e9lectionn\u00e9e", "transport": "transilien", "transport_legende": "\ud83d\udeb2 \u2764\ufe0f Transilien \ud83d\ude86"}, "geometry": {"type": "Point", "coordinates": [2.39678605544789, 48.65484195083382]}}, {"type": "Feature", "properties": {"start": "Grigny Centre", "stop_name": "Gare de Corbeil-Essonnes", "type": "Gare accessible", "transport": "transilien", "transport_legende": "\ud83d\udeb2 \u2764\ufe0f Transilien \ud83d\ude86"}, "geometry": {"type": "Point", "coordinates": [2.4742716122476227, 48.61394375582231]}}, {"type": "Feature", "properties": {"start": "Grigny Centre", "stop_name": "Ambroise Croizat", "type": "Gare accessible", "transport": "transilien", "transport_legende": "\ud83d\udeb2 \u2764\ufe0f Transilien \ud83d\ude86"}, "geometry": {"type": "Point", "coordinates": [2.4661827511044736, 48.60630672113543]}}, {"type": "Feature", "properties": {"start": "Grigny Centre", "stop_name": "Tarter\u00eats", "type": "Gare accessible", "transport": "transilien", "transport_legende": "\ud83d\udeb2 \u2764\ufe0f Transilien \ud83d\ude86"}, "geometry": {"type": "Point", "coordinates": [2.45872737775555, 48.61371220109407]}}, {"type": "Feature", "properties": {"start": "Grigny Centre", "stop_name": "Gare du Bras de Fer Evry G\u00e9nopole", "type": "Gare accessible", "transport": "transilien", "transport_legende": "\ud83d\udeb2 \u2764\ufe0f Transilien \ud83d\ude86"}, "geometry": {"type": "Point", "coordinates": [2.450716235430025, 48.62345338088501]}}, {"type": "Feature", "properties": {"start": "Grigny Centre", "stop_name": "Gare Routi\u00e8re", "type": "Gare accessible", "transport": "transilien", "transport_legende": "\ud83d\udeb2 \u2764\ufe0f Transilien \ud83d\ude86"}, "geometry": {"type": "Point", "coordinates": [2.4283773758459466, 48.62516530530012]}}, {"type": "Feature", "properties": {"start": "Grigny Centre", "stop_name": "Pyramides - Lyc\u00e9e des Loges", "type": "Gare accessible", "transport": "transilien", "transport_legende": "\ud83d\udeb2 \u2764\ufe0f Transilien \ud83d\ude86"}, "geometry": {"type": "Point", "coordinates": [2.42523389515096, 48.63464012472095]}}, {"type": "Feature", "properties": {"start": "Grigny Centre", "stop_name": "Daumesnil", "type": "Gare accessible", "transport": "transilien", "transport_legende": "\ud83d\udeb2 \u2764\ufe0f Transilien \ud83d\ude86"}, "geometry": {"type": "Point", "coordinates": [2.41520097372294, 48.65075553361204]}}, {"type": "Feature", "properties": {"start": "Grigny Centre", "stop_name": "Jean Jaur\u00e8s", "type": "Gare accessible", "transport": "transilien", "transport_legende": "\ud83d\udeb2 \u2764\ufe0f Transilien \ud83d\ude86"}, "geometry": {"type": "Point", "coordinates": [2.406639836988374, 48.65030843612308]}}, {"type": "Feature", "properties": {"start": "Grigny Centre", "stop_name": "Gare de Viry-Ch\u00e2tillon", "type": "Gare accessible", "transport": "transilien", "transport_legende": "\ud83d\udeb2 \u2764\ufe0f Transilien \ud83d\ude86"}, "geometry": {"type": "Point", "coordinates": [2.3851846713596, 48.67622219575132]}}, {"type": "Feature", "properties": {"start": "Grigny Centre", "stop_name": "Blazy", "type": "Gare accessible", "transport": "transilien", "transport_legende": "\ud83d\udeb2 \u2764\ufe0f Transilien \ud83d\ude86"}, "geometry": {"type": "Point", "coordinates": [2.3746085223793005, 48.68493719149944]}}, {"type": "Feature", "properties": {"start": "Grigny Centre", "stop_name": "Juvisy RER", "type": "Gare accessible", "transport": "transilien", "transport_legende": "\ud83d\udeb2 \u2764\ufe0f Transilien \ud83d\ude86"}, "geometry": {"type": "Point", "coordinates": [2.382055029825166, 48.6904988251228]}}, {"type": "Feature", "properties": {"start": "Grigny Centre", "stop_name": "Mairie", "type": "Gare accessible", "transport": "transilien", "transport_legende": "\ud83d\udeb2 \u2764\ufe0f Transilien \ud83d\ude86"}, "geometry": {"type": "Point", "coordinates": [1.9751843367210649, 48.978863999006606]}}, {"type": "Feature", "properties": {"start": "Grigny Centre", "stop_name": "Juvisy Pyramide", "type": "Gare accessible", "transport": "transilien", "transport_legende": "\ud83d\udeb2 \u2764\ufe0f Transilien \ud83d\ude86"}, "geometry": {"type": "Point", "coordinates": [2.372106324538173, 48.69873104443431]}}, {"type": "Feature", "properties": {"start": "Grigny Centre", "stop_name": "A\u00e9roport Orly 4", "type": "Gare accessible", "transport": "transilien", "transport_legende": "\ud83d\udeb2 \u2764\ufe0f Transilien \ud83d\ude86"}, "geometry": {"type": "Point", "coordinates": [2.3693661084044275, 48.72875863232642]}}, {"type": "Feature", "properties": {"start": "Grigny Centre", "stop_name": "Porte d'Italie", "type": "Gare accessible", "transport": "transilien", "transport_legende": "\ud83d\udeb2 \u2764\ufe0f Transilien \ud83d\ude86"}, "geometry": {"type": "Point", "coordinates": [2.35922526106539, 48.81950069273876]}}, {"type": "Feature", "properties": {"start": "Grigny Centre", "stop_name": "Place d'Italie - Mairie du 13e", "type": "Gare accessible", "transport": "transilien", "transport_legende": "\ud83d\udeb2 \u2764\ufe0f Transilien \ud83d\ude86"}, "geometry": {"type": "Point", "coordinates": [2.356476214736473, 48.832571841350656]}}, {"type": "Feature", "properties": {"start": "Grigny Centre", "stop_name": "Gare de Lyon - Diderot", "type": "Gare accessible", "transport": "transilien", "transport_legende": "\ud83d\udeb2 \u2764\ufe0f Transilien \ud83d\ude86"}, "geometry": {"type": "Point", "coordinates": [2.37258891322064, 48.84586459936938]}}, {"type": "Feature", "properties": {"start": "Grigny Centre", "stop_name": "Strathkelvin - Tarter\u00eats", "type": "Gare accessible", "transport": "transilien", "transport_legende": "\ud83d\udeb2 \u2764\ufe0f Transilien \ud83d\ude86"}, "geometry": {"type": "Point", "coordinates": [2.4628593538499928, 48.61955085603818]}}, {"type": "Feature", "properties": {"start": "Grigny Centre", "stop_name": "Gare d'Evry Courcouronnes Centre (niveau 0)", "type": "Gare accessible", "transport": "transilien", "transport_legende": "\ud83d\udeb2 \u2764\ufe0f Transilien \ud83d\ude86"}, "geometry": {"type": "Point", "coordinates": [2.4283515163494944, 48.62504824302955]}}, {"type": "Feature", "properties": {"start": "Grigny Centre", "stop_name": "Eglise", "type": "Gare accessible", "transport": "transilien", "transport_legende": "\ud83d\udeb2 \u2764\ufe0f Transilien \ud83d\ude86"}, "geometry": {"type": "Point", "coordinates": [2.4089400998692025, 48.68702818742313]}}, {"type": "Feature", "properties": {"start": "Grigny Centre", "stop_name": "Gare de Vigneux-sur-Seine", "type": "Gare accessible", "transport": "transilien", "transport_legende": "\ud83d\udeb2 \u2764\ufe0f Transilien \ud83d\ude86"}, "geometry": {"type": "Point", "coordinates": [2.415275573789753, 48.70845782500921]}}, {"type": "Feature", "properties": {"start": "Grigny Centre", "stop_name": "Patte d'Oie", "type": "Gare accessible", "transport": "transilien", "transport_legende": "\ud83d\udeb2 \u2764\ufe0f Transilien \ud83d\ude86"}, "geometry": {"type": "Point", "coordinates": [2.4303597865245754, 48.703592746932735]}}, {"type": "Feature", "properties": {"start": "Grigny Centre", "stop_name": "Gare de Villeneuve", "type": "Gare accessible", "transport": "transilien", "transport_legende": "\ud83d\udeb2 \u2764\ufe0f Transilien \ud83d\ude86"}, "geometry": {"type": "Point", "coordinates": [2.44708425278972, 48.72965664548239]}}, {"type": "Feature", "properties": {"start": "Grigny Centre", "stop_name": "Creil", "type": "Gare accessible", "transport": "transilien", "transport_legende": "\ud83d\udeb2 \u2764\ufe0f Transilien \ud83d\ude86"}, "geometry": {"type": "Point", "coordinates": [2.46892902764167, 49.264185555044406]}}, {"type": "Feature", "properties": {"start": "Grigny Centre", "stop_name": "Chantilly - Gouvieux", "type": "Gare accessible", "transport": "transilien", "transport_legende": "\ud83d\udeb2 \u2764\ufe0f Transilien \ud83d\ude86"}, "geometry": {"type": "Point", "coordinates": [2.459515914008524, 49.187030004664]}}, {"type": "Feature", "properties": {"start": "Grigny Centre", "stop_name": "Orry-la-Ville - Coye", "type": "Gare accessible", "transport": "transilien", "transport_legende": "\ud83d\udeb2 \u2764\ufe0f Transilien \ud83d\ude86"}, "geometry": {"type": "Point", "coordinates": [2.489862086302069, 49.13840546145438]}}, {"type": "Feature", "properties": {"start": "Grigny Centre", "stop_name": "La Borne Blanche", "type": "Gare accessible", "transport": "transilien", "transport_legende": "\ud83d\udeb2 \u2764\ufe0f Transilien \ud83d\ude86"}, "geometry": {"type": "Point", "coordinates": [2.5069908684194053, 49.1261949449139]}}, {"type": "Feature", "properties": {"start": "Grigny Centre", "stop_name": "Survilliers - Fosses", "type": "Gare accessible", "transport": "transilien", "transport_legende": "\ud83d\udeb2 \u2764\ufe0f Transilien \ud83d\ude86"}, "geometry": {"type": "Point", "coordinates": [2.525517836696695, 49.09951161811565]}}, {"type": "Feature", "properties": {"start": "Grigny Centre", "stop_name": "Louvres", "type": "Gare accessible", "transport": "transilien", "transport_legende": "\ud83d\udeb2 \u2764\ufe0f Transilien \ud83d\ude86"}, "geometry": {"type": "Point", "coordinates": [2.5018113143714777, 49.04933726826723]}}, {"type": "Feature", "properties": {"start": "Grigny Centre", "stop_name": "Les Noues", "type": "Gare accessible", "transport": "transilien", "transport_legende": "\ud83d\udeb2 \u2764\ufe0f Transilien \ud83d\ude86"}, "geometry": {"type": "Point", "coordinates": [2.477713962139221, 49.03307204384692]}}, {"type": "Feature", "properties": {"start": "Grigny Centre", "stop_name": "Goussainville", "type": "Gare accessible", "transport": "transilien", "transport_legende": "\ud83d\udeb2 \u2764\ufe0f Transilien \ud83d\ude86"}, "geometry": {"type": "Point", "coordinates": [2.46256580793126, 49.02341075826703]}}, {"type": "Feature", "properties": {"start": "Grigny Centre", "stop_name": "Villiers-le-Bel - Gonesse - Arnouville", "type": "Gare accessible", "transport": "transilien", "transport_legende": "\ud83d\udeb2 \u2764\ufe0f Transilien \ud83d\ude86"}, "geometry": {"type": "Point", "coordinates": [2.416246795897305, 48.99377204005172]}}, {"type": "Feature", "properties": {"start": "Grigny Centre", "stop_name": "Garges - Sarcelles", "type": "Gare accessible", "transport": "transilien", "transport_legende": "\ud83d\udeb2 \u2764\ufe0f Transilien \ud83d\ude86"}, "geometry": {"type": "Point", "coordinates": [2.3899547555239407, 48.97632635843972]}}, {"type": "Feature", "properties": {"start": "Grigny Centre", "stop_name": "Pierrefitte - Stains", "type": "Gare accessible", "transport": "transilien", "transport_legende": "\ud83d\udeb2 \u2764\ufe0f Transilien \ud83d\ude86"}, "geometry": {"type": "Point", "coordinates": [2.3703314284767747, 48.96277628555098]}}, {"type": "Feature", "properties": {"start": "Grigny Centre", "stop_name": "Saint-Denis", "type": "Gare accessible", "transport": "transilien", "transport_legende": "\ud83d\udeb2 \u2764\ufe0f Transilien \ud83d\ude86"}, "geometry": {"type": "Point", "coordinates": [2.345479004987329, 48.93482889939617]}}, {"type": "Feature", "properties": {"start": "Grigny Centre", "stop_name": "Stade de France Saint-Denis", "type": "Gare accessible", "transport": "transilien", "transport_legende": "\ud83d\udeb2 \u2764\ufe0f Transilien \ud83d\ude86"}, "geometry": {"type": "Point", "coordinates": [2.3504430479100207, 48.91769737260247]}}, {"type": "Feature", "properties": {"start": "Grigny Centre", "stop_name": "Gare du Nord", "type": "Gare accessible", "transport": "transilien", "transport_legende": "\ud83d\udeb2 \u2764\ufe0f Transilien \ud83d\ude86"}, "geometry": {"type": "Point", "coordinates": [2.356693437528564, 48.88230685842714]}}, {"type": "Feature", "properties": {"start": "Grigny Centre", "stop_name": "Ch\u00e2telet les Halles", "type": "Gare accessible", "transport": "transilien", "transport_legende": "\ud83d\udeb2 \u2764\ufe0f Transilien \ud83d\ude86"}, "geometry": {"type": "Point", "coordinates": [2.34697651043533, 48.86174503191322]}}, {"type": "Feature", "properties": {"start": "Grigny Centre", "stop_name": "Gare de Lyon", "type": "Gare accessible", "transport": "transilien", "transport_legende": "\ud83d\udeb2 \u2764\ufe0f Transilien \ud83d\ude86"}, "geometry": {"type": "Point", "coordinates": [2.376365660931201, 48.84340211646564]}}, {"type": "Feature", "properties": {"start": "Grigny Centre", "stop_name": "Maisons-Alfort - Alfortville", "type": "Gare accessible", "transport": "transilien", "transport_legende": "\ud83d\udeb2 \u2764\ufe0f Transilien \ud83d\ude86"}, "geometry": {"type": "Point", "coordinates": [2.4264376603578035, 48.80217813521484]}}, {"type": "Feature", "properties": {"start": "Grigny Centre", "stop_name": "Villeneuve-Saint-Georges", "type": "Gare accessible", "transport": "transilien", "transport_legende": "\ud83d\udeb2 \u2764\ufe0f Transilien \ud83d\ude86"}, "geometry": {"type": "Point", "coordinates": [2.446304786739812, 48.730080267741016]}}, {"type": "Feature", "properties": {"start": "Grigny Centre", "stop_name": "Vigneux-sur-Seine", "type": "Gare accessible", "transport": "transilien", "transport_legende": "\ud83d\udeb2 \u2764\ufe0f Transilien \ud83d\ude86"}, "geometry": {"type": "Point", "coordinates": [2.413499342148242, 48.70808932141768]}}, {"type": "Feature", "properties": {"start": "Grigny Centre", "stop_name": "Juvisy", "type": "Gare accessible", "transport": "transilien", "transport_legende": "\ud83d\udeb2 \u2764\ufe0f Transilien \ud83d\ude86"}, "geometry": {"type": "Point", "coordinates": [2.383334629403869, 48.68970940912314]}}, {"type": "Feature", "properties": {"start": "Grigny Centre", "stop_name": "Viry-Ch\u00e2tillon", "type": "Gare accessible", "transport": "transilien", "transport_legende": "\ud83d\udeb2 \u2764\ufe0f Transilien \ud83d\ude86"}, "geometry": {"type": "Point", "coordinates": [2.387021960013403, 48.67590783936994]}}, {"type": "Feature", "properties": {"start": "Grigny Centre", "stop_name": "Orangis Bois de l'\u00c9pine", "type": "Gare accessible", "transport": "transilien", "transport_legende": "\ud83d\udeb2 \u2764\ufe0f Transilien \ud83d\ude86"}, "geometry": {"type": "Point", "coordinates": [2.40769076622141, 48.6363396147683]}}, {"type": "Feature", "properties": {"start": "Grigny Centre", "stop_name": "\u00c9vry - Courcouronnes", "type": "Gare accessible", "transport": "transilien", "transport_legende": "\ud83d\udeb2 \u2764\ufe0f Transilien \ud83d\ude86"}, "geometry": {"type": "Point", "coordinates": [2.430032909521453, 48.62588794663492]}}, {"type": "Feature", "properties": {"start": "Grigny Centre", "stop_name": "Le Bras de Fer", "type": "Gare accessible", "transport": "transilien", "transport_legende": "\ud83d\udeb2 \u2764\ufe0f Transilien \ud83d\ude86"}, "geometry": {"type": "Point", "coordinates": [2.4520047548737254, 48.62330639719716]}}, {"type": "Feature", "properties": {"start": "Grigny Centre", "stop_name": "Corbeil-Essonnes", "type": "Gare accessible", "transport": "transilien", "transport_legende": "\ud83d\udeb2 \u2764\ufe0f Transilien \ud83d\ude86"}, "geometry": {"type": "Point", "coordinates": [2.472467657639279, 48.61323864277619]}}, {"type": "Feature", "properties": {"start": "Grigny Centre", "stop_name": "Le Vert de Maisons", "type": "Gare accessible", "transport": "transilien", "transport_legende": "\ud83d\udeb2 \u2764\ufe0f Transilien \ud83d\ude86"}, "geometry": {"type": "Point", "coordinates": [2.4321242678299977, 48.78883131123265]}}, {"type": "Feature", "properties": {"start": "Grigny Centre", "stop_name": "Cr\u00e9teil Pompadour", "type": "Gare accessible", "transport": "transilien", "transport_legende": "\ud83d\udeb2 \u2764\ufe0f Transilien \ud83d\ude86"}, "geometry": {"type": "Point", "coordinates": [2.435080408386999, 48.77100562083573]}}, {"type": "Feature", "properties": {"start": "Grigny Centre", "stop_name": "Villeneuve Triage", "type": "Gare accessible", "transport": "transilien", "transport_legende": "\ud83d\udeb2 \u2764\ufe0f Transilien \ud83d\ude86"}, "geometry": {"type": "Point", "coordinates": [2.438697833840877, 48.74461113914048]}}, {"type": "Feature", "properties": {"start": "Grigny Centre", "stop_name": "\u00c9vry Courcouronnes", "type": "Gare accessible", "transport": "transilien", "transport_legende": "\ud83d\udeb2 \u2764\ufe0f Transilien \ud83d\ude86"}, "geometry": {"type": "Point", "coordinates": [2.428606857645351, 48.62527434930175]}}, {"type": "Feature", "properties": {"start": "Grigny Centre", "stop_name": "Gare Routi\u00e8re Seine", "type": "Gare accessible", "transport": "transilien", "transport_legende": "\ud83d\udeb2 \u2764\ufe0f Transilien \ud83d\ude86"}, "geometry": {"type": "Point", "coordinates": [2.386162705105628, 48.69009728241674]}}, {"type": "Feature", "properties": {"start": "Grigny Centre", "stop_name": "Gare - H\u00f4tel de Ville", "type": "Gare accessible", "transport": "transilien", "transport_legende": "\ud83d\udeb2 \u2764\ufe0f Transilien \ud83d\ude86"}, "geometry": {"type": "Point", "coordinates": [2.447030327702121, 48.73089762700339]}}, {"type": "Feature", "properties": {"start": "Grigny Centre", "stop_name": "Paris Gare de Lyon", "type": "Gare accessible", "transport": "transilien", "transport_legende": "\ud83d\udeb2 \u2764\ufe0f Transilien \ud83d\ude86"}, "geometry": {"type": "Point", "coordinates": [2.3754276162953336, 48.84265525074534]}}]}