{"type": "FeatureCollection", "features": [{"type": "Feature", "properties": {"start": "Juvisy", "stop_name": "Juvisy", "type": "Gare s\u00e9lectionn\u00e9e", "transport": "transilien", "nombre_trajet_moyen": 14.37, "transport_legende": "\ud83d\udeb2 \u2764\ufe0f Transilien \ud83d\ude86"}, "geometry": {"type": "Point", "coordinates": [2.383334629403869, 48.68970940912314]}}, {"type": "Feature", "properties": {"start": "Juvisy", "stop_name": "Viry-Ch\u00e2tillon", "type": "Gare accessible", "transport": "transilien", "nombre_trajet_moyen": 9.03, "transport_legende": "\ud83d\udeb2 \u2764\ufe0f Transilien \ud83d\ude86"}, "geometry": {"type": "Point", "coordinates": [2.387021960013403, 48.67590783936994]}}, {"type": "Feature", "properties": {"start": "Juvisy", "stop_name": "Ris-Orangis", "type": "Gare accessible", "transport": "transilien", "nombre_trajet_moyen": 2.53, "transport_legende": "\ud83d\udeb2 \u2764\ufe0f Transilien \ud83d\ude86"}, "geometry": {"type": "Point", "coordinates": [2.414997460834355, 48.659057463386254]}}, {"type": "Feature", "properties": {"start": "Juvisy", "stop_name": "Grand Bourg", "type": "Gare accessible", "transport": "transilien", "nombre_trajet_moyen": 2.53, "transport_legende": "\ud83d\udeb2 \u2764\ufe0f Transilien \ud83d\ude86"}, "geometry": {"type": "Point", "coordinates": [2.4348387319350167, 48.64880840591746]}}, {"type": "Feature", "properties": {"start": "Juvisy", "stop_name": "\u00c9vry - Val de Seine", "type": "Gare accessible", "transport": "transilien", "nombre_trajet_moyen": 2.53, "transport_legende": "\ud83d\udeb2 \u2764\ufe0f Transilien \ud83d\ude86"}, "geometry": {"type": "Point", "coordinates": [2.4523091616356028, 48.63439299320402]}}, {"type": "Feature", "properties": {"start": "Juvisy", "stop_name": "Corbeil-Essonnes", "type": "Gare accessible", "transport": "transilien", "nombre_trajet_moyen": 9.17, "transport_legende": "\ud83d\udeb2 \u2764\ufe0f Transilien \ud83d\ude86"}, "geometry": {"type": "Point", "coordinates": [2.472467657639279, 48.61323864277619]}}, {"type": "Feature", "properties": {"start": "Juvisy", "stop_name": "Moulin Galant", "type": "Gare accessible", "transport": "transilien", "nombre_trajet_moyen": 1.83, "transport_legende": "\ud83d\udeb2 \u2764\ufe0f Transilien \ud83d\ude86"}, "geometry": {"type": "Point", "coordinates": [2.473444919964576, 48.58688228073328]}}, {"type": "Feature", "properties": {"start": "Juvisy", "stop_name": "Mennecy", "type": "Gare accessible", "transport": "transilien", "nombre_trajet_moyen": 1.83, "transport_legende": "\ud83d\udeb2 \u2764\ufe0f Transilien \ud83d\ude86"}, "geometry": {"type": "Point", "coordinates": [2.4319348900260658, 48.57054850948166]}}, {"type": "Feature", "properties": {"start": "Juvisy", "stop_name": "Ballancourt", "type": "Gare accessible", "transport": "transilien", "nombre_trajet_moyen": 1.83, "transport_legende": "\ud83d\udeb2 \u2764\ufe0f Transilien \ud83d\ude86"}, "geometry": {"type": "Point", "coordinates": [2.3700930488013845, 48.53101531216478]}}, {"type": "Feature", "properties": {"start": "Juvisy", "stop_name": "La Fert\u00e9-Alais", "type": "Gare accessible", "transport": "transilien", "nombre_trajet_moyen": 1.83, "transport_legende": "\ud83d\udeb2 \u2764\ufe0f Transilien \ud83d\ude86"}, "geometry": {"type": "Point", "coordinates": [2.352260197381972, 48.4855007310595]}}, {"type": "Feature", "properties": {"start": "Juvisy", "stop_name": "Boutigny", "type": "Gare accessible", "transport": "transilien", "nombre_trajet_moyen": 1.83, "transport_legende": "\ud83d\udeb2 \u2764\ufe0f Transilien \ud83d\ude86"}, "geometry": {"type": "Point", "coordinates": [2.3767454804181263, 48.43442542513416]}}, {"type": "Feature", "properties": {"start": "Juvisy", "stop_name": "Maisse", "type": "Gare accessible", "transport": "transilien", "nombre_trajet_moyen": 1.83, "transport_legende": "\ud83d\udeb2 \u2764\ufe0f Transilien \ud83d\ude86"}, "geometry": {"type": "Point", "coordinates": [2.393493661032251, 48.39367132989446]}}, {"type": "Feature", "properties": {"start": "Juvisy", "stop_name": "Buno - Gironville", "type": "Gare accessible", "transport": "transilien", "nombre_trajet_moyen": 1.83, "transport_legende": "\ud83d\udeb2 \u2764\ufe0f Transilien \ud83d\ude86"}, "geometry": {"type": "Point", "coordinates": [2.387254108315933, 48.37149489082515]}}, {"type": "Feature", "properties": {"start": "Juvisy", "stop_name": "Boigneville", "type": "Gare accessible", "transport": "transilien", "nombre_trajet_moyen": 1.83, "transport_legende": "\ud83d\udeb2 \u2764\ufe0f Transilien \ud83d\ude86"}, "geometry": {"type": "Point", "coordinates": [2.378618440416535, 48.341208632507616]}}, {"type": "Feature", "properties": {"start": "Juvisy", "stop_name": "Malesherbes", "type": "Gare accessible", "transport": "transilien", "nombre_trajet_moyen": 1.83, "transport_legende": "\ud83d\udeb2 \u2764\ufe0f Transilien \ud83d\ude86"}, "geometry": {"type": "Point", "coordinates": [2.401036441728877, 48.293633291470464]}}, {"type": "Feature", "properties": {"start": "Juvisy", "stop_name": "Essonnes Robinson", "type": "Gare accessible", "transport": "transilien", "nombre_trajet_moyen": 0.47, "transport_legende": "\ud83d\udeb2 \u2764\ufe0f Transilien \ud83d\ude86"}, "geometry": {"type": "Point", "coordinates": [2.463295818844443, 48.60581740091332]}}, {"type": "Feature", "properties": {"start": "Juvisy", "stop_name": "Villab\u00e9", "type": "Gare accessible", "transport": "transilien", "nombre_trajet_moyen": 0.47, "transport_legende": "\ud83d\udeb2 \u2764\ufe0f Transilien \ud83d\ude86"}, "geometry": {"type": "Point", "coordinates": [2.461533386360794, 48.592814943454]}}, {"type": "Feature", "properties": {"start": "Juvisy", "stop_name": "Le Plessis Chenet", "type": "Gare accessible", "transport": "transilien", "nombre_trajet_moyen": 0.47, "transport_legende": "\ud83d\udeb2 \u2764\ufe0f Transilien \ud83d\ude86"}, "geometry": {"type": "Point", "coordinates": [2.479522291008497, 48.57358727886637]}}, {"type": "Feature", "properties": {"start": "Juvisy", "stop_name": "Le Coudray-Montceaux", "type": "Gare accessible", "transport": "transilien", "nombre_trajet_moyen": 0.47, "transport_legende": "\ud83d\udeb2 \u2764\ufe0f Transilien \ud83d\ude86"}, "geometry": {"type": "Point", "coordinates": [2.492424499497774, 48.56619819315809]}}, {"type": "Feature", "properties": {"start": "Juvisy", "stop_name": "Saint-Fargeau", "type": "Gare accessible", "transport": "transilien", "nombre_trajet_moyen": 0.47, "transport_legende": "\ud83d\udeb2 \u2764\ufe0f Transilien \ud83d\ude86"}, "geometry": {"type": "Point", "coordinates": [2.5426100742385285, 48.56502608446919]}}, {"type": "Feature", "properties": {"start": "Juvisy", "stop_name": "Ponthierry - Pringy", "type": "Gare accessible", "transport": "transilien", "nombre_trajet_moyen": 0.47, "transport_legende": "\ud83d\udeb2 \u2764\ufe0f Transilien \ud83d\ude86"}, "geometry": {"type": "Point", "coordinates": [2.5445365646399507, 48.535084951085466]}}, {"type": "Feature", "properties": {"start": "Juvisy", "stop_name": "Boissise-le-Roi", "type": "Gare accessible", "transport": "transilien", "nombre_trajet_moyen": 0.47, "transport_legende": "\ud83d\udeb2 \u2764\ufe0f Transilien \ud83d\ude86"}, "geometry": {"type": "Point", "coordinates": [2.57179291425262, 48.52985734002498]}}, {"type": "Feature", "properties": {"start": "Juvisy", "stop_name": "Vosves", "type": "Gare accessible", "transport": "transilien", "nombre_trajet_moyen": 0.47, "transport_legende": "\ud83d\udeb2 \u2764\ufe0f Transilien \ud83d\ude86"}, "geometry": {"type": "Point", "coordinates": [2.5994097381795305, 48.51507609100275]}}, {"type": "Feature", "properties": {"start": "Juvisy", "stop_name": "Melun", "type": "Gare accessible", "transport": "transilien", "nombre_trajet_moyen": 0.47, "transport_legende": "\ud83d\udeb2 \u2764\ufe0f Transilien \ud83d\ude86"}, "geometry": {"type": "Point", "coordinates": [2.65469836071817, 48.527491277248295]}}, {"type": "Feature", "properties": {"start": "Juvisy", "stop_name": "Villiers-le-Bel - Gonesse - Arnouville", "type": "Gare accessible", "transport": "transilien", "nombre_trajet_moyen": 6.2, "transport_legende": "\ud83d\udeb2 \u2764\ufe0f Transilien \ud83d\ude86"}, "geometry": {"type": "Point", "coordinates": [2.416246795897305, 48.99377204005172]}}, {"type": "Feature", "properties": {"start": "Juvisy", "stop_name": "Garges - Sarcelles", "type": "Gare accessible", "transport": "transilien", "nombre_trajet_moyen": 6.2, "transport_legende": "\ud83d\udeb2 \u2764\ufe0f Transilien \ud83d\ude86"}, "geometry": {"type": "Point", "coordinates": [2.3899547555239407, 48.97632635843972]}}, {"type": "Feature", "properties": {"start": "Juvisy", "stop_name": "Pierrefitte - Stains", "type": "Gare accessible", "transport": "transilien", "nombre_trajet_moyen": 6.2, "transport_legende": "\ud83d\udeb2 \u2764\ufe0f Transilien \ud83d\ude86"}, "geometry": {"type": "Point", "coordinates": [2.3703314284767747, 48.96277628555098]}}, {"type": "Feature", "properties": {"start": "Juvisy", "stop_name": "Saint-Denis", "type": "Gare accessible", "transport": "transilien", "nombre_trajet_moyen": 6.2, "transport_legende": "\ud83d\udeb2 \u2764\ufe0f Transilien \ud83d\ude86"}, "geometry": {"type": "Point", "coordinates": [2.345479004987329, 48.93482889939617]}}, {"type": "Feature", "properties": {"start": "Juvisy", "stop_name": "Stade de France Saint-Denis", "type": "Gare accessible", "transport": "transilien", "nombre_trajet_moyen": 6.53, "transport_legende": "\ud83d\udeb2 \u2764\ufe0f Transilien \ud83d\ude86"}, "geometry": {"type": "Point", "coordinates": [2.3504430479100207, 48.91769737260247]}}, {"type": "Feature", "properties": {"start": "Juvisy", "stop_name": "Gare du Nord", "type": "Gare accessible", "transport": "transilien", "nombre_trajet_moyen": 6.53, "transport_legende": "\ud83d\udeb2 \u2764\ufe0f Transilien \ud83d\ude86"}, "geometry": {"type": "Point", "coordinates": [2.356693437528564, 48.88230685842714]}}, {"type": "Feature", "properties": {"start": "Juvisy", "stop_name": "Ch\u00e2telet les Halles", "type": "Gare accessible", "transport": "transilien", "nombre_trajet_moyen": 6.53, "transport_legende": "\ud83d\udeb2 \u2764\ufe0f Transilien \ud83d\ude86"}, "geometry": {"type": "Point", "coordinates": [2.34697651043533, 48.86174503191322]}}, {"type": "Feature", "properties": {"start": "Juvisy", "stop_name": "Gare de Lyon", "type": "Gare accessible", "transport": "transilien", "nombre_trajet_moyen": 6.77, "transport_legende": "\ud83d\udeb2 \u2764\ufe0f Transilien \ud83d\ude86"}, "geometry": {"type": "Point", "coordinates": [2.376365660931201, 48.84340211646564]}}, {"type": "Feature", "properties": {"start": "Juvisy", "stop_name": "Maisons-Alfort - Alfortville", "type": "Gare accessible", "transport": "transilien", "nombre_trajet_moyen": 6.67, "transport_legende": "\ud83d\udeb2 \u2764\ufe0f Transilien \ud83d\ude86"}, "geometry": {"type": "Point", "coordinates": [2.4264376603578035, 48.80217813521484]}}, {"type": "Feature", "properties": {"start": "Juvisy", "stop_name": "Villeneuve-Saint-Georges", "type": "Gare accessible", "transport": "transilien", "nombre_trajet_moyen": 6.77, "transport_legende": "\ud83d\udeb2 \u2764\ufe0f Transilien \ud83d\ude86"}, "geometry": {"type": "Point", "coordinates": [2.446304786739812, 48.730080267741016]}}, {"type": "Feature", "properties": {"start": "Juvisy", "stop_name": "Vigneux-sur-Seine", "type": "Gare accessible", "transport": "transilien", "nombre_trajet_moyen": 6.77, "transport_legende": "\ud83d\udeb2 \u2764\ufe0f Transilien \ud83d\ude86"}, "geometry": {"type": "Point", "coordinates": [2.413499342148242, 48.70808932141768]}}, {"type": "Feature", "properties": {"start": "Juvisy", "stop_name": "Dourdan", "type": "Gare accessible", "transport": "transilien", "nombre_trajet_moyen": 1.67, "transport_legende": "\ud83d\udeb2 \u2764\ufe0f Transilien \ud83d\ude86"}, "geometry": {"type": "Point", "coordinates": [2.008756915662106, 48.53376051220457]}}, {"type": "Feature", "properties": {"start": "Juvisy", "stop_name": "Sermaise", "type": "Gare accessible", "transport": "transilien", "nombre_trajet_moyen": 1.67, "transport_legende": "\ud83d\udeb2 \u2764\ufe0f Transilien \ud83d\ude86"}, "geometry": {"type": "Point", "coordinates": [2.069088468619773, 48.535687624993614]}}, {"type": "Feature", "properties": {"start": "Juvisy", "stop_name": "Saint-Ch\u00e9ron", "type": "Gare accessible", "transport": "transilien", "nombre_trajet_moyen": 1.9, "transport_legende": "\ud83d\udeb2 \u2764\ufe0f Transilien \ud83d\ude86"}, "geometry": {"type": "Point", "coordinates": [2.1249767315730463, 48.55093774535708]}}, {"type": "Feature", "properties": {"start": "Juvisy", "stop_name": "Breuillet Village", "type": "Gare accessible", "transport": "transilien", "nombre_trajet_moyen": 1.9, "transport_legende": "\ud83d\udeb2 \u2764\ufe0f Transilien \ud83d\ude86"}, "geometry": {"type": "Point", "coordinates": [2.170354257290333, 48.56433413404574]}}, {"type": "Feature", "properties": {"start": "Juvisy", "stop_name": "Breuillet - Bruy\u00e8res-le-Ch\u00e2tel", "type": "Gare accessible", "transport": "transilien", "nombre_trajet_moyen": 1.9, "transport_legende": "\ud83d\udeb2 \u2764\ufe0f Transilien \ud83d\ude86"}, "geometry": {"type": "Point", "coordinates": [2.1922487394356454, 48.57760979436327]}}, {"type": "Feature", "properties": {"start": "Juvisy", "stop_name": "\u00c9gly", "type": "Gare accessible", "transport": "transilien", "nombre_trajet_moyen": 1.9, "transport_legende": "\ud83d\udeb2 \u2764\ufe0f Transilien \ud83d\ude86"}, "geometry": {"type": "Point", "coordinates": [2.2234625238542307, 48.582715781664064]}}, {"type": "Feature", "properties": {"start": "Juvisy", "stop_name": "Arpajon", "type": "Gare accessible", "transport": "transilien", "nombre_trajet_moyen": 1.67, "transport_legende": "\ud83d\udeb2 \u2764\ufe0f Transilien \ud83d\ude86"}, "geometry": {"type": "Point", "coordinates": [2.2412169696111426, 48.58599680822646]}}, {"type": "Feature", "properties": {"start": "Juvisy", "stop_name": "La Norville - Saint-Germain-l\u00e8s-Arpajon", "type": "Gare accessible", "transport": "transilien", "nombre_trajet_moyen": 1.9, "transport_legende": "\ud83d\udeb2 \u2764\ufe0f Transilien \ud83d\ude86"}, "geometry": {"type": "Point", "coordinates": [2.266215906699314, 48.59111916474817]}}, {"type": "Feature", "properties": {"start": "Juvisy", "stop_name": "Br\u00e9tigny", "type": "Gare accessible", "transport": "transilien", "nombre_trajet_moyen": 2.83, "transport_legende": "\ud83d\udeb2 \u2764\ufe0f Transilien \ud83d\ude86"}, "geometry": {"type": "Point", "coordinates": [2.30195738288606, 48.60664906621052]}}, {"type": "Feature", "properties": {"start": "Juvisy", "stop_name": "Saint-Michel-sur-Orge", "type": "Gare accessible", "transport": "transilien", "nombre_trajet_moyen": 2.47, "transport_legende": "\ud83d\udeb2 \u2764\ufe0f Transilien \ud83d\ude86"}, "geometry": {"type": "Point", "coordinates": [2.3068029676156123, 48.635615525211605]}}, {"type": "Feature", "properties": {"start": "Juvisy", "stop_name": "Sainte-Genevi\u00e8ve-des-Bois", "type": "Gare accessible", "transport": "transilien", "nombre_trajet_moyen": 2.47, "transport_legende": "\ud83d\udeb2 \u2764\ufe0f Transilien \ud83d\ude86"}, "geometry": {"type": "Point", "coordinates": [2.3129608959702024, 48.65295347339147]}}, {"type": "Feature", "properties": {"start": "Juvisy", "stop_name": "\u00c9pinay-sur-Orge", "type": "Gare accessible", "transport": "transilien", "nombre_trajet_moyen": 2.47, "transport_legende": "\ud83d\udeb2 \u2764\ufe0f Transilien \ud83d\ude86"}, "geometry": {"type": "Point", "coordinates": [2.332043500451718, 48.6693475106473]}}, {"type": "Feature", "properties": {"start": "Juvisy", "stop_name": "Savigny-sur-Orge", "type": "Gare accessible", "transport": "transilien", "nombre_trajet_moyen": 4.03, "transport_legende": "\ud83d\udeb2 \u2764\ufe0f Transilien \ud83d\ude86"}, "geometry": {"type": "Point", "coordinates": [2.352354180405684, 48.67639468866699]}}, {"type": "Feature", "properties": {"start": "Juvisy", "stop_name": "Biblioth\u00e8que Fran\u00e7ois Mitterrand", "type": "Gare accessible", "transport": "transilien", "nombre_trajet_moyen": 5.93, "transport_legende": "\ud83d\udeb2 \u2764\ufe0f Transilien \ud83d\ude86"}, "geometry": {"type": "Point", "coordinates": [2.377826283136205, 48.82891195295035]}}, {"type": "Feature", "properties": {"start": "Juvisy", "stop_name": "Gare d'Austerlitz", "type": "Gare accessible", "transport": "transilien", "nombre_trajet_moyen": 5.17, "transport_legende": "\ud83d\udeb2 \u2764\ufe0f Transilien \ud83d\ude86"}, "geometry": {"type": "Point", "coordinates": [2.367818767583529, 48.84032035638395]}}, {"type": "Feature", "properties": {"start": "Juvisy", "stop_name": "Mus\u00e9e d'Orsay", "type": "Gare accessible", "transport": "transilien", "nombre_trajet_moyen": 4.57, "transport_legende": "\ud83d\udeb2 \u2764\ufe0f Transilien \ud83d\ude86"}, "geometry": {"type": "Point", "coordinates": [2.326623034830927, 48.860365575927474]}}, {"type": "Feature", "properties": {"start": "Juvisy", "stop_name": "Invalides", "type": "Gare accessible", "transport": "transilien", "nombre_trajet_moyen": 4.47, "transport_legende": "\ud83d\udeb2 \u2764\ufe0f Transilien \ud83d\ude86"}, "geometry": {"type": "Point", "coordinates": [2.3126576509104404, 48.8627130056211]}}, {"type": "Feature", "properties": {"start": "Juvisy", "stop_name": "Pont de l'Alma", "type": "Gare accessible", "transport": "transilien", "nombre_trajet_moyen": 3.97, "transport_legende": "\ud83d\udeb2 \u2764\ufe0f Transilien \ud83d\ude86"}, "geometry": {"type": "Point", "coordinates": [2.3003592740110994, 48.86247496310803]}}, {"type": "Feature", "properties": {"start": "Juvisy", "stop_name": "Champ de Mars Tour Eiffel", "type": "Gare accessible", "transport": "transilien", "nombre_trajet_moyen": 3.97, "transport_legende": "\ud83d\udeb2 \u2764\ufe0f Transilien \ud83d\ude86"}, "geometry": {"type": "Point", "coordinates": [2.289656249386548, 48.8564765666592]}}, {"type": "Feature", "properties": {"start": "Juvisy", "stop_name": "Avenue du Pr\u00e9sident Kennedy Maison de Radio France", "type": "Gare accessible", "transport": "transilien", "nombre_trajet_moyen": 0.07, "transport_legende": "\ud83d\udeb2 \u2764\ufe0f Transilien \ud83d\ude86"}, "geometry": {"type": "Point", "coordinates": [2.279679454187814, 48.85352548506894]}}, {"type": "Feature", "properties": {"start": "Juvisy", "stop_name": "Boulainvilliers", "type": "Gare accessible", "transport": "transilien", "nombre_trajet_moyen": 0.07, "transport_legende": "\ud83d\udeb2 \u2764\ufe0f Transilien \ud83d\ude86"}, "geometry": {"type": "Point", "coordinates": [2.274806827480264, 48.856981095562965]}}, {"type": "Feature", "properties": {"start": "Juvisy", "stop_name": "Avenue Henri Martin", "type": "Gare accessible", "transport": "transilien", "nombre_trajet_moyen": 0.07, "transport_legende": "\ud83d\udeb2 \u2764\ufe0f Transilien \ud83d\ude86"}, "geometry": {"type": "Point", "coordinates": [2.2722351438875577, 48.86545537297977]}}, {"type": "Feature", "properties": {"start": "Juvisy", "stop_name": "Avenue Foch", "type": "Gare accessible", "transport": "transilien", "nombre_trajet_moyen": 0.07, "transport_legende": "\ud83d\udeb2 \u2764\ufe0f Transilien \ud83d\ude86"}, "geometry": {"type": "Point", "coordinates": [2.2747712644338454, 48.86985281215763]}}, {"type": "Feature", "properties": {"start": "Juvisy", "stop_name": "Neuilly Porte Maillot", "type": "Gare accessible", "transport": "transilien", "nombre_trajet_moyen": 0.07, "transport_legende": "\ud83d\udeb2 \u2764\ufe0f Transilien \ud83d\ude86"}, "geometry": {"type": "Point", "coordinates": [2.284217509613705, 48.87834780404864]}}, {"type": "Feature", "properties": {"start": "Juvisy", "stop_name": "P\u00e9reire Levallois", "type": "Gare accessible", "transport": "transilien", "nombre_trajet_moyen": 0.07, "transport_legende": "\ud83d\udeb2 \u2764\ufe0f Transilien \ud83d\ude86"}, "geometry": {"type": "Point", "coordinates": [2.2992286819828145, 48.88602700780433]}}, {"type": "Feature", "properties": {"start": "Juvisy", "stop_name": "Porte de Clichy", "type": "Gare accessible", "transport": "transilien", "nombre_trajet_moyen": 0.07, "transport_legende": "\ud83d\udeb2 \u2764\ufe0f Transilien \ud83d\ude86"}, "geometry": {"type": "Point", "coordinates": [2.315941153551472, 48.89426256830957]}}, {"type": "Feature", "properties": {"start": "Juvisy", "stop_name": "Saint-Ouen", "type": "Gare accessible", "transport": "transilien", "nombre_trajet_moyen": 0.07, "transport_legende": "\ud83d\udeb2 \u2764\ufe0f Transilien \ud83d\ude86"}, "geometry": {"type": "Point", "coordinates": [2.322694729473372, 48.90456082213364]}}, {"type": "Feature", "properties": {"start": "Juvisy", "stop_name": "Les Gr\u00e9sillons", "type": "Gare accessible", "transport": "transilien", "nombre_trajet_moyen": 0.07, "transport_legende": "\ud83d\udeb2 \u2764\ufe0f Transilien \ud83d\ude86"}, "geometry": {"type": "Point", "coordinates": [2.313901968217972, 48.9206901983449]}}, {"type": "Feature", "properties": {"start": "Juvisy", "stop_name": "Gennevilliers", "type": "Gare accessible", "transport": "transilien", "nombre_trajet_moyen": 0.07, "transport_legende": "\ud83d\udeb2 \u2764\ufe0f Transilien \ud83d\ude86"}, "geometry": {"type": "Point", "coordinates": [2.307982254553742, 48.93282405536431]}}, {"type": "Feature", "properties": {"start": "Juvisy", "stop_name": "\u00c9pinay-sur-Seine", "type": "Gare accessible", "transport": "transilien", "nombre_trajet_moyen": 0.07, "transport_legende": "\ud83d\udeb2 \u2764\ufe0f Transilien \ud83d\ude86"}, "geometry": {"type": "Point", "coordinates": [2.302388375122374, 48.95382604164122]}}, {"type": "Feature", "properties": {"start": "Juvisy", "stop_name": "Saint-Gratien", "type": "Gare accessible", "transport": "transilien", "nombre_trajet_moyen": 0.07, "transport_legende": "\ud83d\udeb2 \u2764\ufe0f Transilien \ud83d\ude86"}, "geometry": {"type": "Point", "coordinates": [2.285777828585351, 48.96365827352943]}}, {"type": "Feature", "properties": {"start": "Juvisy", "stop_name": "Ermont - Eaubonne", "type": "Gare accessible", "transport": "transilien", "nombre_trajet_moyen": 0.07, "transport_legende": "\ud83d\udeb2 \u2764\ufe0f Transilien \ud83d\ude86"}, "geometry": {"type": "Point", "coordinates": [2.2707541014797794, 48.98049890628609]}}, {"type": "Feature", "properties": {"start": "Juvisy", "stop_name": "Cernay", "type": "Gare accessible", "transport": "transilien", "nombre_trajet_moyen": 0.07, "transport_legende": "\ud83d\udeb2 \u2764\ufe0f Transilien \ud83d\ude86"}, "geometry": {"type": "Point", "coordinates": [2.257017857907824, 48.985149200200375]}}, {"type": "Feature", "properties": {"start": "Juvisy", "stop_name": "Franconville - Le Plessis-Bouchard", "type": "Gare accessible", "transport": "transilien", "nombre_trajet_moyen": 0.07, "transport_legende": "\ud83d\udeb2 \u2764\ufe0f Transilien \ud83d\ude86"}, "geometry": {"type": "Point", "coordinates": [2.2341907839306554, 48.99374640051787]}}, {"type": "Feature", "properties": {"start": "Juvisy", "stop_name": "Montigny - Beauchamp", "type": "Gare accessible", "transport": "transilien", "nombre_trajet_moyen": 0.07, "transport_legende": "\ud83d\udeb2 \u2764\ufe0f Transilien \ud83d\ude86"}, "geometry": {"type": "Point", "coordinates": [2.1965151756043038, 49.007744118117]}}, {"type": "Feature", "properties": {"start": "Juvisy", "stop_name": "Pierrelaye", "type": "Gare accessible", "transport": "transilien", "nombre_trajet_moyen": 0.07, "transport_legende": "\ud83d\udeb2 \u2764\ufe0f Transilien \ud83d\ude86"}, "geometry": {"type": "Point", "coordinates": [2.1545313948758564, 49.01917957374756]}}, {"type": "Feature", "properties": {"start": "Juvisy", "stop_name": "Saint-Ouen-l'Aum\u00f4ne Liesse", "type": "Gare accessible", "transport": "transilien", "nombre_trajet_moyen": 0.07, "transport_legende": "\ud83d\udeb2 \u2764\ufe0f Transilien \ud83d\ude86"}, "geometry": {"type": "Point", "coordinates": [2.128124092657316, 49.0341234164973]}}, {"type": "Feature", "properties": {"start": "Juvisy", "stop_name": "Saint-Ouen-l'Aum\u00f4ne", "type": "Gare accessible", "transport": "transilien", "nombre_trajet_moyen": 0.07, "transport_legende": "\ud83d\udeb2 \u2764\ufe0f Transilien \ud83d\ude86"}, "geometry": {"type": "Point", "coordinates": [2.105230857870794, 49.04530690087292]}}, {"type": "Feature", "properties": {"start": "Juvisy", "stop_name": "Pontoise", "type": "Gare accessible", "transport": "transilien", "nombre_trajet_moyen": 0.07, "transport_legende": "\ud83d\udeb2 \u2764\ufe0f Transilien \ud83d\ude86"}, "geometry": {"type": "Point", "coordinates": [2.0957859968423524, 49.04673337596684]}}, {"type": "Feature", "properties": {"start": "Juvisy", "stop_name": "Javel", "type": "Gare accessible", "transport": "transilien", "nombre_trajet_moyen": 3.97, "transport_legende": "\ud83d\udeb2 \u2764\ufe0f Transilien \ud83d\ude86"}, "geometry": {"type": "Point", "coordinates": [2.27803679359566, 48.84716158046345]}}, {"type": "Feature", "properties": {"start": "Juvisy", "stop_name": "Pont du Garigliano - H\u00f4pital Europ\u00e9en G. Pompidou", "type": "Gare accessible", "transport": "transilien", "nombre_trajet_moyen": 3.97, "transport_legende": "\ud83d\udeb2 \u2764\ufe0f Transilien \ud83d\ude86"}, "geometry": {"type": "Point", "coordinates": [2.2704701876900395, 48.83888336270874]}}, {"type": "Feature", "properties": {"start": "Juvisy", "stop_name": "Issy Val de Seine", "type": "Gare accessible", "transport": "transilien", "nombre_trajet_moyen": 3.97, "transport_legende": "\ud83d\udeb2 \u2764\ufe0f Transilien \ud83d\ude86"}, "geometry": {"type": "Point", "coordinates": [2.2640113460455358, 48.83050964570215]}}, {"type": "Feature", "properties": {"start": "Juvisy", "stop_name": "Issy", "type": "Gare accessible", "transport": "transilien", "nombre_trajet_moyen": 3.97, "transport_legende": "\ud83d\udeb2 \u2764\ufe0f Transilien \ud83d\ude86"}, "geometry": {"type": "Point", "coordinates": [2.257883547622023, 48.81933737870203]}}, {"type": "Feature", "properties": {"start": "Juvisy", "stop_name": "Meudon Val Fleury", "type": "Gare accessible", "transport": "transilien", "nombre_trajet_moyen": 3.97, "transport_legende": "\ud83d\udeb2 \u2764\ufe0f Transilien \ud83d\ude86"}, "geometry": {"type": "Point", "coordinates": [2.2409419171683638, 48.807552358196936]}}, {"type": "Feature", "properties": {"start": "Juvisy", "stop_name": "Chaville - V\u00e9lizy", "type": "Gare accessible", "transport": "transilien", "nombre_trajet_moyen": 3.97, "transport_legende": "\ud83d\udeb2 \u2764\ufe0f Transilien \ud83d\ude86"}, "geometry": {"type": "Point", "coordinates": [2.1834187943404744, 48.79968116446791]}}, {"type": "Feature", "properties": {"start": "Juvisy", "stop_name": "Viroflay Rive Gauche", "type": "Gare accessible", "transport": "transilien", "nombre_trajet_moyen": 3.97, "transport_legende": "\ud83d\udeb2 \u2764\ufe0f Transilien \ud83d\ude86"}, "geometry": {"type": "Point", "coordinates": [2.17158260741522, 48.800665521455045]}}, {"type": "Feature", "properties": {"start": "Juvisy", "stop_name": "Versailles Chantiers", "type": "Gare accessible", "transport": "transilien", "nombre_trajet_moyen": 3.0, "transport_legende": "\ud83d\udeb2 \u2764\ufe0f Transilien \ud83d\ude86"}, "geometry": {"type": "Point", "coordinates": [2.1349078603373464, 48.79526039893613]}}, {"type": "Feature", "properties": {"start": "Juvisy", "stop_name": "Saint-Cyr", "type": "Gare accessible", "transport": "transilien", "nombre_trajet_moyen": 1.13, "transport_legende": "\ud83d\udeb2 \u2764\ufe0f Transilien \ud83d\ude86"}, "geometry": {"type": "Point", "coordinates": [2.072712440765476, 48.79877460471833]}}, {"type": "Feature", "properties": {"start": "Juvisy", "stop_name": "Saint-Quentin en Yvelines - Montigny-le-Bretonneux", "type": "Gare accessible", "transport": "transilien", "nombre_trajet_moyen": 1.13, "transport_legende": "\ud83d\udeb2 \u2764\ufe0f Transilien \ud83d\ude86"}, "geometry": {"type": "Point", "coordinates": [2.044615988930814, 48.78748491597792]}}, {"type": "Feature", "properties": {"start": "Juvisy", "stop_name": "Dourdan la For\u00eat", "type": "Gare accessible", "transport": "transilien", "nombre_trajet_moyen": 0.8, "transport_legende": "\ud83d\udeb2 \u2764\ufe0f Transilien \ud83d\ude86"}, "geometry": {"type": "Point", "coordinates": [1.996005688002604, 48.53542058733677]}}, {"type": "Feature", "properties": {"start": "Juvisy", "stop_name": "Versailles Ch\u00e2teau Rive Gauche", "type": "Gare accessible", "transport": "transilien", "nombre_trajet_moyen": 3.3, "transport_legende": "\ud83d\udeb2 \u2764\ufe0f Transilien \ud83d\ude86"}, "geometry": {"type": "Point", "coordinates": [2.130150772175517, 48.79991350059487]}}, {"type": "Feature", "properties": {"start": "Juvisy", "stop_name": "Porchefontaine", "type": "Gare accessible", "transport": "transilien", "nombre_trajet_moyen": 3.3, "transport_legende": "\ud83d\udeb2 \u2764\ufe0f Transilien \ud83d\ude86"}, "geometry": {"type": "Point", "coordinates": [2.1522340489858127, 48.79654475986442]}}, {"type": "Feature", "properties": {"start": "Juvisy", "stop_name": "Choisy-le-Roi", "type": "Gare accessible", "transport": "transilien", "nombre_trajet_moyen": 3.77, "transport_legende": "\ud83d\udeb2 \u2764\ufe0f Transilien \ud83d\ude86"}, "geometry": {"type": "Point", "coordinates": [2.411287538155699, 48.76387977763339]}}, {"type": "Feature", "properties": {"start": "Juvisy", "stop_name": "Villeneuve-le-Roi", "type": "Gare accessible", "transport": "transilien", "nombre_trajet_moyen": 3.77, "transport_legende": "\ud83d\udeb2 \u2764\ufe0f Transilien \ud83d\ude86"}, "geometry": {"type": "Point", "coordinates": [2.426423645047488, 48.73968685807613]}}, {"type": "Feature", "properties": {"start": "Juvisy", "stop_name": "Ablon", "type": "Gare accessible", "transport": "transilien", "nombre_trajet_moyen": 3.77, "transport_legende": "\ud83d\udeb2 \u2764\ufe0f Transilien \ud83d\ude86"}, "geometry": {"type": "Point", "coordinates": [2.4198671478914595, 48.72578126379895]}}, {"type": "Feature", "properties": {"start": "Juvisy", "stop_name": "Athis-Mons", "type": "Gare accessible", "transport": "transilien", "nombre_trajet_moyen": 3.77, "transport_legende": "\ud83d\udeb2 \u2764\ufe0f Transilien \ud83d\ude86"}, "geometry": {"type": "Point", "coordinates": [2.403668724287269, 48.71266832171659]}}, {"type": "Feature", "properties": {"start": "Juvisy", "stop_name": "Petit Vaux", "type": "Gare accessible", "transport": "transilien", "nombre_trajet_moyen": 2.57, "transport_legende": "\ud83d\udeb2 \u2764\ufe0f Transilien \ud83d\ude86"}, "geometry": {"type": "Point", "coordinates": [2.332868506135788, 48.67655855621464]}}, {"type": "Feature", "properties": {"start": "Juvisy", "stop_name": "Gravigny Balizy", "type": "Gare accessible", "transport": "transilien", "nombre_trajet_moyen": 2.33, "transport_legende": "\ud83d\udeb2 \u2764\ufe0f Transilien \ud83d\ude86"}, "geometry": {"type": "Point", "coordinates": [2.317279009830932, 48.68617887111781]}}, {"type": "Feature", "properties": {"start": "Juvisy", "stop_name": "Chilly-Mazarin", "type": "Gare accessible", "transport": "transilien", "nombre_trajet_moyen": 2.33, "transport_legende": "\ud83d\udeb2 \u2764\ufe0f Transilien \ud83d\ude86"}, "geometry": {"type": "Point", "coordinates": [2.306997381394413, 48.70087559869863]}}, {"type": "Feature", "properties": {"start": "Juvisy", "stop_name": "Longjumeau", "type": "Gare accessible", "transport": "transilien", "nombre_trajet_moyen": 2.33, "transport_legende": "\ud83d\udeb2 \u2764\ufe0f Transilien \ud83d\ude86"}, "geometry": {"type": "Point", "coordinates": [2.294155784636593, 48.70229375639124]}}, {"type": "Feature", "properties": {"start": "Juvisy", "stop_name": "Massy - Palaiseau", "type": "Gare accessible", "transport": "transilien", "nombre_trajet_moyen": 2.33, "transport_legende": "\ud83d\udeb2 \u2764\ufe0f Transilien \ud83d\ude86"}, "geometry": {"type": "Point", "coordinates": [2.2587677282577334, 48.72551907437078]}}, {"type": "Feature", "properties": {"start": "Juvisy", "stop_name": "Igny", "type": "Gare accessible", "transport": "transilien", "nombre_trajet_moyen": 2.33, "transport_legende": "\ud83d\udeb2 \u2764\ufe0f Transilien \ud83d\ude86"}, "geometry": {"type": "Point", "coordinates": [2.230807643224045, 48.74084886110891]}}, {"type": "Feature", "properties": {"start": "Juvisy", "stop_name": "Bi\u00e8vres", "type": "Gare accessible", "transport": "transilien", "nombre_trajet_moyen": 2.33, "transport_legende": "\ud83d\udeb2 \u2764\ufe0f Transilien \ud83d\ude86"}, "geometry": {"type": "Point", "coordinates": [2.2161603396773564, 48.75087243760775]}}, {"type": "Feature", "properties": {"start": "Juvisy", "stop_name": "Vauboyen", "type": "Gare accessible", "transport": "transilien", "nombre_trajet_moyen": 2.33, "transport_legende": "\ud83d\udeb2 \u2764\ufe0f Transilien \ud83d\ude86"}, "geometry": {"type": "Point", "coordinates": [2.1925522822775045, 48.75897132762851]}}, {"type": "Feature", "properties": {"start": "Juvisy", "stop_name": "Jouy-en-Josas", "type": "Gare accessible", "transport": "transilien", "nombre_trajet_moyen": 2.33, "transport_legende": "\ud83d\udeb2 \u2764\ufe0f Transilien \ud83d\ude86"}, "geometry": {"type": "Point", "coordinates": [2.164447836855006, 48.764760068378486]}}, {"type": "Feature", "properties": {"start": "Juvisy", "stop_name": "Petit Jouy Les Loges", "type": "Gare accessible", "transport": "transilien", "nombre_trajet_moyen": 2.33, "transport_legende": "\ud83d\udeb2 \u2764\ufe0f Transilien \ud83d\ude86"}, "geometry": {"type": "Point", "coordinates": [2.146851969344536, 48.77123768805397]}}, {"type": "Feature", "properties": {"start": "Juvisy", "stop_name": "Creil", "type": "Gare accessible", "transport": "transilien", "nombre_trajet_moyen": 1.6, "transport_legende": "\ud83d\udeb2 \u2764\ufe0f Transilien \ud83d\ude86"}, "geometry": {"type": "Point", "coordinates": [2.46892902764167, 49.264185555044406]}}, {"type": "Feature", "properties": {"start": "Juvisy", "stop_name": "Chantilly - Gouvieux", "type": "Gare accessible", "transport": "transilien", "nombre_trajet_moyen": 1.6, "transport_legende": "\ud83d\udeb2 \u2764\ufe0f Transilien \ud83d\ude86"}, "geometry": {"type": "Point", "coordinates": [2.459515914008524, 49.187030004664]}}, {"type": "Feature", "properties": {"start": "Juvisy", "stop_name": "Orry-la-Ville - Coye", "type": "Gare accessible", "transport": "transilien", "nombre_trajet_moyen": 3.13, "transport_legende": "\ud83d\udeb2 \u2764\ufe0f Transilien \ud83d\ude86"}, "geometry": {"type": "Point", "coordinates": [2.489862086302069, 49.13840546145438]}}, {"type": "Feature", "properties": {"start": "Juvisy", "stop_name": "La Borne Blanche", "type": "Gare accessible", "transport": "transilien", "nombre_trajet_moyen": 3.13, "transport_legende": "\ud83d\udeb2 \u2764\ufe0f Transilien \ud83d\ude86"}, "geometry": {"type": "Point", "coordinates": [2.5069908684194053, 49.1261949449139]}}, {"type": "Feature", "properties": {"start": "Juvisy", "stop_name": "Survilliers - Fosses", "type": "Gare accessible", "transport": "transilien", "nombre_trajet_moyen": 3.13, "transport_legende": "\ud83d\udeb2 \u2764\ufe0f Transilien \ud83d\ude86"}, "geometry": {"type": "Point", "coordinates": [2.525517836696695, 49.09951161811565]}}, {"type": "Feature", "properties": {"start": "Juvisy", "stop_name": "Louvres", "type": "Gare accessible", "transport": "transilien", "nombre_trajet_moyen": 3.13, "transport_legende": "\ud83d\udeb2 \u2764\ufe0f Transilien \ud83d\ude86"}, "geometry": {"type": "Point", "coordinates": [2.5018113143714777, 49.04933726826723]}}, {"type": "Feature", "properties": {"start": "Juvisy", "stop_name": "Les Noues", "type": "Gare accessible", "transport": "transilien", "nombre_trajet_moyen": 3.13, "transport_legende": "\ud83d\udeb2 \u2764\ufe0f Transilien \ud83d\ude86"}, "geometry": {"type": "Point", "coordinates": [2.477713962139221, 49.03307204384692]}}, {"type": "Feature", "properties": {"start": "Juvisy", "stop_name": "Goussainville", "type": "Gare accessible", "transport": "transilien", "nombre_trajet_moyen": 3.13, "transport_legende": "\ud83d\udeb2 \u2764\ufe0f Transilien \ud83d\ude86"}, "geometry": {"type": "Point", "coordinates": [2.46256580793126, 49.02341075826703]}}, {"type": "Feature", "properties": {"start": "Juvisy", "stop_name": "Grigny Centre", "type": "Gare accessible", "transport": "transilien", "nombre_trajet_moyen": 6.97, "transport_legende": "\ud83d\udeb2 \u2764\ufe0f Transilien \ud83d\ude86"}, "geometry": {"type": "Point", "coordinates": [2.39678605544789, 48.65484195083382]}}, {"type": "Feature", "properties": {"start": "Juvisy", "stop_name": "Orangis Bois de l'\u00c9pine", "type": "Gare accessible", "transport": "transilien", "nombre_trajet_moyen": 6.97, "transport_legende": "\ud83d\udeb2 \u2764\ufe0f Transilien \ud83d\ude86"}, "geometry": {"type": "Point", "coordinates": [2.40769076622141, 48.6363396147683]}}, {"type": "Feature", "properties": {"start": "Juvisy", "stop_name": "\u00c9vry - Courcouronnes", "type": "Gare accessible", "transport": "transilien", "nombre_trajet_moyen": 6.97, "transport_legende": "\ud83d\udeb2 \u2764\ufe0f Transilien \ud83d\ude86"}, "geometry": {"type": "Point", "coordinates": [2.430032909521453, 48.62588794663492]}}, {"type": "Feature", "properties": {"start": "Juvisy", "stop_name": "Le Bras de Fer", "type": "Gare accessible", "transport": "transilien", "nombre_trajet_moyen": 6.97, "transport_legende": "\ud83d\udeb2 \u2764\ufe0f Transilien \ud83d\ude86"}, "geometry": {"type": "Point", "coordinates": [2.4520047548737254, 48.62330639719716]}}, {"type": "Feature", "properties": {"start": "Juvisy", "stop_name": "Le Vert de Maisons", "type": "Gare accessible", "transport": "transilien", "nombre_trajet_moyen": 6.6, "transport_legende": "\ud83d\udeb2 \u2764\ufe0f Transilien \ud83d\ude86"}, "geometry": {"type": "Point", "coordinates": [2.4321242678299977, 48.78883131123265]}}, {"type": "Feature", "properties": {"start": "Juvisy", "stop_name": "Cr\u00e9teil Pompadour", "type": "Gare accessible", "transport": "transilien", "nombre_trajet_moyen": 6.63, "transport_legende": "\ud83d\udeb2 \u2764\ufe0f Transilien \ud83d\ude86"}, "geometry": {"type": "Point", "coordinates": [2.435080408386999, 48.77100562083573]}}, {"type": "Feature", "properties": {"start": "Juvisy", "stop_name": "Villeneuve Triage", "type": "Gare accessible", "transport": "transilien", "nombre_trajet_moyen": 6.7, "transport_legende": "\ud83d\udeb2 \u2764\ufe0f Transilien \ud83d\ude86"}, "geometry": {"type": "Point", "coordinates": [2.438697833840877, 48.74461113914048]}}, {"type": "Feature", "properties": {"start": "Juvisy", "stop_name": "Ivry-sur-Seine", "type": "Gare accessible", "transport": "transilien", "nombre_trajet_moyen": 0.17, "transport_legende": "\ud83d\udeb2 \u2764\ufe0f Transilien \ud83d\ude86"}, "geometry": {"type": "Point", "coordinates": [2.391677280020743, 48.8139591342409]}}, {"type": "Feature", "properties": {"start": "Juvisy", "stop_name": "Marolles-en-Hurepoix", "type": "Gare accessible", "transport": "transilien", "nombre_trajet_moyen": 1.67, "transport_legende": "\ud83d\udeb2 \u2764\ufe0f Transilien \ud83d\ude86"}, "geometry": {"type": "Point", "coordinates": [2.290908349251896, 48.56564453550255]}}, {"type": "Feature", "properties": {"start": "Juvisy", "stop_name": "Bouray", "type": "Gare accessible", "transport": "transilien", "nombre_trajet_moyen": 1.3, "transport_legende": "\ud83d\udeb2 \u2764\ufe0f Transilien \ud83d\ude86"}, "geometry": {"type": "Point", "coordinates": [2.290077813743244, 48.53290340283496]}}, {"type": "Feature", "properties": {"start": "Juvisy", "stop_name": "Lardy", "type": "Gare accessible", "transport": "transilien", "nombre_trajet_moyen": 1.3, "transport_legende": "\ud83d\udeb2 \u2764\ufe0f Transilien \ud83d\ude86"}, "geometry": {"type": "Point", "coordinates": [2.255014220399748, 48.52062055349796]}}, {"type": "Feature", "properties": {"start": "Juvisy", "stop_name": "Gare de Chamarande", "type": "Gare accessible", "transport": "transilien", "nombre_trajet_moyen": 1.3, "transport_legende": "\ud83d\udeb2 \u2764\ufe0f Transilien \ud83d\ude86"}, "geometry": {"type": "Point", "coordinates": [2.2151562718541644, 48.51405318948937]}}, {"type": "Feature", "properties": {"start": "Juvisy", "stop_name": "\u00c9tr\u00e9chy", "type": "Gare accessible", "transport": "transilien", "nombre_trajet_moyen": 1.3, "transport_legende": "\ud83d\udeb2 \u2764\ufe0f Transilien \ud83d\ude86"}, "geometry": {"type": "Point", "coordinates": [2.1947692381982216, 48.49387742150091]}}, {"type": "Feature", "properties": {"start": "Juvisy", "stop_name": "\u00c9tampes", "type": "Gare accessible", "transport": "transilien", "nombre_trajet_moyen": 1.3, "transport_legende": "\ud83d\udeb2 \u2764\ufe0f Transilien \ud83d\ude86"}, "geometry": {"type": "Point", "coordinates": [2.159819133907717, 48.437062675829104]}}, {"type": "Feature", "properties": {"start": "Juvisy", "stop_name": "Saint-Martin d'\u00c9tampes", "type": "Gare accessible", "transport": "transilien", "nombre_trajet_moyen": 1.67, "transport_legende": "\ud83d\udeb2 \u2764\ufe0f Transilien \ud83d\ude86"}, "geometry": {"type": "Point", "coordinates": [2.145258831307165, 48.42748765080825]}}, {"type": "Feature", "properties": {"start": "Juvisy", "stop_name": "Paris Austerlitz", "type": "Gare accessible", "transport": "transilien", "nombre_trajet_moyen": 0.73, "transport_legende": "\ud83d\udeb2 \u2764\ufe0f Transilien \ud83d\ude86"}, "geometry": {"type": "Point", "coordinates": [2.367960704266045, 48.841536799703]}}, {"type": "Feature", "properties": {"start": "Juvisy", "stop_name": "Gare de Savigny-sur-Orge RER", "type": "Gare accessible", "transport": "transilien", "nombre_trajet_moyen": 0.43, "transport_legende": "\ud83d\udeb2 \u2764\ufe0f Transilien \ud83d\ude86"}, "geometry": {"type": "Point", "coordinates": [2.3514603161771443, 48.67618744411335]}}, {"type": "Feature", "properties": {"start": "Juvisy", "stop_name": "Gare d'Epinay-sur-Orge", "type": "Gare accessible", "transport": "transilien", "nombre_trajet_moyen": 0.43, "transport_legende": "\ud83d\udeb2 \u2764\ufe0f Transilien \ud83d\ude86"}, "geometry": {"type": "Point", "coordinates": [2.332862503380829, 48.67008518872741]}}, {"type": "Feature", "properties": {"start": "Juvisy", "stop_name": "Gare de Sainte Genevi\u00e8ve des Bois", "type": "Gare accessible", "transport": "transilien", "nombre_trajet_moyen": 0.43, "transport_legende": "\ud83d\udeb2 \u2764\ufe0f Transilien \ud83d\ude86"}, "geometry": {"type": "Point", "coordinates": [2.314400701472484, 48.65289879917236]}}, {"type": "Feature", "properties": {"start": "Juvisy", "stop_name": "Gare de Saint-Michel-sur-Orge", "type": "Gare accessible", "transport": "transilien", "nombre_trajet_moyen": 0.43, "transport_legende": "\ud83d\udeb2 \u2764\ufe0f Transilien \ud83d\ude86"}, "geometry": {"type": "Point", "coordinates": [2.3071832453245547, 48.63610797973242]}}, {"type": "Feature", "properties": {"start": "Juvisy", "stop_name": "Gare de Bouray", "type": "Gare accessible", "transport": "transilien", "nombre_trajet_moyen": 0.43, "transport_legende": "\ud83d\udeb2 \u2764\ufe0f Transilien \ud83d\ude86"}, "geometry": {"type": "Point", "coordinates": [2.2908369165380784, 48.5333622333756]}}, {"type": "Feature", "properties": {"start": "Juvisy", "stop_name": "Gare de Lardy", "type": "Gare accessible", "transport": "transilien", "nombre_trajet_moyen": 0.43, "transport_legende": "\ud83d\udeb2 \u2764\ufe0f Transilien \ud83d\ude86"}, "geometry": {"type": "Point", "coordinates": [2.2562456813314, 48.52068224259166]}}, {"type": "Feature", "properties": {"start": "Juvisy", "stop_name": "Chamarande", "type": "Gare accessible", "transport": "transilien", "nombre_trajet_moyen": 0.43, "transport_legende": "\ud83d\udeb2 \u2764\ufe0f Transilien \ud83d\ude86"}, "geometry": {"type": "Point", "coordinates": [2.2172087339114896, 48.51398126165003]}}, {"type": "Feature", "properties": {"start": "Juvisy", "stop_name": "Gare d'Etrechy", "type": "Gare accessible", "transport": "transilien", "nombre_trajet_moyen": 0.43, "transport_legende": "\ud83d\udeb2 \u2764\ufe0f Transilien \ud83d\ude86"}, "geometry": {"type": "Point", "coordinates": [2.1939997375729896, 48.49374625316339]}}, {"type": "Feature", "properties": {"start": "Juvisy", "stop_name": "Gare d'\u00c9tampes", "type": "Gare accessible", "transport": "transilien", "nombre_trajet_moyen": 0.43, "transport_legende": "\ud83d\udeb2 \u2764\ufe0f Transilien \ud83d\ude86"}, "geometry": {"type": "Point", "coordinates": [2.159683431668019, 48.43652355105905]}}, {"type": "Feature", "properties": {"start": "Juvisy", "stop_name": "Vitry-sur-Seine", "type": "Gare accessible", "transport": "transilien", "nombre_trajet_moyen": 0.17, "transport_legende": "\ud83d\udeb2 \u2764\ufe0f Transilien \ud83d\ude86"}, "geometry": {"type": "Point", "coordinates": [2.40269438767449, 48.80028105254759]}}, {"type": "Feature", "properties": {"start": "Juvisy", "stop_name": "Athis-Mons RER", "type": "Gare accessible", "transport": "transilien", "nombre_trajet_moyen": 0.37, "transport_legende": "\ud83d\udeb2 \u2764\ufe0f Transilien \ud83d\ude86"}, "geometry": {"type": "Point", "coordinates": [2.4026412215474013, 48.71278460911634]}}, {"type": "Feature", "properties": {"start": "Juvisy", "stop_name": "Gare d'Ablon", "type": "Gare accessible", "transport": "transilien", "nombre_trajet_moyen": 0.37, "transport_legende": "\ud83d\udeb2 \u2764\ufe0f Transilien \ud83d\ude86"}, "geometry": {"type": "Point", "coordinates": [2.418552549726059, 48.72541058971868]}}, {"type": "Feature", "properties": {"start": "Juvisy", "stop_name": "Gare de Villeneuve-le-Roi", "type": "Gare accessible", "transport": "transilien", "nombre_trajet_moyen": 0.37, "transport_legende": "\ud83d\udeb2 \u2764\ufe0f Transilien \ud83d\ude86"}, "geometry": {"type": "Point", "coordinates": [2.423505885411325, 48.73976274768902]}}, {"type": "Feature", "properties": {"start": "Juvisy", "stop_name": "Choisy-le-Roi RER", "type": "Gare accessible", "transport": "transilien", "nombre_trajet_moyen": 0.37, "transport_legende": "\ud83d\udeb2 \u2764\ufe0f Transilien \ud83d\ude86"}, "geometry": {"type": "Point", "coordinates": [2.4121016828937027, 48.76467527679301]}}, {"type": "Feature", "properties": {"start": "Juvisy", "stop_name": "Gare de Massy Palaiseau", "type": "Gare accessible", "transport": "transilien", "nombre_trajet_moyen": 0.23, "transport_legende": "\ud83d\udeb2 \u2764\ufe0f Transilien \ud83d\ude86"}, "geometry": {"type": "Point", "coordinates": [2.2573460833872727, 48.72606340692455]}}, {"type": "Feature", "properties": {"start": "Juvisy", "stop_name": "Gare RER Longjumeau", "type": "Gare accessible", "transport": "transilien", "nombre_trajet_moyen": 0.23, "transport_legende": "\ud83d\udeb2 \u2764\ufe0f Transilien \ud83d\ude86"}, "geometry": {"type": "Point", "coordinates": [2.294118339716738, 48.702153799044325]}}, {"type": "Feature", "properties": {"start": "Juvisy", "stop_name": "Gare de Chilly-Mazarin", "type": "Gare accessible", "transport": "transilien", "nombre_trajet_moyen": 0.23, "transport_legende": "\ud83d\udeb2 \u2764\ufe0f Transilien \ud83d\ude86"}, "geometry": {"type": "Point", "coordinates": [2.3085895722306637, 48.70018774214699]}}, {"type": "Feature", "properties": {"start": "Juvisy", "stop_name": "Gare de Gravigny Balizy", "type": "Gare accessible", "transport": "transilien", "nombre_trajet_moyen": 0.23, "transport_legende": "\ud83d\udeb2 \u2764\ufe0f Transilien \ud83d\ude86"}, "geometry": {"type": "Point", "coordinates": [2.3170874694442003, 48.68524230606057]}}, {"type": "Feature", "properties": {"start": "Juvisy", "stop_name": "Gare de Savigny-sur-Orge", "type": "Gare accessible", "transport": "transilien", "nombre_trajet_moyen": 0.37, "transport_legende": "\ud83d\udeb2 \u2764\ufe0f Transilien \ud83d\ude86"}, "geometry": {"type": "Point", "coordinates": [2.3525904654385625, 48.67595971797696]}}, {"type": "Feature", "properties": {"start": "Juvisy", "stop_name": "Saint-Michel Notre-Dame", "type": "Gare accessible", "transport": "transilien", "nombre_trajet_moyen": 0.07, "transport_legende": "\ud83d\udeb2 \u2764\ufe0f Transilien \ud83d\ude86"}, "geometry": {"type": "Point", "coordinates": [2.344959780029387, 48.85302379374016]}}, {"type": "Feature", "properties": {"start": "Juvisy", "stop_name": "Gare de Dourdan", "type": "Gare accessible", "transport": "transilien", "nombre_trajet_moyen": 0.23, "transport_legende": "\ud83d\udeb2 \u2764\ufe0f Transilien \ud83d\ude86"}, "geometry": {"type": "Point", "coordinates": [2.009534907820466, 48.53335766070774]}}, {"type": "Feature", "properties": {"start": "Juvisy", "stop_name": "Gare de Sermaise", "type": "Gare accessible", "transport": "transilien", "nombre_trajet_moyen": 0.23, "transport_legende": "\ud83d\udeb2 \u2764\ufe0f Transilien \ud83d\ude86"}, "geometry": {"type": "Point", "coordinates": [2.0696790107970835, 48.53561577888964]}}, {"type": "Feature", "properties": {"start": "Juvisy", "stop_name": "Gare d'Arpajon", "type": "Gare accessible", "transport": "transilien", "nombre_trajet_moyen": 0.23, "transport_legende": "\ud83d\udeb2 \u2764\ufe0f Transilien \ud83d\ude86"}, "geometry": {"type": "Point", "coordinates": [2.241268855984888, 48.5861590555232]}}, {"type": "Feature", "properties": {"start": "Juvisy", "stop_name": "Gare routi\u00e8re de Versailles Chantiers - Quai H", "type": "Gare accessible", "transport": "transilien", "nombre_trajet_moyen": 0.23, "transport_legende": "\ud83d\udeb2 \u2764\ufe0f Transilien \ud83d\ude86"}, "geometry": {"type": "Point", "coordinates": [2.133520106872908, 48.79561972288378]}}, {"type": "Feature", "properties": {"start": "Juvisy", "stop_name": "Gare du Petit-Jouy - Les Loges", "type": "Gare accessible", "transport": "transilien", "nombre_trajet_moyen": 0.13, "transport_legende": "\ud83d\udeb2 \u2764\ufe0f Transilien \ud83d\ude86"}, "geometry": {"type": "Point", "coordinates": [2.147822925316284, 48.77177070181183]}}, {"type": "Feature", "properties": {"start": "Juvisy", "stop_name": "Gare de Jouy-en-Josas", "type": "Gare accessible", "transport": "transilien", "nombre_trajet_moyen": 0.13, "transport_legende": "\ud83d\udeb2 \u2764\ufe0f Transilien \ud83d\ude86"}, "geometry": {"type": "Point", "coordinates": [2.163390419214656, 48.76494604700003]}}, {"type": "Feature", "properties": {"start": "Juvisy", "stop_name": "Gare de Vauboyen", "type": "Gare accessible", "transport": "transilien", "nombre_trajet_moyen": 0.13, "transport_legende": "\ud83d\udeb2 \u2764\ufe0f Transilien \ud83d\ude86"}, "geometry": {"type": "Point", "coordinates": [2.19048067829034, 48.75783823568276]}}, {"type": "Feature", "properties": {"start": "Juvisy", "stop_name": "Gare de Bi\u00e8vres", "type": "Gare accessible", "transport": "transilien", "nombre_trajet_moyen": 0.13, "transport_legende": "\ud83d\udeb2 \u2764\ufe0f Transilien \ud83d\ude86"}, "geometry": {"type": "Point", "coordinates": [2.2157586957609348, 48.75135100564622]}}, {"type": "Feature", "properties": {"start": "Juvisy", "stop_name": "Gare d'Igny", "type": "Gare accessible", "transport": "transilien", "nombre_trajet_moyen": 0.13, "transport_legende": "\ud83d\udeb2 \u2764\ufe0f Transilien \ud83d\ude86"}, "geometry": {"type": "Point", "coordinates": [2.2305211423998137, 48.73998803455092]}}]}