{"type": "FeatureCollection", "features": [{"type": "Feature", "properties": {"start": "La Fayette - Dunkerque", "stop_name": "La Fayette - Dunkerque", "type": "Gare s\u00e9lectionn\u00e9e", "transport": "transilien", "nombre_trajet_moyen": 0.43, "transport_legende": "\ud83d\udeb2 \u2764\ufe0f Transilien \ud83d\ude86"}, "geometry": {"type": "Point", "coordinates": [2.355748307343345, 48.879343185478696]}}, {"type": "Feature", "properties": {"start": "La Fayette - Dunkerque", "stop_name": "Paris Est", "type": "Gare accessible", "transport": "transilien", "nombre_trajet_moyen": 0.07, "transport_legende": "\ud83d\udeb2 \u2764\ufe0f Transilien \ud83d\ude86"}, "geometry": {"type": "Point", "coordinates": [2.3581309888068707, 48.87630724403106]}}, {"type": "Feature", "properties": {"start": "La Fayette - Dunkerque", "stop_name": "Rosa Parks", "type": "Gare accessible", "transport": "transilien", "nombre_trajet_moyen": 0.07, "transport_legende": "\ud83d\udeb2 \u2764\ufe0f Transilien \ud83d\ude86"}, "geometry": {"type": "Point", "coordinates": [2.3737182728654678, 48.89645824176388]}}, {"type": "Feature", "properties": {"start": "La Fayette - Dunkerque", "stop_name": "Porte de la Villette", "type": "Gare accessible", "transport": "transilien", "nombre_trajet_moyen": 0.07, "transport_legende": "\ud83d\udeb2 \u2764\ufe0f Transilien \ud83d\ude86"}, "geometry": {"type": "Point", "coordinates": [2.387836994660735, 48.89748002146782]}}, {"type": "Feature", "properties": {"start": "La Fayette - Dunkerque", "stop_name": "Pantin RER - Mairie", "type": "Gare accessible", "transport": "transilien", "nombre_trajet_moyen": 0.07, "transport_legende": "\ud83d\udeb2 \u2764\ufe0f Transilien \ud83d\ude86"}, "geometry": {"type": "Point", "coordinates": [2.400844948468256, 48.89669145783791]}}, {"type": "Feature", "properties": {"start": "La Fayette - Dunkerque", "stop_name": "Escadrille Normandie-Niemen - Jean Jaur\u00e8s Tram", "type": "Gare accessible", "transport": "transilien", "nombre_trajet_moyen": 0.07, "transport_legende": "\ud83d\udeb2 \u2764\ufe0f Transilien \ud83d\ude86"}, "geometry": {"type": "Point", "coordinates": [2.43559456928881, 48.91219341446422]}}, {"type": "Feature", "properties": {"start": "La Fayette - Dunkerque", "stop_name": "Place du 19 Mars 1962", "type": "Gare accessible", "transport": "transilien", "nombre_trajet_moyen": 0.07, "transport_legende": "\ud83d\udeb2 \u2764\ufe0f Transilien \ud83d\ude86"}, "geometry": {"type": "Point", "coordinates": [2.451809476365077, 48.9199531776217]}}, {"type": "Feature", "properties": {"start": "La Fayette - Dunkerque", "stop_name": "Rond-point Pierre S\u00e9mard - P. Vaillant Couturier", "type": "Gare accessible", "transport": "transilien", "nombre_trajet_moyen": 0.07, "transport_legende": "\ud83d\udeb2 \u2764\ufe0f Transilien \ud83d\ude86"}, "geometry": {"type": "Point", "coordinates": [2.4787568655887244, 48.92918769027808]}}, {"type": "Feature", "properties": {"start": "La Fayette - Dunkerque", "stop_name": "Aulnay-sous-Bois", "type": "Gare accessible", "transport": "transilien", "nombre_trajet_moyen": 0.07, "transport_legende": "\ud83d\udeb2 \u2764\ufe0f Transilien \ud83d\ude86"}, "geometry": {"type": "Point", "coordinates": [2.495597257086315, 48.932150935734064]}}, {"type": "Feature", "properties": {"start": "La Fayette - Dunkerque", "stop_name": "Gare de Sevran-Livry Sud", "type": "Gare accessible", "transport": "transilien", "nombre_trajet_moyen": 0.07, "transport_legende": "\ud83d\udeb2 \u2764\ufe0f Transilien \ud83d\ude86"}, "geometry": {"type": "Point", "coordinates": [2.5348307222462583, 48.93600115405399]}}, {"type": "Feature", "properties": {"start": "La Fayette - Dunkerque", "stop_name": "Luther King", "type": "Gare accessible", "transport": "transilien", "nombre_trajet_moyen": 0.07, "transport_legende": "\ud83d\udeb2 \u2764\ufe0f Transilien \ud83d\ude86"}, "geometry": {"type": "Point", "coordinates": [2.5317855390890385, 48.94827327560706]}}, {"type": "Feature", "properties": {"start": "La Fayette - Dunkerque", "stop_name": "Le Clos Montceleux", "type": "Gare accessible", "transport": "transilien", "nombre_trajet_moyen": 0.07, "transport_legende": "\ud83d\udeb2 \u2764\ufe0f Transilien \ud83d\ude86"}, "geometry": {"type": "Point", "coordinates": [2.535390864969876, 48.954285356428805]}}, {"type": "Feature", "properties": {"start": "La Fayette - Dunkerque", "stop_name": "Espace V", "type": "Gare accessible", "transport": "transilien", "nombre_trajet_moyen": 0.07, "transport_legende": "\ud83d\udeb2 \u2764\ufe0f Transilien \ud83d\ude86"}, "geometry": {"type": "Point", "coordinates": [2.552573147362702, 48.96008793714663]}}, {"type": "Feature", "properties": {"start": "La Fayette - Dunkerque", "stop_name": "Foyer des Bruy\u00e8res", "type": "Gare accessible", "transport": "transilien", "nombre_trajet_moyen": 0.07, "transport_legende": "\ud83d\udeb2 \u2764\ufe0f Transilien \ud83d\ude86"}, "geometry": {"type": "Point", "coordinates": [2.555805024768987, 48.98141195985269]}}, {"type": "Feature", "properties": {"start": "La Fayette - Dunkerque", "stop_name": "Marguilliers", "type": "Gare accessible", "transport": "transilien", "nombre_trajet_moyen": 0.07, "transport_legende": "\ud83d\udeb2 \u2764\ufe0f Transilien \ud83d\ude86"}, "geometry": {"type": "Point", "coordinates": [2.5235921546253826, 48.99464190126679]}}, {"type": "Feature", "properties": {"start": "La Fayette - Dunkerque", "stop_name": "Rue des Vignes", "type": "Gare accessible", "transport": "transilien", "nombre_trajet_moyen": 0.07, "transport_legende": "\ud83d\udeb2 \u2764\ufe0f Transilien \ud83d\ude86"}, "geometry": {"type": "Point", "coordinates": [2.548334321254883, 49.00472787970376]}}, {"type": "Feature", "properties": {"start": "La Fayette - Dunkerque", "stop_name": "A\u00e9roport Charles de Gaulle 2 (Terminal 2)", "type": "Gare accessible", "transport": "transilien", "nombre_trajet_moyen": 0.07, "transport_legende": "\ud83d\udeb2 \u2764\ufe0f Transilien \ud83d\ude86"}, "geometry": {"type": "Point", "coordinates": [2.5709800477570237, 49.0041455478504]}}, {"type": "Feature", "properties": {"start": "La Fayette - Dunkerque", "stop_name": "Terminal 1", "type": "Gare accessible", "transport": "transilien", "nombre_trajet_moyen": 0.07, "transport_legende": "\ud83d\udeb2 \u2764\ufe0f Transilien \ud83d\ude86"}, "geometry": {"type": "Point", "coordinates": [2.543010054275172, 49.0148957578784]}}, {"type": "Feature", "properties": {"start": "La Fayette - Dunkerque", "stop_name": "Roissypole - A\u00e9roport CDG1 (D1)", "type": "Gare accessible", "transport": "transilien", "nombre_trajet_moyen": 0.07, "transport_legende": "\ud83d\udeb2 \u2764\ufe0f Transilien \ud83d\ude86"}, "geometry": {"type": "Point", "coordinates": [2.559766938812183, 49.01044436955056]}}, {"type": "Feature", "properties": {"start": "La Fayette - Dunkerque", "stop_name": "Gare de Cr\u00e9py-en-Valois", "type": "Gare accessible", "transport": "transilien", "nombre_trajet_moyen": 0.0, "transport_legende": "\ud83d\udeb2 \u2764\ufe0f Transilien \ud83d\ude86"}, "geometry": {"type": "Point", "coordinates": [2.886801824679217, 49.23149497661475]}}, {"type": "Feature", "properties": {"start": "La Fayette - Dunkerque", "stop_name": "Ormoy-Villers", "type": "Gare accessible", "transport": "transilien", "nombre_trajet_moyen": 0.0, "transport_legende": "\ud83d\udeb2 \u2764\ufe0f Transilien \ud83d\ude86"}, "geometry": {"type": "Point", "coordinates": [2.8379866073485736, 49.20071099536894]}}, {"type": "Feature", "properties": {"start": "La Fayette - Dunkerque", "stop_name": "Nanteuil-le-Haudouin", "type": "Gare accessible", "transport": "transilien", "nombre_trajet_moyen": 0.0, "transport_legende": "\ud83d\udeb2 \u2764\ufe0f Transilien \ud83d\ude86"}, "geometry": {"type": "Point", "coordinates": [2.794164765556653, 49.14251123380041]}}, {"type": "Feature", "properties": {"start": "La Fayette - Dunkerque", "stop_name": "Le Plessis-Belleville", "type": "Gare accessible", "transport": "transilien", "nombre_trajet_moyen": 0.0, "transport_legende": "\ud83d\udeb2 \u2764\ufe0f Transilien \ud83d\ude86"}, "geometry": {"type": "Point", "coordinates": [2.745036686332378, 49.09632467804431]}}, {"type": "Feature", "properties": {"start": "La Fayette - Dunkerque", "stop_name": "Gare de Dammartin Juilly Saint Mard", "type": "Gare accessible", "transport": "transilien", "nombre_trajet_moyen": 0.0, "transport_legende": "\ud83d\udeb2 \u2764\ufe0f Transilien \ud83d\ude86"}, "geometry": {"type": "Point", "coordinates": [2.6988286963378054, 49.0324184192336]}}, {"type": "Feature", "properties": {"start": "La Fayette - Dunkerque", "stop_name": "Thieux - Nantouillet", "type": "Gare accessible", "transport": "transilien", "nombre_trajet_moyen": 0.0, "transport_legende": "\ud83d\udeb2 \u2764\ufe0f Transilien \ud83d\ude86"}, "geometry": {"type": "Point", "coordinates": [2.6802537675802918, 49.00813565335945]}}, {"type": "Feature", "properties": {"start": "La Fayette - Dunkerque", "stop_name": "Compans", "type": "Gare accessible", "transport": "transilien", "nombre_trajet_moyen": 0.0, "transport_legende": "\ud83d\udeb2 \u2764\ufe0f Transilien \ud83d\ude86"}, "geometry": {"type": "Point", "coordinates": [2.6649599355374893, 48.99132968756663]}}, {"type": "Feature", "properties": {"start": "La Fayette - Dunkerque", "stop_name": "Mitry - Claye", "type": "Gare accessible", "transport": "transilien", "nombre_trajet_moyen": 0.0, "transport_legende": "\ud83d\udeb2 \u2764\ufe0f Transilien \ud83d\ude86"}, "geometry": {"type": "Point", "coordinates": [2.6422341369736606, 48.9757479508066]}}, {"type": "Feature", "properties": {"start": "La Fayette - Dunkerque", "stop_name": "Goussainville", "type": "Gare accessible", "transport": "transilien", "nombre_trajet_moyen": 0.17, "transport_legende": "\ud83d\udeb2 \u2764\ufe0f Transilien \ud83d\ude86"}, "geometry": {"type": "Point", "coordinates": [2.46256580793126, 49.02341075826703]}}, {"type": "Feature", "properties": {"start": "La Fayette - Dunkerque", "stop_name": "Villiers-le-Bel - Gonesse - Arnouville", "type": "Gare accessible", "transport": "transilien", "nombre_trajet_moyen": 0.17, "transport_legende": "\ud83d\udeb2 \u2764\ufe0f Transilien \ud83d\ude86"}, "geometry": {"type": "Point", "coordinates": [2.416246795897305, 48.99377204005172]}}, {"type": "Feature", "properties": {"start": "La Fayette - Dunkerque", "stop_name": "Garges - Sarcelles RER", "type": "Gare accessible", "transport": "transilien", "nombre_trajet_moyen": 0.17, "transport_legende": "\ud83d\udeb2 \u2764\ufe0f Transilien \ud83d\ude86"}, "geometry": {"type": "Point", "coordinates": [2.391463681055207, 48.97695900061256]}}, {"type": "Feature", "properties": {"start": "La Fayette - Dunkerque", "stop_name": "Gare de Pierrefitte - Stains RER", "type": "Gare accessible", "transport": "transilien", "nombre_trajet_moyen": 0.17, "transport_legende": "\ud83d\udeb2 \u2764\ufe0f Transilien \ud83d\ude86"}, "geometry": {"type": "Point", "coordinates": [2.371039675842873, 48.9634997020243]}}, {"type": "Feature", "properties": {"start": "La Fayette - Dunkerque", "stop_name": "Saint-Denis", "type": "Gare accessible", "transport": "transilien", "nombre_trajet_moyen": 0.37, "transport_legende": "\ud83d\udeb2 \u2764\ufe0f Transilien \ud83d\ude86"}, "geometry": {"type": "Point", "coordinates": [2.345479004987329, 48.93482889939617]}}, {"type": "Feature", "properties": {"start": "La Fayette - Dunkerque", "stop_name": "Stade de France Saint-Denis", "type": "Gare accessible", "transport": "transilien", "nombre_trajet_moyen": 0.17, "transport_legende": "\ud83d\udeb2 \u2764\ufe0f Transilien \ud83d\ude86"}, "geometry": {"type": "Point", "coordinates": [2.3504430479100207, 48.91769737260247]}}, {"type": "Feature", "properties": {"start": "La Fayette - Dunkerque", "stop_name": "Orry-la-Ville - Coye", "type": "Gare accessible", "transport": "transilien", "nombre_trajet_moyen": 0.17, "transport_legende": "\ud83d\udeb2 \u2764\ufe0f Transilien \ud83d\ude86"}, "geometry": {"type": "Point", "coordinates": [2.489862086302069, 49.13840546145438]}}, {"type": "Feature", "properties": {"start": "La Fayette - Dunkerque", "stop_name": "La Borne Blanche", "type": "Gare accessible", "transport": "transilien", "nombre_trajet_moyen": 0.17, "transport_legende": "\ud83d\udeb2 \u2764\ufe0f Transilien \ud83d\ude86"}, "geometry": {"type": "Point", "coordinates": [2.5069908684194053, 49.1261949449139]}}, {"type": "Feature", "properties": {"start": "La Fayette - Dunkerque", "stop_name": "Survilliers - Fosses", "type": "Gare accessible", "transport": "transilien", "nombre_trajet_moyen": 0.17, "transport_legende": "\ud83d\udeb2 \u2764\ufe0f Transilien \ud83d\ude86"}, "geometry": {"type": "Point", "coordinates": [2.525517836696695, 49.09951161811565]}}, {"type": "Feature", "properties": {"start": "La Fayette - Dunkerque", "stop_name": "Louvres", "type": "Gare accessible", "transport": "transilien", "nombre_trajet_moyen": 0.17, "transport_legende": "\ud83d\udeb2 \u2764\ufe0f Transilien \ud83d\ude86"}, "geometry": {"type": "Point", "coordinates": [2.5018113143714777, 49.04933726826723]}}, {"type": "Feature", "properties": {"start": "La Fayette - Dunkerque", "stop_name": "Mairie - Les Noues", "type": "Gare accessible", "transport": "transilien", "nombre_trajet_moyen": 0.17, "transport_legende": "\ud83d\udeb2 \u2764\ufe0f Transilien \ud83d\ude86"}, "geometry": {"type": "Point", "coordinates": [2.4740990471432225, 49.03217505762109]}}, {"type": "Feature", "properties": {"start": "La Fayette - Dunkerque", "stop_name": "Gare de Sarcelles - Saint-Brice", "type": "Gare accessible", "transport": "transilien", "nombre_trajet_moyen": 0.2, "transport_legende": "\ud83d\udeb2 \u2764\ufe0f Transilien \ud83d\ude86"}, "geometry": {"type": "Point", "coordinates": [2.367543052328218, 48.994963994065664]}}, {"type": "Feature", "properties": {"start": "La Fayette - Dunkerque", "stop_name": "Gare de Groslay", "type": "Gare accessible", "transport": "transilien", "nombre_trajet_moyen": 0.2, "transport_legende": "\ud83d\udeb2 \u2764\ufe0f Transilien \ud83d\ude86"}, "geometry": {"type": "Point", "coordinates": [2.3532796000439777, 48.984807481245554]}}, {"type": "Feature", "properties": {"start": "La Fayette - Dunkerque", "stop_name": "Gare de Deuil-Montmagny", "type": "Gare accessible", "transport": "transilien", "nombre_trajet_moyen": 0.2, "transport_legende": "\ud83d\udeb2 \u2764\ufe0f Transilien \ud83d\ude86"}, "geometry": {"type": "Point", "coordinates": [2.338332231680442, 48.97515794987761]}}, {"type": "Feature", "properties": {"start": "La Fayette - Dunkerque", "stop_name": "Gare d'Epinay Villetaneuse", "type": "Gare accessible", "transport": "transilien", "nombre_trajet_moyen": 0.2, "transport_legende": "\ud83d\udeb2 \u2764\ufe0f Transilien \ud83d\ude86"}, "geometry": {"type": "Point", "coordinates": [2.3291286473493003, 48.95794889655021]}}, {"type": "Feature", "properties": {"start": "La Fayette - Dunkerque", "stop_name": "Gare de l'Est", "type": "Gare accessible", "transport": "transilien", "nombre_trajet_moyen": 0.2, "transport_legende": "\ud83d\udeb2 \u2764\ufe0f Transilien \ud83d\ude86"}, "geometry": {"type": "Point", "coordinates": [2.360305141171757, 48.87857171221123]}}, {"type": "Feature", "properties": {"start": "La Fayette - Dunkerque", "stop_name": "Gare d'Ermont-Eaubonne", "type": "Gare accessible", "transport": "transilien", "nombre_trajet_moyen": 0.2, "transport_legende": "\ud83d\udeb2 \u2764\ufe0f Transilien \ud83d\ude86"}, "geometry": {"type": "Point", "coordinates": [2.271203813127117, 48.98009247741121]}}, {"type": "Feature", "properties": {"start": "La Fayette - Dunkerque", "stop_name": "Gare de Champ de Courses d'Enghien", "type": "Gare accessible", "transport": "transilien", "nombre_trajet_moyen": 0.2, "transport_legende": "\ud83d\udeb2 \u2764\ufe0f Transilien \ud83d\ude86"}, "geometry": {"type": "Point", "coordinates": [2.292620278998685, 48.98077821621487]}}, {"type": "Feature", "properties": {"start": "La Fayette - Dunkerque", "stop_name": "Gare d'Enghien-les-Bains", "type": "Gare accessible", "transport": "transilien", "nombre_trajet_moyen": 0.2, "transport_legende": "\ud83d\udeb2 \u2764\ufe0f Transilien \ud83d\ude86"}, "geometry": {"type": "Point", "coordinates": [2.3063894895425485, 48.973457743604655]}}, {"type": "Feature", "properties": {"start": "La Fayette - Dunkerque", "stop_name": "Place de la Barre", "type": "Gare accessible", "transport": "transilien", "nombre_trajet_moyen": 0.2, "transport_legende": "\ud83d\udeb2 \u2764\ufe0f Transilien \ud83d\ude86"}, "geometry": {"type": "Point", "coordinates": [2.316519821303781, 48.967634734431485]}}, {"type": "Feature", "properties": {"start": "La Fayette - Dunkerque", "stop_name": "Creil", "type": "Gare accessible", "transport": "transilien", "nombre_trajet_moyen": 0.13, "transport_legende": "\ud83d\udeb2 \u2764\ufe0f Transilien \ud83d\ude86"}, "geometry": {"type": "Point", "coordinates": [2.46892902764167, 49.264185555044406]}}, {"type": "Feature", "properties": {"start": "La Fayette - Dunkerque", "stop_name": "Gare de Chantilly - Gouvieux", "type": "Gare accessible", "transport": "transilien", "nombre_trajet_moyen": 0.13, "transport_legende": "\ud83d\udeb2 \u2764\ufe0f Transilien \ud83d\ude86"}, "geometry": {"type": "Point", "coordinates": [2.459756982873333, 49.18824481458403]}}, {"type": "Feature", "properties": {"start": "La Fayette - Dunkerque", "stop_name": "Gare de Pontoise", "type": "Gare accessible", "transport": "transilien", "nombre_trajet_moyen": 0.0, "transport_legende": "\ud83d\udeb2 \u2764\ufe0f Transilien \ud83d\ude86"}, "geometry": {"type": "Point", "coordinates": [2.095683907287571, 49.04709679175885]}}, {"type": "Feature", "properties": {"start": "La Fayette - Dunkerque", "stop_name": "Mairie", "type": "Gare accessible", "transport": "transilien", "nombre_trajet_moyen": 0.0, "transport_legende": "\ud83d\udeb2 \u2764\ufe0f Transilien \ud83d\ude86"}, "geometry": {"type": "Point", "coordinates": [1.9751843367210649, 48.978863999006606]}}, {"type": "Feature", "properties": {"start": "La Fayette - Dunkerque", "stop_name": "Gare de Liesse - Quai A", "type": "Gare accessible", "transport": "transilien", "nombre_trajet_moyen": 0.0, "transport_legende": "\ud83d\udeb2 \u2764\ufe0f Transilien \ud83d\ude86"}, "geometry": {"type": "Point", "coordinates": [2.128233741882647, 49.03372321097234]}}, {"type": "Feature", "properties": {"start": "La Fayette - Dunkerque", "stop_name": "Pierrelaye", "type": "Gare accessible", "transport": "transilien", "nombre_trajet_moyen": 0.0, "transport_legende": "\ud83d\udeb2 \u2764\ufe0f Transilien \ud83d\ude86"}, "geometry": {"type": "Point", "coordinates": [2.1545313948758564, 49.01917957374756]}}, {"type": "Feature", "properties": {"start": "La Fayette - Dunkerque", "stop_name": "Montigny - Beauchamp", "type": "Gare accessible", "transport": "transilien", "nombre_trajet_moyen": 0.0, "transport_legende": "\ud83d\udeb2 \u2764\ufe0f Transilien \ud83d\ude86"}, "geometry": {"type": "Point", "coordinates": [2.1965151756043038, 49.007744118117]}}, {"type": "Feature", "properties": {"start": "La Fayette - Dunkerque", "stop_name": "Gare de Franconville", "type": "Gare accessible", "transport": "transilien", "nombre_trajet_moyen": 0.0, "transport_legende": "\ud83d\udeb2 \u2764\ufe0f Transilien \ud83d\ude86"}, "geometry": {"type": "Point", "coordinates": [2.23382802021407, 48.99378904721819]}}, {"type": "Feature", "properties": {"start": "La Fayette - Dunkerque", "stop_name": "Gare de Cernay", "type": "Gare accessible", "transport": "transilien", "nombre_trajet_moyen": 0.0, "transport_legende": "\ud83d\udeb2 \u2764\ufe0f Transilien \ud83d\ude86"}, "geometry": {"type": "Point", "coordinates": [2.2574464900249405, 48.984864092575314]}}, {"type": "Feature", "properties": {"start": "La Fayette - Dunkerque", "stop_name": "Gare de Luzarches", "type": "Gare accessible", "transport": "transilien", "nombre_trajet_moyen": 0.0, "transport_legende": "\ud83d\udeb2 \u2764\ufe0f Transilien \ud83d\ude86"}, "geometry": {"type": "Point", "coordinates": [2.42141855404477, 49.11714634733576]}}, {"type": "Feature", "properties": {"start": "La Fayette - Dunkerque", "stop_name": "Seugy", "type": "Gare accessible", "transport": "transilien", "nombre_trajet_moyen": 0.0, "transport_legende": "\ud83d\udeb2 \u2764\ufe0f Transilien \ud83d\ude86"}, "geometry": {"type": "Point", "coordinates": [2.3996583056293246, 49.11912737513361]}}, {"type": "Feature", "properties": {"start": "La Fayette - Dunkerque", "stop_name": "Viarmes", "type": "Gare accessible", "transport": "transilien", "nombre_trajet_moyen": 0.0, "transport_legende": "\ud83d\udeb2 \u2764\ufe0f Transilien \ud83d\ude86"}, "geometry": {"type": "Point", "coordinates": [2.368237642296928, 49.11663481669089]}}, {"type": "Feature", "properties": {"start": "La Fayette - Dunkerque", "stop_name": "Gare de Belloy Saint-Martin", "type": "Gare accessible", "transport": "transilien", "nombre_trajet_moyen": 0.0, "transport_legende": "\ud83d\udeb2 \u2764\ufe0f Transilien \ud83d\ude86"}, "geometry": {"type": "Point", "coordinates": [2.3623353874209387, 49.0974892125764]}}, {"type": "Feature", "properties": {"start": "La Fayette - Dunkerque", "stop_name": "Villaines", "type": "Gare accessible", "transport": "transilien", "nombre_trajet_moyen": 0.0, "transport_legende": "\ud83d\udeb2 \u2764\ufe0f Transilien \ud83d\ude86"}, "geometry": {"type": "Point", "coordinates": [2.3505357370070645, 49.07926437056656]}}, {"type": "Feature", "properties": {"start": "La Fayette - Dunkerque", "stop_name": "Gare de Montsoult-Maffliers", "type": "Gare accessible", "transport": "transilien", "nombre_trajet_moyen": 0.0, "transport_legende": "\ud83d\udeb2 \u2764\ufe0f Transilien \ud83d\ude86"}, "geometry": {"type": "Point", "coordinates": [2.322266167783659, 49.06641072614977]}}, {"type": "Feature", "properties": {"start": "La Fayette - Dunkerque", "stop_name": "Gare de Bouff\u00e9mont Moisselles", "type": "Gare accessible", "transport": "transilien", "nombre_trajet_moyen": 0.0, "transport_legende": "\ud83d\udeb2 \u2764\ufe0f Transilien \ud83d\ude86"}, "geometry": {"type": "Point", "coordinates": [2.3224358037066253, 49.04503800599372]}}, {"type": "Feature", "properties": {"start": "La Fayette - Dunkerque", "stop_name": "Gare de Domont", "type": "Gare accessible", "transport": "transilien", "nombre_trajet_moyen": 0.0, "transport_legende": "\ud83d\udeb2 \u2764\ufe0f Transilien \ud83d\ude86"}, "geometry": {"type": "Point", "coordinates": [2.337697335290863, 49.03248936145]}}, {"type": "Feature", "properties": {"start": "La Fayette - Dunkerque", "stop_name": "Gare d'Ecouen Ezanville", "type": "Gare accessible", "transport": "transilien", "nombre_trajet_moyen": 0.0, "transport_legende": "\ud83d\udeb2 \u2764\ufe0f Transilien \ud83d\ude86"}, "geometry": {"type": "Point", "coordinates": [2.3634541175784443, 49.023200465529385]}}, {"type": "Feature", "properties": {"start": "La Fayette - Dunkerque", "stop_name": "Gare de Persan Beaumont", "type": "Gare accessible", "transport": "transilien", "nombre_trajet_moyen": 0.0, "transport_legende": "\ud83d\udeb2 \u2764\ufe0f Transilien \ud83d\ude86"}, "geometry": {"type": "Point", "coordinates": [2.279602268870513, 49.14789494833517]}}, {"type": "Feature", "properties": {"start": "La Fayette - Dunkerque", "stop_name": "Nointel - Mours", "type": "Gare accessible", "transport": "transilien", "nombre_trajet_moyen": 0.0, "transport_legende": "\ud83d\udeb2 \u2764\ufe0f Transilien \ud83d\ude86"}, "geometry": {"type": "Point", "coordinates": [2.2799576391232472, 49.13282894869498]}}, {"type": "Feature", "properties": {"start": "La Fayette - Dunkerque", "stop_name": "Presles - Courcelles", "type": "Gare accessible", "transport": "transilien", "nombre_trajet_moyen": 0.0, "transport_legende": "\ud83d\udeb2 \u2764\ufe0f Transilien \ud83d\ude86"}, "geometry": {"type": "Point", "coordinates": [2.2878509419549213, 49.11367528279733]}}, {"type": "Feature", "properties": {"start": "La Fayette - Dunkerque", "stop_name": "Champagne-sur-Oise", "type": "Gare accessible", "transport": "transilien", "nombre_trajet_moyen": 0.0, "transport_legende": "\ud83d\udeb2 \u2764\ufe0f Transilien \ud83d\ude86"}, "geometry": {"type": "Point", "coordinates": [2.242987667830016, 49.136089580289706]}}, {"type": "Feature", "properties": {"start": "La Fayette - Dunkerque", "stop_name": "L'Isle-Adam - Parmain", "type": "Gare accessible", "transport": "transilien", "nombre_trajet_moyen": 0.0, "transport_legende": "\ud83d\udeb2 \u2764\ufe0f Transilien \ud83d\ude86"}, "geometry": {"type": "Point", "coordinates": [2.209941858169547, 49.11454854558362]}}, {"type": "Feature", "properties": {"start": "La Fayette - Dunkerque", "stop_name": "Valmondois", "type": "Gare accessible", "transport": "transilien", "nombre_trajet_moyen": 0.0, "transport_legende": "\ud83d\udeb2 \u2764\ufe0f Transilien \ud83d\ude86"}, "geometry": {"type": "Point", "coordinates": [2.2019152338634327, 49.09093718795672]}}, {"type": "Feature", "properties": {"start": "La Fayette - Dunkerque", "stop_name": "Gare de M\u00e9riel", "type": "Gare accessible", "transport": "transilien", "nombre_trajet_moyen": 0.0, "transport_legende": "\ud83d\udeb2 \u2764\ufe0f Transilien \ud83d\ude86"}, "geometry": {"type": "Point", "coordinates": [2.2051693770939385, 49.07789520680488]}}, {"type": "Feature", "properties": {"start": "La Fayette - Dunkerque", "stop_name": "M\u00e9ry-sur-Oise - Camille Plaquet", "type": "Gare accessible", "transport": "transilien", "nombre_trajet_moyen": 0.0, "transport_legende": "\ud83d\udeb2 \u2764\ufe0f Transilien \ud83d\ude86"}, "geometry": {"type": "Point", "coordinates": [2.1891452410277, 49.058365655967854]}}, {"type": "Feature", "properties": {"start": "La Fayette - Dunkerque", "stop_name": "Fr\u00e9pillon", "type": "Gare accessible", "transport": "transilien", "nombre_trajet_moyen": 0.0, "transport_legende": "\ud83d\udeb2 \u2764\ufe0f Transilien \ud83d\ude86"}, "geometry": {"type": "Point", "coordinates": [2.197098920791642, 49.04527720662213]}}, {"type": "Feature", "properties": {"start": "La Fayette - Dunkerque", "stop_name": "Gare de Bessancourt", "type": "Gare accessible", "transport": "transilien", "nombre_trajet_moyen": 0.0, "transport_legende": "\ud83d\udeb2 \u2764\ufe0f Transilien \ud83d\ude86"}, "geometry": {"type": "Point", "coordinates": [2.209984557576436, 49.035844487983134]}}, {"type": "Feature", "properties": {"start": "La Fayette - Dunkerque", "stop_name": "Gare de Taverny", "type": "Gare accessible", "transport": "transilien", "nombre_trajet_moyen": 0.0, "transport_legende": "\ud83d\udeb2 \u2764\ufe0f Transilien \ud83d\ude86"}, "geometry": {"type": "Point", "coordinates": [2.2211650237278016, 49.025369673120096]}}, {"type": "Feature", "properties": {"start": "La Fayette - Dunkerque", "stop_name": "Vaucelles", "type": "Gare accessible", "transport": "transilien", "nombre_trajet_moyen": 0.0, "transport_legende": "\ud83d\udeb2 \u2764\ufe0f Transilien \ud83d\ude86"}, "geometry": {"type": "Point", "coordinates": [2.2294526219892656, 49.02172683988197]}}, {"type": "Feature", "properties": {"start": "La Fayette - Dunkerque", "stop_name": "Saint-Leu-la-For\u00eat", "type": "Gare accessible", "transport": "transilien", "nombre_trajet_moyen": 0.0, "transport_legende": "\ud83d\udeb2 \u2764\ufe0f Transilien \ud83d\ude86"}, "geometry": {"type": "Point", "coordinates": [2.2428869689226687, 49.01523840177278]}}, {"type": "Feature", "properties": {"start": "La Fayette - Dunkerque", "stop_name": "Place de la Lib\u00e9ration", "type": "Gare accessible", "transport": "transilien", "nombre_trajet_moyen": 0.0, "transport_legende": "\ud83d\udeb2 \u2764\ufe0f Transilien \ud83d\ude86"}, "geometry": {"type": "Point", "coordinates": [2.2590038671297776, 48.99925269998725]}}, {"type": "Feature", "properties": {"start": "La Fayette - Dunkerque", "stop_name": "Gare de Lyon - Diderot", "type": "Gare accessible", "transport": "transilien", "nombre_trajet_moyen": 0.07, "transport_legende": "\ud83d\udeb2 \u2764\ufe0f Transilien \ud83d\ude86"}, "geometry": {"type": "Point", "coordinates": [2.37258891322064, 48.84586459936938]}}]}