{"type": "FeatureCollection", "features": [{"type": "Feature", "properties": {"start": "La Verri\u00e8re", "stop_name": "La Verri\u00e8re", "type": "Gare s\u00e9lectionn\u00e9e", "transport": "transilien", "nombre_trajet_moyen": 1.73, "transport_legende": "\ud83d\udeb2 \u2764\ufe0f Transilien \ud83d\ude86"}, "geometry": {"type": "Point", "coordinates": [1.943057018064192, 48.7551716132828]}}, {"type": "Feature", "properties": {"start": "La Verri\u00e8re", "stop_name": "Gare Montparnasse", "type": "Gare accessible", "transport": "transilien", "nombre_trajet_moyen": 0.7, "transport_legende": "\ud83d\udeb2 \u2764\ufe0f Transilien \ud83d\ude86"}, "geometry": {"type": "Point", "coordinates": [2.316388731382968, 48.83841119933774]}}, {"type": "Feature", "properties": {"start": "La Verri\u00e8re", "stop_name": "Balard", "type": "Gare accessible", "transport": "transilien", "nombre_trajet_moyen": 0.07, "transport_legende": "\ud83d\udeb2 \u2764\ufe0f Transilien \ud83d\ude86"}, "geometry": {"type": "Point", "coordinates": [2.2782359760646758, 48.83573178052293]}}, {"type": "Feature", "properties": {"start": "La Verri\u00e8re", "stop_name": "Marcel Sembat - M\u00e9tro", "type": "Gare accessible", "transport": "transilien", "nombre_trajet_moyen": 0.07, "transport_legende": "\ud83d\udeb2 \u2764\ufe0f Transilien \ud83d\ude86"}, "geometry": {"type": "Point", "coordinates": [2.244187847320653, 48.83397454537853]}}, {"type": "Feature", "properties": {"start": "La Verri\u00e8re", "stop_name": "S\u00e8vres Rive Gauche - Mairie", "type": "Gare accessible", "transport": "transilien", "nombre_trajet_moyen": 0.07, "transport_legende": "\ud83d\udeb2 \u2764\ufe0f Transilien \ud83d\ude86"}, "geometry": {"type": "Point", "coordinates": [2.2138224183609525, 48.8248388947707]}}, {"type": "Feature", "properties": {"start": "La Verri\u00e8re", "stop_name": "H\u00f4pital Jean Rostand", "type": "Gare accessible", "transport": "transilien", "nombre_trajet_moyen": 0.07, "transport_legende": "\ud83d\udeb2 \u2764\ufe0f Transilien \ud83d\ude86"}, "geometry": {"type": "Point", "coordinates": [2.2014170656839664, 48.82069143358524]}}, {"type": "Feature", "properties": {"start": "La Verri\u00e8re", "stop_name": "Atrium", "type": "Gare accessible", "transport": "transilien", "nombre_trajet_moyen": 0.07, "transport_legende": "\ud83d\udeb2 \u2764\ufe0f Transilien \ud83d\ude86"}, "geometry": {"type": "Point", "coordinates": [2.1922693109373785, 48.813686624276045]}}, {"type": "Feature", "properties": {"start": "La Verri\u00e8re", "stop_name": "Mairie", "type": "Gare accessible", "transport": "transilien", "nombre_trajet_moyen": 0.07, "transport_legende": "\ud83d\udeb2 \u2764\ufe0f Transilien \ud83d\ude86"}, "geometry": {"type": "Point", "coordinates": [1.9751843367210649, 48.978863999006606]}}, {"type": "Feature", "properties": {"start": "La Verri\u00e8re", "stop_name": "Gr\u00e2ce de Dieu", "type": "Gare accessible", "transport": "transilien", "nombre_trajet_moyen": 0.07, "transport_legende": "\ud83d\udeb2 \u2764\ufe0f Transilien \ud83d\ude86"}, "geometry": {"type": "Point", "coordinates": [2.1771262527535598, 48.8041575617934]}}, {"type": "Feature", "properties": {"start": "La Verri\u00e8re", "stop_name": "Gabriel P\u00e9ri - Viroflay Rive Gauche", "type": "Gare accessible", "transport": "transilien", "nombre_trajet_moyen": 0.07, "transport_legende": "\ud83d\udeb2 \u2764\ufe0f Transilien \ud83d\ude86"}, "geometry": {"type": "Point", "coordinates": [2.168536429201074, 48.804044155990695]}}, {"type": "Feature", "properties": {"start": "La Verri\u00e8re", "stop_name": "Edouard Branly - Pierre Edouard", "type": "Gare accessible", "transport": "transilien", "nombre_trajet_moyen": 0.07, "transport_legende": "\ud83d\udeb2 \u2764\ufe0f Transilien \ud83d\ude86"}, "geometry": {"type": "Point", "coordinates": [2.161889756593832, 48.8007868259717]}}, {"type": "Feature", "properties": {"start": "La Verri\u00e8re", "stop_name": "Porchefontaine - Octroi", "type": "Gare accessible", "transport": "transilien", "nombre_trajet_moyen": 0.07, "transport_legende": "\ud83d\udeb2 \u2764\ufe0f Transilien \ud83d\ude86"}, "geometry": {"type": "Point", "coordinates": [2.1526191851003227, 48.79819409561523]}}, {"type": "Feature", "properties": {"start": "La Verri\u00e8re", "stop_name": "Versailles Chantiers", "type": "Gare accessible", "transport": "transilien", "nombre_trajet_moyen": 1.4, "transport_legende": "\ud83d\udeb2 \u2764\ufe0f Transilien \ud83d\ude86"}, "geometry": {"type": "Point", "coordinates": [2.1349078603373464, 48.79526039893613]}}, {"type": "Feature", "properties": {"start": "La Verri\u00e8re", "stop_name": "Gare de Versailles Rive Gauche", "type": "Gare accessible", "transport": "transilien", "nombre_trajet_moyen": 0.07, "transport_legende": "\ud83d\udeb2 \u2764\ufe0f Transilien \ud83d\ude86"}, "geometry": {"type": "Point", "coordinates": [2.128164968440732, 48.79998794981192]}}, {"type": "Feature", "properties": {"start": "La Verri\u00e8re", "stop_name": "Les Matelots", "type": "Gare accessible", "transport": "transilien", "nombre_trajet_moyen": 0.07, "transport_legende": "\ud83d\udeb2 \u2764\ufe0f Transilien \ud83d\ude86"}, "geometry": {"type": "Point", "coordinates": [2.1063545455861155, 48.80312775029879]}}, {"type": "Feature", "properties": {"start": "La Verri\u00e8re", "stop_name": "R\u00e9publique - La Poste", "type": "Gare accessible", "transport": "transilien", "nombre_trajet_moyen": 0.4, "transport_legende": "\ud83d\udeb2 \u2764\ufe0f Transilien \ud83d\ude86"}, "geometry": {"type": "Point", "coordinates": [2.067875421584617, 48.7986065618531]}}, {"type": "Feature", "properties": {"start": "La Verri\u00e8re", "stop_name": "Saint-Quentin - Gare Routi\u00e8re des Pr\u00e9s", "type": "Gare accessible", "transport": "transilien", "nombre_trajet_moyen": 0.4, "transport_legende": "\ud83d\udeb2 \u2764\ufe0f Transilien \ud83d\ude86"}, "geometry": {"type": "Point", "coordinates": [2.046693294953489, 48.78805098717245]}}, {"type": "Feature", "properties": {"start": "La Verri\u00e8re", "stop_name": "Groupe Scolaire Pasteur", "type": "Gare accessible", "transport": "transilien", "nombre_trajet_moyen": 0.07, "transport_legende": "\ud83d\udeb2 \u2764\ufe0f Transilien \ud83d\ude86"}, "geometry": {"type": "Point", "coordinates": [2.036496689585416, 48.782959297753294]}}, {"type": "Feature", "properties": {"start": "La Verri\u00e8re", "stop_name": "R\u00e9publique P.V. Couturier - Trappes", "type": "Gare accessible", "transport": "transilien", "nombre_trajet_moyen": 0.07, "transport_legende": "\ud83d\udeb2 \u2764\ufe0f Transilien \ud83d\ude86"}, "geometry": {"type": "Point", "coordinates": [2.0038227488586764, 48.7769798142321]}}, {"type": "Feature", "properties": {"start": "La Verri\u00e8re", "stop_name": "Yves Farge", "type": "Gare accessible", "transport": "transilien", "nombre_trajet_moyen": 0.07, "transport_legende": "\ud83d\udeb2 \u2764\ufe0f Transilien \ud83d\ude86"}, "geometry": {"type": "Point", "coordinates": [1.9944232877270007, 48.77674815914099]}}, {"type": "Feature", "properties": {"start": "La Verri\u00e8re", "stop_name": "Paul Langevin", "type": "Gare accessible", "transport": "transilien", "nombre_trajet_moyen": 0.07, "transport_legende": "\ud83d\udeb2 \u2764\ufe0f Transilien \ud83d\ude86"}, "geometry": {"type": "Point", "coordinates": [1.9904053921286695, 48.77621057529793]}}, {"type": "Feature", "properties": {"start": "La Verri\u00e8re", "stop_name": "Pasteur", "type": "Gare accessible", "transport": "transilien", "nombre_trajet_moyen": 0.07, "transport_legende": "\ud83d\udeb2 \u2764\ufe0f Transilien \ud83d\ude86"}, "geometry": {"type": "Point", "coordinates": [1.9835847879690975, 48.7735443039464]}}, {"type": "Feature", "properties": {"start": "La Verri\u00e8re", "stop_name": "La Passerelle", "type": "Gare accessible", "transport": "transilien", "nombre_trajet_moyen": 0.07, "transport_legende": "\ud83d\udeb2 \u2764\ufe0f Transilien \ud83d\ude86"}, "geometry": {"type": "Point", "coordinates": [1.970478339244414, 48.7708685939122]}}, {"type": "Feature", "properties": {"start": "La Verri\u00e8re", "stop_name": "La Petite Villedieu", "type": "Gare accessible", "transport": "transilien", "nombre_trajet_moyen": 0.07, "transport_legende": "\ud83d\udeb2 \u2764\ufe0f Transilien \ud83d\ude86"}, "geometry": {"type": "Point", "coordinates": [1.961004051244539, 48.76693683586944]}}, {"type": "Feature", "properties": {"start": "La Verri\u00e8re", "stop_name": "Franche-Comt\u00e9 Bourgogne", "type": "Gare accessible", "transport": "transilien", "nombre_trajet_moyen": 0.07, "transport_legende": "\ud83d\udeb2 \u2764\ufe0f Transilien \ud83d\ude86"}, "geometry": {"type": "Point", "coordinates": [1.9509151269093832, 48.76657880746389]}}, {"type": "Feature", "properties": {"start": "La Verri\u00e8re", "stop_name": "Les Pyramides", "type": "Gare accessible", "transport": "transilien", "nombre_trajet_moyen": 0.07, "transport_legende": "\ud83d\udeb2 \u2764\ufe0f Transilien \ud83d\ude86"}, "geometry": {"type": "Point", "coordinates": [1.9477449729021583, 48.763870489819205]}}, {"type": "Feature", "properties": {"start": "La Verri\u00e8re", "stop_name": "R\u00e9publique P.V.Couturier", "type": "Gare accessible", "transport": "transilien", "nombre_trajet_moyen": 0.07, "transport_legende": "\ud83d\udeb2 \u2764\ufe0f Transilien \ud83d\ude86"}, "geometry": {"type": "Point", "coordinates": [2.006272255172858, 48.7777017895576]}}, {"type": "Feature", "properties": {"start": "La Verri\u00e8re", "stop_name": "Saint Cyr", "type": "Gare accessible", "transport": "transilien", "nombre_trajet_moyen": 0.07, "transport_legende": "\ud83d\udeb2 \u2764\ufe0f Transilien \ud83d\ude86"}, "geometry": {"type": "Point", "coordinates": [2.069853262520194, 48.79916162824371]}}, {"type": "Feature", "properties": {"start": "La Verri\u00e8re", "stop_name": "Versailles Ch\u00e2teau Rive Gauche", "type": "Gare accessible", "transport": "transilien", "nombre_trajet_moyen": 0.07, "transport_legende": "\ud83d\udeb2 \u2764\ufe0f Transilien \ud83d\ude86"}, "geometry": {"type": "Point", "coordinates": [2.130150772175517, 48.79991350059487]}}, {"type": "Feature", "properties": {"start": "La Verri\u00e8re", "stop_name": "Viroflay Rive Gauche - Gabriel P\u00e9ri", "type": "Gare accessible", "transport": "transilien", "nombre_trajet_moyen": 0.07, "transport_legende": "\ud83d\udeb2 \u2764\ufe0f Transilien \ud83d\ude86"}, "geometry": {"type": "Point", "coordinates": [2.1693130210664644, 48.80401357883364]}}, {"type": "Feature", "properties": {"start": "La Verri\u00e8re", "stop_name": "Marcel Sembat", "type": "Gare accessible", "transport": "transilien", "nombre_trajet_moyen": 0.07, "transport_legende": "\ud83d\udeb2 \u2764\ufe0f Transilien \ud83d\ude86"}, "geometry": {"type": "Point", "coordinates": [2.2443681964784203, 48.83375083979114]}}, {"type": "Feature", "properties": {"start": "La Verri\u00e8re", "stop_name": "Porte de Versailles", "type": "Gare accessible", "transport": "transilien", "nombre_trajet_moyen": 0.07, "transport_legende": "\ud83d\udeb2 \u2764\ufe0f Transilien \ud83d\ude86"}, "geometry": {"type": "Point", "coordinates": [2.2889541932682653, 48.83301690715141]}}, {"type": "Feature", "properties": {"start": "La Verri\u00e8re", "stop_name": "Trappes", "type": "Gare accessible", "transport": "transilien", "nombre_trajet_moyen": 1.4, "transport_legende": "\ud83d\udeb2 \u2764\ufe0f Transilien \ud83d\ude86"}, "geometry": {"type": "Point", "coordinates": [2.0065902166898377, 48.7747853970692]}}, {"type": "Feature", "properties": {"start": "La Verri\u00e8re", "stop_name": "Saint-Quentin en Yvelines - Montigny-le-Bretonneux", "type": "Gare accessible", "transport": "transilien", "nombre_trajet_moyen": 1.4, "transport_legende": "\ud83d\udeb2 \u2764\ufe0f Transilien \ud83d\ude86"}, "geometry": {"type": "Point", "coordinates": [2.044615988930814, 48.78748491597792]}}, {"type": "Feature", "properties": {"start": "La Verri\u00e8re", "stop_name": "Saint-Cyr", "type": "Gare accessible", "transport": "transilien", "nombre_trajet_moyen": 1.4, "transport_legende": "\ud83d\udeb2 \u2764\ufe0f Transilien \ud83d\ude86"}, "geometry": {"type": "Point", "coordinates": [2.072712440765476, 48.79877460471833]}}, {"type": "Feature", "properties": {"start": "La Verri\u00e8re", "stop_name": "Chaville Rive Droite", "type": "Gare accessible", "transport": "transilien", "nombre_trajet_moyen": 0.83, "transport_legende": "\ud83d\udeb2 \u2764\ufe0f Transilien \ud83d\ude86"}, "geometry": {"type": "Point", "coordinates": [2.1885894806735937, 48.81299614830529]}}, {"type": "Feature", "properties": {"start": "La Verri\u00e8re", "stop_name": "S\u00e8vres - Ville-d'Avray", "type": "Gare accessible", "transport": "transilien", "nombre_trajet_moyen": 0.83, "transport_legende": "\ud83d\udeb2 \u2764\ufe0f Transilien \ud83d\ude86"}, "geometry": {"type": "Point", "coordinates": [2.2007294495659546, 48.827253206930806]}}, {"type": "Feature", "properties": {"start": "La Verri\u00e8re", "stop_name": "Saint-Cloud", "type": "Gare accessible", "transport": "transilien", "nombre_trajet_moyen": 0.83, "transport_legende": "\ud83d\udeb2 \u2764\ufe0f Transilien \ud83d\ude86"}, "geometry": {"type": "Point", "coordinates": [2.2176312182469986, 48.846058536430505]}}, {"type": "Feature", "properties": {"start": "La Verri\u00e8re", "stop_name": "Suresnes Mont Val\u00e9rien", "type": "Gare accessible", "transport": "transilien", "nombre_trajet_moyen": 0.83, "transport_legende": "\ud83d\udeb2 \u2764\ufe0f Transilien \ud83d\ude86"}, "geometry": {"type": "Point", "coordinates": [2.2210567895582143, 48.87168952202666]}}, {"type": "Feature", "properties": {"start": "La Verri\u00e8re", "stop_name": "Puteaux", "type": "Gare accessible", "transport": "transilien", "nombre_trajet_moyen": 0.83, "transport_legende": "\ud83d\udeb2 \u2764\ufe0f Transilien \ud83d\ude86"}, "geometry": {"type": "Point", "coordinates": [2.2336164976472146, 48.8833721630466]}}, {"type": "Feature", "properties": {"start": "La Verri\u00e8re", "stop_name": "La D\u00e9fense", "type": "Gare accessible", "transport": "transilien", "nombre_trajet_moyen": 0.83, "transport_legende": "\ud83d\udeb2 \u2764\ufe0f Transilien \ud83d\ude86"}, "geometry": {"type": "Point", "coordinates": [2.238418596250407, 48.892229801568206]}}, {"type": "Feature", "properties": {"start": "La Verri\u00e8re", "stop_name": "Vanves - Malakoff", "type": "Gare accessible", "transport": "transilien", "nombre_trajet_moyen": 0.7, "transport_legende": "\ud83d\udeb2 \u2764\ufe0f Transilien \ud83d\ude86"}, "geometry": {"type": "Point", "coordinates": [2.2919742374890983, 48.81828945559893]}}, {"type": "Feature", "properties": {"start": "La Verri\u00e8re", "stop_name": "Clamart", "type": "Gare accessible", "transport": "transilien", "nombre_trajet_moyen": 0.7, "transport_legende": "\ud83d\udeb2 \u2764\ufe0f Transilien \ud83d\ude86"}, "geometry": {"type": "Point", "coordinates": [2.274243860950152, 48.81422563914296]}}, {"type": "Feature", "properties": {"start": "La Verri\u00e8re", "stop_name": "Meudon", "type": "Gare accessible", "transport": "transilien", "nombre_trajet_moyen": 0.7, "transport_legende": "\ud83d\udeb2 \u2764\ufe0f Transilien \ud83d\ude86"}, "geometry": {"type": "Point", "coordinates": [2.2428787225795106, 48.81436409632574]}}, {"type": "Feature", "properties": {"start": "La Verri\u00e8re", "stop_name": "Bellevue", "type": "Gare accessible", "transport": "transilien", "nombre_trajet_moyen": 0.7, "transport_legende": "\ud83d\udeb2 \u2764\ufe0f Transilien \ud83d\ude86"}, "geometry": {"type": "Point", "coordinates": [2.229956322216565, 48.81887298138509]}}, {"type": "Feature", "properties": {"start": "La Verri\u00e8re", "stop_name": "S\u00e8vres Rive Gauche", "type": "Gare accessible", "transport": "transilien", "nombre_trajet_moyen": 0.7, "transport_legende": "\ud83d\udeb2 \u2764\ufe0f Transilien \ud83d\ude86"}, "geometry": {"type": "Point", "coordinates": [2.215079572125279, 48.82121360785643]}}, {"type": "Feature", "properties": {"start": "La Verri\u00e8re", "stop_name": "Chaville Rive Gauche", "type": "Gare accessible", "transport": "transilien", "nombre_trajet_moyen": 0.7, "transport_legende": "\ud83d\udeb2 \u2764\ufe0f Transilien \ud83d\ude86"}, "geometry": {"type": "Point", "coordinates": [2.189425762809199, 48.8051904761828]}}, {"type": "Feature", "properties": {"start": "La Verri\u00e8re", "stop_name": "Viroflay Rive Gauche", "type": "Gare accessible", "transport": "transilien", "nombre_trajet_moyen": 0.7, "transport_legende": "\ud83d\udeb2 \u2764\ufe0f Transilien \ud83d\ude86"}, "geometry": {"type": "Point", "coordinates": [2.17158260741522, 48.800665521455045]}}, {"type": "Feature", "properties": {"start": "La Verri\u00e8re", "stop_name": "Gare de Coigni\u00e8res", "type": "Gare accessible", "transport": "transilien", "nombre_trajet_moyen": 0.4, "transport_legende": "\ud83d\udeb2 \u2764\ufe0f Transilien \ud83d\ude86"}, "geometry": {"type": "Point", "coordinates": [1.9211491512273335, 48.74394344932612]}}, {"type": "Feature", "properties": {"start": "La Verri\u00e8re", "stop_name": "Les Essarts-le-Roi", "type": "Gare accessible", "transport": "transilien", "nombre_trajet_moyen": 1.03, "transport_legende": "\ud83d\udeb2 \u2764\ufe0f Transilien \ud83d\ude86"}, "geometry": {"type": "Point", "coordinates": [1.889661391894688, 48.72169335309528]}}, {"type": "Feature", "properties": {"start": "La Verri\u00e8re", "stop_name": "Le Perray", "type": "Gare accessible", "transport": "transilien", "nombre_trajet_moyen": 1.03, "transport_legende": "\ud83d\udeb2 \u2764\ufe0f Transilien \ud83d\ude86"}, "geometry": {"type": "Point", "coordinates": [1.8566531860615936, 48.69336112490438]}}, {"type": "Feature", "properties": {"start": "La Verri\u00e8re", "stop_name": "Gare de Rambouillet - Prud'homme", "type": "Gare accessible", "transport": "transilien", "nombre_trajet_moyen": 0.4, "transport_legende": "\ud83d\udeb2 \u2764\ufe0f Transilien \ud83d\ude86"}, "geometry": {"type": "Point", "coordinates": [1.83095476743366, 48.64341541935165]}}, {"type": "Feature", "properties": {"start": "La Verri\u00e8re", "stop_name": "Coigni\u00e8res", "type": "Gare accessible", "transport": "transilien", "nombre_trajet_moyen": 0.7, "transport_legende": "\ud83d\udeb2 \u2764\ufe0f Transilien \ud83d\ude86"}, "geometry": {"type": "Point", "coordinates": [1.9214184023981653, 48.74374799338111]}}, {"type": "Feature", "properties": {"start": "La Verri\u00e8re", "stop_name": "Rambouillet", "type": "Gare accessible", "transport": "transilien", "nombre_trajet_moyen": 0.7, "transport_legende": "\ud83d\udeb2 \u2764\ufe0f Transilien \ud83d\ude86"}, "geometry": {"type": "Point", "coordinates": [1.832207614506548, 48.6438460126836]}}, {"type": "Feature", "properties": {"start": "La Verri\u00e8re", "stop_name": "R\u00e9publique Gare Saint-Cyr", "type": "Gare accessible", "transport": "transilien", "nombre_trajet_moyen": 0.0, "transport_legende": "\ud83d\udeb2 \u2764\ufe0f Transilien \ud83d\ude86"}, "geometry": {"type": "Point", "coordinates": [2.070472084327202, 48.79958017987412]}}, {"type": "Feature", "properties": {"start": "La Verri\u00e8re", "stop_name": "Gare routi\u00e8re de Versailles Chantiers - Quai I", "type": "Gare accessible", "transport": "transilien", "nombre_trajet_moyen": 0.0, "transport_legende": "\ud83d\udeb2 \u2764\ufe0f Transilien \ud83d\ude86"}, "geometry": {"type": "Point", "coordinates": [2.1333310315245493, 48.795528409527606]}}, {"type": "Feature", "properties": {"start": "La Verri\u00e8re", "stop_name": "Gare de Chaville Rive Gauche", "type": "Gare accessible", "transport": "transilien", "nombre_trajet_moyen": 0.0, "transport_legende": "\ud83d\udeb2 \u2764\ufe0f Transilien \ud83d\ude86"}, "geometry": {"type": "Point", "coordinates": [2.1885378476002337, 48.80493711428725]}}, {"type": "Feature", "properties": {"start": "La Verri\u00e8re", "stop_name": "Gare de S\u00e8vres - Rive Gauche", "type": "Gare accessible", "transport": "transilien", "nombre_trajet_moyen": 0.0, "transport_legende": "\ud83d\udeb2 \u2764\ufe0f Transilien \ud83d\ude86"}, "geometry": {"type": "Point", "coordinates": [2.218729314552705, 48.82098567968587]}}, {"type": "Feature", "properties": {"start": "La Verri\u00e8re", "stop_name": "Gare de Bellevue", "type": "Gare accessible", "transport": "transilien", "nombre_trajet_moyen": 0.0, "transport_legende": "\ud83d\udeb2 \u2764\ufe0f Transilien \ud83d\ude86"}, "geometry": {"type": "Point", "coordinates": [2.229427997723925, 48.81868070498045]}}, {"type": "Feature", "properties": {"start": "La Verri\u00e8re", "stop_name": "Gare de Clamart", "type": "Gare accessible", "transport": "transilien", "nombre_trajet_moyen": 0.0, "transport_legende": "\ud83d\udeb2 \u2764\ufe0f Transilien \ud83d\ude86"}, "geometry": {"type": "Point", "coordinates": [2.2718242035669416, 48.81390981971501]}}, {"type": "Feature", "properties": {"start": "La Verri\u00e8re", "stop_name": "Gare de Vanves - Malakoff", "type": "Gare accessible", "transport": "transilien", "nombre_trajet_moyen": 0.0, "transport_legende": "\ud83d\udeb2 \u2764\ufe0f Transilien \ud83d\ude86"}, "geometry": {"type": "Point", "coordinates": [2.2920212011966, 48.81884285708921]}}, {"type": "Feature", "properties": {"start": "La Verri\u00e8re", "stop_name": "Gare routi\u00e8re de Versailles Chantiers - Quai J", "type": "Gare accessible", "transport": "transilien", "nombre_trajet_moyen": 0.33, "transport_legende": "\ud83d\udeb2 \u2764\ufe0f Transilien \ud83d\ude86"}, "geometry": {"type": "Point", "coordinates": [2.1331690315110152, 48.7954462864825]}}, {"type": "Feature", "properties": {"start": "La Verri\u00e8re", "stop_name": "Trappes Gare", "type": "Gare accessible", "transport": "transilien", "nombre_trajet_moyen": 0.33, "transport_legende": "\ud83d\udeb2 \u2764\ufe0f Transilien \ud83d\ude86"}, "geometry": {"type": "Point", "coordinates": [2.0066491564949382, 48.77506052296785]}}]}