{"type": "FeatureCollection", "features": [{"type": "Feature", "properties": {"start": "Maule", "stop_name": "Maule", "type": "Gare s\u00e9lectionn\u00e9e", "transport": "transilien", "transport_legende": "\ud83d\udeb2 \u2764\ufe0f Transilien \ud83d\ude86"}, "geometry": {"type": "Point", "coordinates": [1.8568974216555527, 48.90932809474093]}}, {"type": "Feature", "properties": {"start": "Maule", "stop_name": "Mantes-la-Jolie", "type": "Gare accessible", "transport": "transilien", "transport_legende": "\ud83d\udeb2 \u2764\ufe0f Transilien \ud83d\ude86"}, "geometry": {"type": "Point", "coordinates": [1.703836824856348, 48.98929502141949]}}, {"type": "Feature", "properties": {"start": "Maule", "stop_name": "\u00c9p\u00f4ne - M\u00e9zi\u00e8res", "type": "Gare accessible", "transport": "transilien", "transport_legende": "\ud83d\udeb2 \u2764\ufe0f Transilien \ud83d\ude86"}, "geometry": {"type": "Point", "coordinates": [1.809133387838305, 48.96340497197892]}}, {"type": "Feature", "properties": {"start": "Maule", "stop_name": "N\u00e9zel - Aulnay", "type": "Gare accessible", "transport": "transilien", "transport_legende": "\ud83d\udeb2 \u2764\ufe0f Transilien \ud83d\ude86"}, "geometry": {"type": "Point", "coordinates": [1.8404153320794885, 48.93882932493657]}}, {"type": "Feature", "properties": {"start": "Maule", "stop_name": "Mareil-sur-Mauldre", "type": "Gare accessible", "transport": "transilien", "transport_legende": "\ud83d\udeb2 \u2764\ufe0f Transilien \ud83d\ude86"}, "geometry": {"type": "Point", "coordinates": [1.8718488171877576, 48.89302020567544]}}, {"type": "Feature", "properties": {"start": "Maule", "stop_name": "Beynes", "type": "Gare accessible", "transport": "transilien", "transport_legende": "\ud83d\udeb2 \u2764\ufe0f Transilien \ud83d\ude86"}, "geometry": {"type": "Point", "coordinates": [1.8755955719389823, 48.860056612665424]}}, {"type": "Feature", "properties": {"start": "Maule", "stop_name": "Plaisir - Grignon", "type": "Gare accessible", "transport": "transilien", "transport_legende": "\ud83d\udeb2 \u2764\ufe0f Transilien \ud83d\ude86"}, "geometry": {"type": "Point", "coordinates": [1.943537514733802, 48.831926089228816]}}, {"type": "Feature", "properties": {"start": "Maule", "stop_name": "Plaisir - Les Clayes", "type": "Gare accessible", "transport": "transilien", "transport_legende": "\ud83d\udeb2 \u2764\ufe0f Transilien \ud83d\ude86"}, "geometry": {"type": "Point", "coordinates": [1.960091444651348, 48.83083896712]}}, {"type": "Feature", "properties": {"start": "Maule", "stop_name": "Villepreux - Les Clayes", "type": "Gare accessible", "transport": "transilien", "transport_legende": "\ud83d\udeb2 \u2764\ufe0f Transilien \ud83d\ude86"}, "geometry": {"type": "Point", "coordinates": [1.992798523459497, 48.82366793006802]}}, {"type": "Feature", "properties": {"start": "Maule", "stop_name": "Fontenay-le-Fleury", "type": "Gare accessible", "transport": "transilien", "transport_legende": "\ud83d\udeb2 \u2764\ufe0f Transilien \ud83d\ude86"}, "geometry": {"type": "Point", "coordinates": [2.0407045118857456, 48.80727344427781]}}, {"type": "Feature", "properties": {"start": "Maule", "stop_name": "Saint-Cyr", "type": "Gare accessible", "transport": "transilien", "transport_legende": "\ud83d\udeb2 \u2764\ufe0f Transilien \ud83d\ude86"}, "geometry": {"type": "Point", "coordinates": [2.072712440765476, 48.79877460471833]}}, {"type": "Feature", "properties": {"start": "Maule", "stop_name": "Versailles Chantiers", "type": "Gare accessible", "transport": "transilien", "transport_legende": "\ud83d\udeb2 \u2764\ufe0f Transilien \ud83d\ude86"}, "geometry": {"type": "Point", "coordinates": [2.1349078603373464, 48.79526039893613]}}, {"type": "Feature", "properties": {"start": "Maule", "stop_name": "Viroflay Rive Gauche", "type": "Gare accessible", "transport": "transilien", "transport_legende": "\ud83d\udeb2 \u2764\ufe0f Transilien \ud83d\ude86"}, "geometry": {"type": "Point", "coordinates": [2.17158260741522, 48.800665521455045]}}, {"type": "Feature", "properties": {"start": "Maule", "stop_name": "Chaville Rive Gauche", "type": "Gare accessible", "transport": "transilien", "transport_legende": "\ud83d\udeb2 \u2764\ufe0f Transilien \ud83d\ude86"}, "geometry": {"type": "Point", "coordinates": [2.189425762809199, 48.8051904761828]}}, {"type": "Feature", "properties": {"start": "Maule", "stop_name": "S\u00e8vres Rive Gauche", "type": "Gare accessible", "transport": "transilien", "transport_legende": "\ud83d\udeb2 \u2764\ufe0f Transilien \ud83d\ude86"}, "geometry": {"type": "Point", "coordinates": [2.215079572125279, 48.82121360785643]}}, {"type": "Feature", "properties": {"start": "Maule", "stop_name": "Bellevue", "type": "Gare accessible", "transport": "transilien", "transport_legende": "\ud83d\udeb2 \u2764\ufe0f Transilien \ud83d\ude86"}, "geometry": {"type": "Point", "coordinates": [2.229956322216565, 48.81887298138509]}}, {"type": "Feature", "properties": {"start": "Maule", "stop_name": "Meudon", "type": "Gare accessible", "transport": "transilien", "transport_legende": "\ud83d\udeb2 \u2764\ufe0f Transilien \ud83d\ude86"}, "geometry": {"type": "Point", "coordinates": [2.2428787225795106, 48.81436409632574]}}, {"type": "Feature", "properties": {"start": "Maule", "stop_name": "Clamart", "type": "Gare accessible", "transport": "transilien", "transport_legende": "\ud83d\udeb2 \u2764\ufe0f Transilien \ud83d\ude86"}, "geometry": {"type": "Point", "coordinates": [2.274243860950152, 48.81422563914296]}}, {"type": "Feature", "properties": {"start": "Maule", "stop_name": "Vanves - Malakoff", "type": "Gare accessible", "transport": "transilien", "transport_legende": "\ud83d\udeb2 \u2764\ufe0f Transilien \ud83d\ude86"}, "geometry": {"type": "Point", "coordinates": [2.2919742374890983, 48.81828945559893]}}, {"type": "Feature", "properties": {"start": "Maule", "stop_name": "Gare Montparnasse", "type": "Gare accessible", "transport": "transilien", "transport_legende": "\ud83d\udeb2 \u2764\ufe0f Transilien \ud83d\ude86"}, "geometry": {"type": "Point", "coordinates": [2.316388731382968, 48.83841119933774]}}]}