{"type": "FeatureCollection", "features": [{"type": "Feature", "properties": {"start": "Noisiel", "stop_name": "Noisiel", "type": "Gare s\u00e9lectionn\u00e9e", "transport": "transilien", "nombre_trajet_moyen": 0.97, "transport_legende": "\ud83d\udeb2 \u2764\ufe0f Transilien \ud83d\ude86"}, "geometry": {"type": "Point", "coordinates": [2.616660606000051, 48.84351408493866]}}, {"type": "Feature", "properties": {"start": "Noisiel", "stop_name": "Gare de Lyon - Van Gogh", "type": "Gare accessible", "transport": "transilien", "nombre_trajet_moyen": 0.07, "transport_legende": "\ud83d\udeb2 \u2764\ufe0f Transilien \ud83d\ude86"}, "geometry": {"type": "Point", "coordinates": [2.37177448281981, 48.84503741254108]}}, {"type": "Feature", "properties": {"start": "Noisiel", "stop_name": "Minist\u00e8re de l'Economie et des Finances", "type": "Gare accessible", "transport": "transilien", "nombre_trajet_moyen": 0.07, "transport_legende": "\ud83d\udeb2 \u2764\ufe0f Transilien \ud83d\ude86"}, "geometry": {"type": "Point", "coordinates": [2.378308023105971, 48.84106039885843]}}, {"type": "Feature", "properties": {"start": "Noisiel", "stop_name": "Terroirs de France", "type": "Gare accessible", "transport": "transilien", "nombre_trajet_moyen": 0.07, "transport_legende": "\ud83d\udeb2 \u2764\ufe0f Transilien \ud83d\ude86"}, "geometry": {"type": "Point", "coordinates": [2.387846261159904, 48.83172922022106]}}, {"type": "Feature", "properties": {"start": "Noisiel", "stop_name": "Parc du Tremblay", "type": "Gare accessible", "transport": "transilien", "nombre_trajet_moyen": 0.07, "transport_legende": "\ud83d\udeb2 \u2764\ufe0f Transilien \ud83d\ude86"}, "geometry": {"type": "Point", "coordinates": [2.4936749557455253, 48.82814095488687]}}, {"type": "Feature", "properties": {"start": "Noisiel", "stop_name": "Fourchette de Bry", "type": "Gare accessible", "transport": "transilien", "nombre_trajet_moyen": 0.07, "transport_legende": "\ud83d\udeb2 \u2764\ufe0f Transilien \ud83d\ude86"}, "geometry": {"type": "Point", "coordinates": [2.507661210788153, 48.82703917371784]}}, {"type": "Feature", "properties": {"start": "Noisiel", "stop_name": "Beaus\u00e9jour", "type": "Gare accessible", "transport": "transilien", "nombre_trajet_moyen": 0.07, "transport_legende": "\ud83d\udeb2 \u2764\ufe0f Transilien \ud83d\ude86"}, "geometry": {"type": "Point", "coordinates": [2.535585078160834, 48.82703395427775]}}, {"type": "Feature", "properties": {"start": "Noisiel", "stop_name": "Villiers-sur-Marne - Le Plessis-Tr\u00e9vise RER", "type": "Gare accessible", "transport": "transilien", "nombre_trajet_moyen": 0.07, "transport_legende": "\ud83d\udeb2 \u2764\ufe0f Transilien \ud83d\ude86"}, "geometry": {"type": "Point", "coordinates": [2.543336800614874, 48.82379013126307]}}, {"type": "Feature", "properties": {"start": "Noisiel", "stop_name": "Georges Dem\u00e9sy", "type": "Gare accessible", "transport": "transilien", "nombre_trajet_moyen": 0.07, "transport_legende": "\ud83d\udeb2 \u2764\ufe0f Transilien \ud83d\ude86"}, "geometry": {"type": "Point", "coordinates": [2.550769107573221, 48.82273005406528]}}, {"type": "Feature", "properties": {"start": "Noisiel", "stop_name": "Avenue de Gaumont", "type": "Gare accessible", "transport": "transilien", "nombre_trajet_moyen": 0.07, "transport_legende": "\ud83d\udeb2 \u2764\ufe0f Transilien \ud83d\ude86"}, "geometry": {"type": "Point", "coordinates": [2.54894920645434, 48.82685127132064]}}, {"type": "Feature", "properties": {"start": "Noisiel", "stop_name": "Friedberg", "type": "Gare accessible", "transport": "transilien", "nombre_trajet_moyen": 0.07, "transport_legende": "\ud83d\udeb2 \u2764\ufe0f Transilien \ud83d\ude86"}, "geometry": {"type": "Point", "coordinates": [2.5398071714555037, 48.83018004388303]}}, {"type": "Feature", "properties": {"start": "Noisiel", "stop_name": "Noisy-le-Grand - Mont d'Est RER", "type": "Gare accessible", "transport": "transilien", "nombre_trajet_moyen": 0.07, "transport_legende": "\ud83d\udeb2 \u2764\ufe0f Transilien \ud83d\ude86"}, "geometry": {"type": "Point", "coordinates": [2.5526435893886528, 48.84078714329361]}}, {"type": "Feature", "properties": {"start": "Noisiel", "stop_name": "Noisy - Champs", "type": "Gare accessible", "transport": "transilien", "nombre_trajet_moyen": 0.97, "transport_legende": "\ud83d\udeb2 \u2764\ufe0f Transilien \ud83d\ude86"}, "geometry": {"type": "Point", "coordinates": [2.580103342831972, 48.84289619599068]}}, {"type": "Feature", "properties": {"start": "Noisiel", "stop_name": "Cours des Lacs", "type": "Gare accessible", "transport": "transilien", "nombre_trajet_moyen": 0.07, "transport_legende": "\ud83d\udeb2 \u2764\ufe0f Transilien \ud83d\ude86"}, "geometry": {"type": "Point", "coordinates": [2.631156654250261, 48.84181043649793]}}, {"type": "Feature", "properties": {"start": "Noisiel", "stop_name": "Coll\u00e8ge Jean Monnet", "type": "Gare accessible", "transport": "transilien", "nombre_trajet_moyen": 0.07, "transport_legende": "\ud83d\udeb2 \u2764\ufe0f Transilien \ud83d\ude86"}, "geometry": {"type": "Point", "coordinates": [2.6476643802143656, 48.842687589055785]}}, {"type": "Feature", "properties": {"start": "Noisiel", "stop_name": "Coll\u00e8ge du Segrais", "type": "Gare accessible", "transport": "transilien", "nombre_trajet_moyen": 0.07, "transport_legende": "\ud83d\udeb2 \u2764\ufe0f Transilien \ud83d\ude86"}, "geometry": {"type": "Point", "coordinates": [2.652523739859694, 48.83524624172546]}}, {"type": "Feature", "properties": {"start": "Noisiel", "stop_name": "Gare de Torcy", "type": "Gare accessible", "transport": "transilien", "nombre_trajet_moyen": 0.07, "transport_legende": "\ud83d\udeb2 \u2764\ufe0f Transilien \ud83d\ude86"}, "geometry": {"type": "Point", "coordinates": [2.6552133301427334, 48.83849166822652]}}, {"type": "Feature", "properties": {"start": "Noisiel", "stop_name": "Eglise - Coll\u00e9gien", "type": "Gare accessible", "transport": "transilien", "nombre_trajet_moyen": 0.07, "transport_legende": "\ud83d\udeb2 \u2764\ufe0f Transilien \ud83d\ude86"}, "geometry": {"type": "Point", "coordinates": [2.6692131511617623, 48.83942155085842]}}, {"type": "Feature", "properties": {"start": "Noisiel", "stop_name": "Gare de Bussy-Saint-Georges", "type": "Gare accessible", "transport": "transilien", "nombre_trajet_moyen": 0.07, "transport_legende": "\ud83d\udeb2 \u2764\ufe0f Transilien \ud83d\ude86"}, "geometry": {"type": "Point", "coordinates": [2.709122128003189, 48.83645849559241]}}, {"type": "Feature", "properties": {"start": "Noisiel", "stop_name": "Gare de Val d'Europe", "type": "Gare accessible", "transport": "transilien", "nombre_trajet_moyen": 0.07, "transport_legende": "\ud83d\udeb2 \u2764\ufe0f Transilien \ud83d\ude86"}, "geometry": {"type": "Point", "coordinates": [2.773713315702853, 48.85496251383204]}}, {"type": "Feature", "properties": {"start": "Noisiel", "stop_name": "Chessy Nord - Quai G", "type": "Gare accessible", "transport": "transilien", "nombre_trajet_moyen": 0.07, "transport_legende": "\ud83d\udeb2 \u2764\ufe0f Transilien \ud83d\ude86"}, "geometry": {"type": "Point", "coordinates": [2.784072573892271, 48.87101651464744]}}, {"type": "Feature", "properties": {"start": "Noisiel", "stop_name": "Marne-la-Vall\u00e9e Chessy", "type": "Gare accessible", "transport": "transilien", "nombre_trajet_moyen": 0.73, "transport_legende": "\ud83d\udeb2 \u2764\ufe0f Transilien \ud83d\ude86"}, "geometry": {"type": "Point", "coordinates": [2.7824826512673546, 48.86979506673141]}}, {"type": "Feature", "properties": {"start": "Noisiel", "stop_name": "Val d'Europe", "type": "Gare accessible", "transport": "transilien", "nombre_trajet_moyen": 0.73, "transport_legende": "\ud83d\udeb2 \u2764\ufe0f Transilien \ud83d\ude86"}, "geometry": {"type": "Point", "coordinates": [2.772426894234028, 48.85484622851565]}}, {"type": "Feature", "properties": {"start": "Noisiel", "stop_name": "Bussy-Saint-Georges", "type": "Gare accessible", "transport": "transilien", "nombre_trajet_moyen": 0.73, "transport_legende": "\ud83d\udeb2 \u2764\ufe0f Transilien \ud83d\ude86"}, "geometry": {"type": "Point", "coordinates": [2.710382839509696, 48.83671337078136]}}, {"type": "Feature", "properties": {"start": "Noisiel", "stop_name": "Torcy", "type": "Gare accessible", "transport": "transilien", "nombre_trajet_moyen": 0.9, "transport_legende": "\ud83d\udeb2 \u2764\ufe0f Transilien \ud83d\ude86"}, "geometry": {"type": "Point", "coordinates": [2.655169106193295, 48.83971015133779]}}, {"type": "Feature", "properties": {"start": "Noisiel", "stop_name": "Lognes", "type": "Gare accessible", "transport": "transilien", "nombre_trajet_moyen": 0.9, "transport_legende": "\ud83d\udeb2 \u2764\ufe0f Transilien \ud83d\ude86"}, "geometry": {"type": "Point", "coordinates": [2.633026934567703, 48.839255049438655]}}, {"type": "Feature", "properties": {"start": "Noisiel", "stop_name": "Noisy-le-Grand - Mont d'Est", "type": "Gare accessible", "transport": "transilien", "nombre_trajet_moyen": 0.9, "transport_legende": "\ud83d\udeb2 \u2764\ufe0f Transilien \ud83d\ude86"}, "geometry": {"type": "Point", "coordinates": [2.550026754158765, 48.84088525041221]}}, {"type": "Feature", "properties": {"start": "Noisiel", "stop_name": "Bry-sur-Marne", "type": "Gare accessible", "transport": "transilien", "nombre_trajet_moyen": 0.9, "transport_legende": "\ud83d\udeb2 \u2764\ufe0f Transilien \ud83d\ude86"}, "geometry": {"type": "Point", "coordinates": [2.525670945020106, 48.84513747628085]}}, {"type": "Feature", "properties": {"start": "Noisiel", "stop_name": "Neuilly-Plaisance", "type": "Gare accessible", "transport": "transilien", "nombre_trajet_moyen": 0.9, "transport_legende": "\ud83d\udeb2 \u2764\ufe0f Transilien \ud83d\ude86"}, "geometry": {"type": "Point", "coordinates": [2.5145898211367705, 48.85252451313788]}}, {"type": "Feature", "properties": {"start": "Noisiel", "stop_name": "Val de Fontenay", "type": "Gare accessible", "transport": "transilien", "nombre_trajet_moyen": 0.9, "transport_legende": "\ud83d\udeb2 \u2764\ufe0f Transilien \ud83d\ude86"}, "geometry": {"type": "Point", "coordinates": [2.4890536307751616, 48.85424654032024]}}, {"type": "Feature", "properties": {"start": "Noisiel", "stop_name": "Vincennes", "type": "Gare accessible", "transport": "transilien", "nombre_trajet_moyen": 0.9, "transport_legende": "\ud83d\udeb2 \u2764\ufe0f Transilien \ud83d\ude86"}, "geometry": {"type": "Point", "coordinates": [2.4325836014183, 48.84734683460296]}}, {"type": "Feature", "properties": {"start": "Noisiel", "stop_name": "Nation", "type": "Gare accessible", "transport": "transilien", "nombre_trajet_moyen": 0.9, "transport_legende": "\ud83d\udeb2 \u2764\ufe0f Transilien \ud83d\ude86"}, "geometry": {"type": "Point", "coordinates": [2.3959444654495297, 48.84823319072756]}}, {"type": "Feature", "properties": {"start": "Noisiel", "stop_name": "Gare de Lyon", "type": "Gare accessible", "transport": "transilien", "nombre_trajet_moyen": 0.9, "transport_legende": "\ud83d\udeb2 \u2764\ufe0f Transilien \ud83d\ude86"}, "geometry": {"type": "Point", "coordinates": [2.376365660931201, 48.84340211646564]}}, {"type": "Feature", "properties": {"start": "Noisiel", "stop_name": "Ch\u00e2telet les Halles", "type": "Gare accessible", "transport": "transilien", "nombre_trajet_moyen": 0.9, "transport_legende": "\ud83d\udeb2 \u2764\ufe0f Transilien \ud83d\ude86"}, "geometry": {"type": "Point", "coordinates": [2.34697651043533, 48.86174503191322]}}, {"type": "Feature", "properties": {"start": "Noisiel", "stop_name": "Auber", "type": "Gare accessible", "transport": "transilien", "nombre_trajet_moyen": 0.9, "transport_legende": "\ud83d\udeb2 \u2764\ufe0f Transilien \ud83d\ude86"}, "geometry": {"type": "Point", "coordinates": [2.3296591495793595, 48.8723488407182]}}, {"type": "Feature", "properties": {"start": "Noisiel", "stop_name": "Charles de Gaulle - Etoile", "type": "Gare accessible", "transport": "transilien", "nombre_trajet_moyen": 0.9, "transport_legende": "\ud83d\udeb2 \u2764\ufe0f Transilien \ud83d\ude86"}, "geometry": {"type": "Point", "coordinates": [2.295231447641207, 48.874172759565376]}}, {"type": "Feature", "properties": {"start": "Noisiel", "stop_name": "La D\u00e9fense", "type": "Gare accessible", "transport": "transilien", "nombre_trajet_moyen": 0.9, "transport_legende": "\ud83d\udeb2 \u2764\ufe0f Transilien \ud83d\ude86"}, "geometry": {"type": "Point", "coordinates": [2.238418596250407, 48.892229801568206]}}, {"type": "Feature", "properties": {"start": "Noisiel", "stop_name": "Nanterre Pr\u00e9fecture", "type": "Gare accessible", "transport": "transilien", "nombre_trajet_moyen": 0.9, "transport_legende": "\ud83d\udeb2 \u2764\ufe0f Transilien \ud83d\ude86"}, "geometry": {"type": "Point", "coordinates": [2.222986242991368, 48.895886773064674]}}, {"type": "Feature", "properties": {"start": "Noisiel", "stop_name": "Nanterre Universit\u00e9", "type": "Gare accessible", "transport": "transilien", "nombre_trajet_moyen": 0.17, "transport_legende": "\ud83d\udeb2 \u2764\ufe0f Transilien \ud83d\ude86"}, "geometry": {"type": "Point", "coordinates": [2.213536495127317, 48.90112974604822]}}, {"type": "Feature", "properties": {"start": "Noisiel", "stop_name": "Nanterre Ville", "type": "Gare accessible", "transport": "transilien", "nombre_trajet_moyen": 0.17, "transport_legende": "\ud83d\udeb2 \u2764\ufe0f Transilien \ud83d\ude86"}, "geometry": {"type": "Point", "coordinates": [2.19511769490499, 48.89501972616058]}}, {"type": "Feature", "properties": {"start": "Noisiel", "stop_name": "Rueil-Malmaison", "type": "Gare accessible", "transport": "transilien", "nombre_trajet_moyen": 0.17, "transport_legende": "\ud83d\udeb2 \u2764\ufe0f Transilien \ud83d\ude86"}, "geometry": {"type": "Point", "coordinates": [2.172366417897185, 48.88767250064626]}}, {"type": "Feature", "properties": {"start": "Noisiel", "stop_name": "Chatou - Croissy", "type": "Gare accessible", "transport": "transilien", "nombre_trajet_moyen": 0.03, "transport_legende": "\ud83d\udeb2 \u2764\ufe0f Transilien \ud83d\ude86"}, "geometry": {"type": "Point", "coordinates": [2.155937662470897, 48.88519702561107]}}, {"type": "Feature", "properties": {"start": "Noisiel", "stop_name": "Le V\u00e9sinet - Centre", "type": "Gare accessible", "transport": "transilien", "nombre_trajet_moyen": 0.03, "transport_legende": "\ud83d\udeb2 \u2764\ufe0f Transilien \ud83d\ude86"}, "geometry": {"type": "Point", "coordinates": [2.1343339900216813, 48.89013759185911]}}, {"type": "Feature", "properties": {"start": "Noisiel", "stop_name": "Le V\u00e9sinet - Le Pecq", "type": "Gare accessible", "transport": "transilien", "nombre_trajet_moyen": 0.03, "transport_legende": "\ud83d\udeb2 \u2764\ufe0f Transilien \ud83d\ude86"}, "geometry": {"type": "Point", "coordinates": [2.122132232303764, 48.89794951079969]}}, {"type": "Feature", "properties": {"start": "Noisiel", "stop_name": "Saint-Germain-en-Laye", "type": "Gare accessible", "transport": "transilien", "nombre_trajet_moyen": 0.03, "transport_legende": "\ud83d\udeb2 \u2764\ufe0f Transilien \ud83d\ude86"}, "geometry": {"type": "Point", "coordinates": [2.095041912326374, 48.898745300550765]}}, {"type": "Feature", "properties": {"start": "Noisiel", "stop_name": "Houilles - Carri\u00e8res-sur-Seine", "type": "Gare accessible", "transport": "transilien", "nombre_trajet_moyen": 0.8, "transport_legende": "\ud83d\udeb2 \u2764\ufe0f Transilien \ud83d\ude86"}, "geometry": {"type": "Point", "coordinates": [2.1851757042018707, 48.92034757911033]}}, {"type": "Feature", "properties": {"start": "Noisiel", "stop_name": "Sartrouville", "type": "Gare accessible", "transport": "transilien", "nombre_trajet_moyen": 0.8, "transport_legende": "\ud83d\udeb2 \u2764\ufe0f Transilien \ud83d\ude86"}, "geometry": {"type": "Point", "coordinates": [2.157220038850732, 48.93769529363442]}}, {"type": "Feature", "properties": {"start": "Noisiel", "stop_name": "Maisons-Laffitte", "type": "Gare accessible", "transport": "transilien", "nombre_trajet_moyen": 0.6, "transport_legende": "\ud83d\udeb2 \u2764\ufe0f Transilien \ud83d\ude86"}, "geometry": {"type": "Point", "coordinates": [2.144672265933885, 48.94574060746957]}}, {"type": "Feature", "properties": {"start": "Noisiel", "stop_name": "Ach\u00e8res Grand Cormier", "type": "Gare accessible", "transport": "transilien", "nombre_trajet_moyen": 0.33, "transport_legende": "\ud83d\udeb2 \u2764\ufe0f Transilien \ud83d\ude86"}, "geometry": {"type": "Point", "coordinates": [2.0936529195192275, 48.95541092942684]}}, {"type": "Feature", "properties": {"start": "Noisiel", "stop_name": "Poissy", "type": "Gare accessible", "transport": "transilien", "nombre_trajet_moyen": 0.33, "transport_legende": "\ud83d\udeb2 \u2764\ufe0f Transilien \ud83d\ude86"}, "geometry": {"type": "Point", "coordinates": [2.040804469960689, 48.93324983956547]}}, {"type": "Feature", "properties": {"start": "Noisiel", "stop_name": "Ach\u00e8res Ville", "type": "Gare accessible", "transport": "transilien", "nombre_trajet_moyen": 0.3, "transport_legende": "\ud83d\udeb2 \u2764\ufe0f Transilien \ud83d\ude86"}, "geometry": {"type": "Point", "coordinates": [2.0777265246565437, 48.97064357081442]}}, {"type": "Feature", "properties": {"start": "Noisiel", "stop_name": "Conflans Fin d'Oise", "type": "Gare accessible", "transport": "transilien", "nombre_trajet_moyen": 0.3, "transport_legende": "\ud83d\udeb2 \u2764\ufe0f Transilien \ud83d\ude86"}, "geometry": {"type": "Point", "coordinates": [2.0746499245710197, 48.99115628725848]}}, {"type": "Feature", "properties": {"start": "Noisiel", "stop_name": "Neuville Universit\u00e9", "type": "Gare accessible", "transport": "transilien", "nombre_trajet_moyen": 0.3, "transport_legende": "\ud83d\udeb2 \u2764\ufe0f Transilien \ud83d\ude86"}, "geometry": {"type": "Point", "coordinates": [2.078348820578231, 49.01374275942672]}}, {"type": "Feature", "properties": {"start": "Noisiel", "stop_name": "Cergy Pr\u00e9fecture", "type": "Gare accessible", "transport": "transilien", "nombre_trajet_moyen": 0.3, "transport_legende": "\ud83d\udeb2 \u2764\ufe0f Transilien \ud83d\ude86"}, "geometry": {"type": "Point", "coordinates": [2.0797809490013077, 49.036306683133965]}}, {"type": "Feature", "properties": {"start": "Noisiel", "stop_name": "Cergy Saint-Christophe", "type": "Gare accessible", "transport": "transilien", "nombre_trajet_moyen": 0.3, "transport_legende": "\ud83d\udeb2 \u2764\ufe0f Transilien \ud83d\ude86"}, "geometry": {"type": "Point", "coordinates": [2.0345219282999176, 49.049642166828754]}}, {"type": "Feature", "properties": {"start": "Noisiel", "stop_name": "Cergy le Haut", "type": "Gare accessible", "transport": "transilien", "nombre_trajet_moyen": 0.3, "transport_legende": "\ud83d\udeb2 \u2764\ufe0f Transilien \ud83d\ude86"}, "geometry": {"type": "Point", "coordinates": [2.011579068023536, 49.04823262405815]}}]}