{"type": "FeatureCollection", "features": [{"type": "Feature", "properties": {"start": "Paris Est", "stop_name": "Paris Est", "type": "Gare s\u00e9lectionn\u00e9e", "transport": "transilien", "transport_legende": "\ud83d\udeb2 \u2764\ufe0f Transilien \ud83d\ude86"}, "geometry": {"type": "Point", "coordinates": [2.3581309888068707, 48.87630724403106]}}, {"type": "Feature", "properties": {"start": "Paris Est", "stop_name": "Roissypole - A\u00e9roport CDG1 (D1)", "type": "Gare accessible", "transport": "transilien", "transport_legende": "\ud83d\udeb2 \u2764\ufe0f Transilien \ud83d\ude86"}, "geometry": {"type": "Point", "coordinates": [2.559766938812183, 49.01044436955056]}}, {"type": "Feature", "properties": {"start": "Paris Est", "stop_name": "Terminal 1", "type": "Gare accessible", "transport": "transilien", "transport_legende": "\ud83d\udeb2 \u2764\ufe0f Transilien \ud83d\ude86"}, "geometry": {"type": "Point", "coordinates": [2.543010054275172, 49.0148957578784]}}, {"type": "Feature", "properties": {"start": "Paris Est", "stop_name": "A\u00e9roport Charles de Gaulle 2 (Terminal 2)", "type": "Gare accessible", "transport": "transilien", "transport_legende": "\ud83d\udeb2 \u2764\ufe0f Transilien \ud83d\ude86"}, "geometry": {"type": "Point", "coordinates": [2.5709800477570237, 49.0041455478504]}}, {"type": "Feature", "properties": {"start": "Paris Est", "stop_name": "Rue des Vignes", "type": "Gare accessible", "transport": "transilien", "transport_legende": "\ud83d\udeb2 \u2764\ufe0f Transilien \ud83d\ude86"}, "geometry": {"type": "Point", "coordinates": [2.548334321254883, 49.00472787970376]}}, {"type": "Feature", "properties": {"start": "Paris Est", "stop_name": "Cargo Centre", "type": "Gare accessible", "transport": "transilien", "transport_legende": "\ud83d\udeb2 \u2764\ufe0f Transilien \ud83d\ude86"}, "geometry": {"type": "Point", "coordinates": [2.526990016633599, 48.99817129747993]}}, {"type": "Feature", "properties": {"start": "Paris Est", "stop_name": "Porte de Paris - Stade de France", "type": "Gare accessible", "transport": "transilien", "transport_legende": "\ud83d\udeb2 \u2764\ufe0f Transilien \ud83d\ude86"}, "geometry": {"type": "Point", "coordinates": [2.356785871248416, 48.92891883598038]}}, {"type": "Feature", "properties": {"start": "Paris Est", "stop_name": "Porte de la Chapelle", "type": "Gare accessible", "transport": "transilien", "transport_legende": "\ud83d\udeb2 \u2764\ufe0f Transilien \ud83d\ude86"}, "geometry": {"type": "Point", "coordinates": [2.3593431306132344, 48.89747487408324]}}, {"type": "Feature", "properties": {"start": "Paris Est", "stop_name": "Gare du Nord", "type": "Gare accessible", "transport": "transilien", "transport_legende": "\ud83d\udeb2 \u2764\ufe0f Transilien \ud83d\ude86"}, "geometry": {"type": "Point", "coordinates": [2.356693437528564, 48.88230685842714]}}, {"type": "Feature", "properties": {"start": "Paris Est", "stop_name": "R\u00e9publique", "type": "Gare accessible", "transport": "transilien", "transport_legende": "\ud83d\udeb2 \u2764\ufe0f Transilien \ud83d\ude86"}, "geometry": {"type": "Point", "coordinates": [2.3640954245236863, 48.867984231430654]}}, {"type": "Feature", "properties": {"start": "Paris Est", "stop_name": "Porte de Bagnolet", "type": "Gare accessible", "transport": "transilien", "transport_legende": "\ud83d\udeb2 \u2764\ufe0f Transilien \ud83d\ude86"}, "geometry": {"type": "Point", "coordinates": [2.4093912000089928, 48.86474486941569]}}, {"type": "Feature", "properties": {"start": "Paris Est", "stop_name": "Rosny Bois Perrier", "type": "Gare accessible", "transport": "transilien", "transport_legende": "\ud83d\udeb2 \u2764\ufe0f Transilien \ud83d\ude86"}, "geometry": {"type": "Point", "coordinates": [2.481186396267677, 48.88258632328664]}}, {"type": "Feature", "properties": {"start": "Paris Est", "stop_name": "Rosny-sous-Bois RER", "type": "Gare accessible", "transport": "transilien", "transport_legende": "\ud83d\udeb2 \u2764\ufe0f Transilien \ud83d\ude86"}, "geometry": {"type": "Point", "coordinates": [2.4847823175494925, 48.87063304208132]}}, {"type": "Feature", "properties": {"start": "Paris Est", "stop_name": "Gare de Val de Fontenay", "type": "Gare accessible", "transport": "transilien", "transport_legende": "\ud83d\udeb2 \u2764\ufe0f Transilien \ud83d\ude86"}, "geometry": {"type": "Point", "coordinates": [2.487608503996338, 48.85357578839782]}}, {"type": "Feature", "properties": {"start": "Paris Est", "stop_name": "Nogent - Le Perreux", "type": "Gare accessible", "transport": "transilien", "transport_legende": "\ud83d\udeb2 \u2764\ufe0f Transilien \ud83d\ude86"}, "geometry": {"type": "Point", "coordinates": [2.4939549579206104, 48.839991175687295]}}, {"type": "Feature", "properties": {"start": "Paris Est", "stop_name": "Gare de Pontault (Place Beilstein)", "type": "Gare accessible", "transport": "transilien", "transport_legende": "\ud83d\udeb2 \u2764\ufe0f Transilien \ud83d\ude86"}, "geometry": {"type": "Point", "coordinates": [2.621928854654649, 48.80473707130544]}}, {"type": "Feature", "properties": {"start": "Paris Est", "stop_name": "Gare de Roissy-en-Brie", "type": "Gare accessible", "transport": "transilien", "transport_legende": "\ud83d\udeb2 \u2764\ufe0f Transilien \ud83d\ude86"}, "geometry": {"type": "Point", "coordinates": [2.6496740919081923, 48.795054387801486]}}, {"type": "Feature", "properties": {"start": "Paris Est", "stop_name": "Aristide Briand - Ozoir-la-Ferri\u00e8re", "type": "Gare accessible", "transport": "transilien", "transport_legende": "\ud83d\udeb2 \u2764\ufe0f Transilien \ud83d\ude86"}, "geometry": {"type": "Point", "coordinates": [2.67348814695307, 48.76814016405115]}}, {"type": "Feature", "properties": {"start": "Paris Est", "stop_name": "Ozoir-la-Ferri\u00e8re Armainvilliers", "type": "Gare accessible", "transport": "transilien", "transport_legende": "\ud83d\udeb2 \u2764\ufe0f Transilien \ud83d\ude86"}, "geometry": {"type": "Point", "coordinates": [2.6990351724026933, 48.75717159747475]}}, {"type": "Feature", "properties": {"start": "Paris Est", "stop_name": "Gretz-Armainvilliers", "type": "Gare accessible", "transport": "transilien", "transport_legende": "\ud83d\udeb2 \u2764\ufe0f Transilien \ud83d\ude86"}, "geometry": {"type": "Point", "coordinates": [2.727167738339898, 48.74645539980236]}}, {"type": "Feature", "properties": {"start": "Paris Est", "stop_name": "Gare de Tournan-en-Brie (C\u00f4t\u00e9 guichet)", "type": "Gare accessible", "transport": "transilien", "transport_legende": "\ud83d\udeb2 \u2764\ufe0f Transilien \ud83d\ude86"}, "geometry": {"type": "Point", "coordinates": [2.759635677423223, 48.73960853322187]}}, {"type": "Feature", "properties": {"start": "Paris Est", "stop_name": "Chelles - Gournay", "type": "Gare accessible", "transport": "transilien", "transport_legende": "\ud83d\udeb2 \u2764\ufe0f Transilien \ud83d\ude86"}, "geometry": {"type": "Point", "coordinates": [2.5833806594500697, 48.87411948897062]}}, {"type": "Feature", "properties": {"start": "Paris Est", "stop_name": "Le Ch\u00e9nay Gagny", "type": "Gare accessible", "transport": "transilien", "transport_legende": "\ud83d\udeb2 \u2764\ufe0f Transilien \ud83d\ude86"}, "geometry": {"type": "Point", "coordinates": [2.5527724908646303, 48.8771591253828]}}, {"type": "Feature", "properties": {"start": "Paris Est", "stop_name": "Gagny", "type": "Gare accessible", "transport": "transilien", "transport_legende": "\ud83d\udeb2 \u2764\ufe0f Transilien \ud83d\ude86"}, "geometry": {"type": "Point", "coordinates": [2.5254046016945138, 48.883728731604535]}}, {"type": "Feature", "properties": {"start": "Paris Est", "stop_name": "Le Raincy - Villemomble - Montfermeil", "type": "Gare accessible", "transport": "transilien", "transport_legende": "\ud83d\udeb2 \u2764\ufe0f Transilien \ud83d\ude86"}, "geometry": {"type": "Point", "coordinates": [2.513061005684412, 48.8888544132907]}}, {"type": "Feature", "properties": {"start": "Paris Est", "stop_name": "Varsovie", "type": "Gare accessible", "transport": "transilien", "transport_legende": "\ud83d\udeb2 \u2764\ufe0f Transilien \ud83d\ude86"}, "geometry": {"type": "Point", "coordinates": [2.4798217615310003, 48.89366114949435]}}, {"type": "Feature", "properties": {"start": "Paris Est", "stop_name": "Noisy-le-Sec", "type": "Gare accessible", "transport": "transilien", "transport_legende": "\ud83d\udeb2 \u2764\ufe0f Transilien \ud83d\ude86"}, "geometry": {"type": "Point", "coordinates": [2.45919809568668, 48.8966634168645]}}, {"type": "Feature", "properties": {"start": "Paris Est", "stop_name": "Pantin RER - Mairie", "type": "Gare accessible", "transport": "transilien", "transport_legende": "\ud83d\udeb2 \u2764\ufe0f Transilien \ud83d\ude86"}, "geometry": {"type": "Point", "coordinates": [2.400844948468256, 48.89669145783791]}}, {"type": "Feature", "properties": {"start": "Paris Est", "stop_name": "Rosa Parks", "type": "Gare accessible", "transport": "transilien", "transport_legende": "\ud83d\udeb2 \u2764\ufe0f Transilien \ud83d\ude86"}, "geometry": {"type": "Point", "coordinates": [2.3737182728654678, 48.89645824176388]}}, {"type": "Feature", "properties": {"start": "Paris Est", "stop_name": "Chelles - Gournay RER", "type": "Gare accessible", "transport": "transilien", "transport_legende": "\ud83d\udeb2 \u2764\ufe0f Transilien \ud83d\ude86"}, "geometry": {"type": "Point", "coordinates": [2.582934842562988, 48.87445967778249]}}, {"type": "Feature", "properties": {"start": "Paris Est", "stop_name": "Gare de Vaires Torcy", "type": "Gare accessible", "transport": "transilien", "transport_legende": "\ud83d\udeb2 \u2764\ufe0f Transilien \ud83d\ude86"}, "geometry": {"type": "Point", "coordinates": [2.6385363709236582, 48.87594449075985]}}, {"type": "Feature", "properties": {"start": "Paris Est", "stop_name": "Lagny - Thorigny", "type": "Gare accessible", "transport": "transilien", "transport_legende": "\ud83d\udeb2 \u2764\ufe0f Transilien \ud83d\ude86"}, "geometry": {"type": "Point", "coordinates": [2.7059554888008988, 48.8821904179895]}}, {"type": "Feature", "properties": {"start": "Paris Est", "stop_name": "Gare d'Esbly - Quai B", "type": "Gare accessible", "transport": "transilien", "transport_legende": "\ud83d\udeb2 \u2764\ufe0f Transilien \ud83d\ude86"}, "geometry": {"type": "Point", "coordinates": [2.8120925358957964, 48.90369032591517]}}, {"type": "Feature", "properties": {"start": "Paris Est", "stop_name": "Gare de Meaux (Quai H)", "type": "Gare accessible", "transport": "transilien", "transport_legende": "\ud83d\udeb2 \u2764\ufe0f Transilien \ud83d\ude86"}, "geometry": {"type": "Point", "coordinates": [2.8737732896685078, 48.95629708945202]}}, {"type": "Feature", "properties": {"start": "Paris Est", "stop_name": "Gare de Meaux (Quai F)", "type": "Gare accessible", "transport": "transilien", "transport_legende": "\ud83d\udeb2 \u2764\ufe0f Transilien \ud83d\ude86"}, "geometry": {"type": "Point", "coordinates": [2.873841237243517, 48.95643204693765]}}, {"type": "Feature", "properties": {"start": "Paris Est", "stop_name": "Marguilliers", "type": "Gare accessible", "transport": "transilien", "transport_legende": "\ud83d\udeb2 \u2764\ufe0f Transilien \ud83d\ude86"}, "geometry": {"type": "Point", "coordinates": [2.5235921546253826, 48.99464190126679]}}, {"type": "Feature", "properties": {"start": "Paris Est", "stop_name": "Foyer des Bruy\u00e8res", "type": "Gare accessible", "transport": "transilien", "transport_legende": "\ud83d\udeb2 \u2764\ufe0f Transilien \ud83d\ude86"}, "geometry": {"type": "Point", "coordinates": [2.555805024768987, 48.98141195985269]}}, {"type": "Feature", "properties": {"start": "Paris Est", "stop_name": "Espace V", "type": "Gare accessible", "transport": "transilien", "transport_legende": "\ud83d\udeb2 \u2764\ufe0f Transilien \ud83d\ude86"}, "geometry": {"type": "Point", "coordinates": [2.552573147362702, 48.96008793714663]}}, {"type": "Feature", "properties": {"start": "Paris Est", "stop_name": "Le Clos Montceleux", "type": "Gare accessible", "transport": "transilien", "transport_legende": "\ud83d\udeb2 \u2764\ufe0f Transilien \ud83d\ude86"}, "geometry": {"type": "Point", "coordinates": [2.535390864969876, 48.954285356428805]}}, {"type": "Feature", "properties": {"start": "Paris Est", "stop_name": "Luther King", "type": "Gare accessible", "transport": "transilien", "transport_legende": "\ud83d\udeb2 \u2764\ufe0f Transilien \ud83d\ude86"}, "geometry": {"type": "Point", "coordinates": [2.5317855390890385, 48.94827327560706]}}, {"type": "Feature", "properties": {"start": "Paris Est", "stop_name": "Gare de Sevran-Livry Sud", "type": "Gare accessible", "transport": "transilien", "transport_legende": "\ud83d\udeb2 \u2764\ufe0f Transilien \ud83d\ude86"}, "geometry": {"type": "Point", "coordinates": [2.5348307222462583, 48.93600115405399]}}, {"type": "Feature", "properties": {"start": "Paris Est", "stop_name": "Aulnay-sous-Bois", "type": "Gare accessible", "transport": "transilien", "transport_legende": "\ud83d\udeb2 \u2764\ufe0f Transilien \ud83d\ude86"}, "geometry": {"type": "Point", "coordinates": [2.495597257086315, 48.932150935734064]}}, {"type": "Feature", "properties": {"start": "Paris Est", "stop_name": "Rond-point Pierre S\u00e9mard - P. Vaillant Couturier", "type": "Gare accessible", "transport": "transilien", "transport_legende": "\ud83d\udeb2 \u2764\ufe0f Transilien \ud83d\ude86"}, "geometry": {"type": "Point", "coordinates": [2.4787568655887244, 48.92918769027808]}}, {"type": "Feature", "properties": {"start": "Paris Est", "stop_name": "Place du 19 Mars 1962", "type": "Gare accessible", "transport": "transilien", "transport_legende": "\ud83d\udeb2 \u2764\ufe0f Transilien \ud83d\ude86"}, "geometry": {"type": "Point", "coordinates": [2.451809476365077, 48.9199531776217]}}, {"type": "Feature", "properties": {"start": "Paris Est", "stop_name": "Escadrille Normandie-Niemen - Jean Jaur\u00e8s Tram", "type": "Gare accessible", "transport": "transilien", "transport_legende": "\ud83d\udeb2 \u2764\ufe0f Transilien \ud83d\ude86"}, "geometry": {"type": "Point", "coordinates": [2.43559456928881, 48.91219341446422]}}, {"type": "Feature", "properties": {"start": "Paris Est", "stop_name": "Porte de la Villette", "type": "Gare accessible", "transport": "transilien", "transport_legende": "\ud83d\udeb2 \u2764\ufe0f Transilien \ud83d\ude86"}, "geometry": {"type": "Point", "coordinates": [2.387836994660735, 48.89748002146782]}}, {"type": "Feature", "properties": {"start": "Paris Est", "stop_name": "La Fayette - Dunkerque", "type": "Gare accessible", "transport": "transilien", "transport_legende": "\ud83d\udeb2 \u2764\ufe0f Transilien \ud83d\ude86"}, "geometry": {"type": "Point", "coordinates": [2.355748307343345, 48.879343185478696]}}, {"type": "Feature", "properties": {"start": "Paris Est", "stop_name": "Gare d'Aulnay-sous-Bois", "type": "Gare accessible", "transport": "transilien", "transport_legende": "\ud83d\udeb2 \u2764\ufe0f Transilien \ud83d\ude86"}, "geometry": {"type": "Point", "coordinates": [2.495812101448462, 48.93251604699481]}}, {"type": "Feature", "properties": {"start": "Paris Est", "stop_name": "Gare de Blanc-Mesnil", "type": "Gare accessible", "transport": "transilien", "transport_legende": "\ud83d\udeb2 \u2764\ufe0f Transilien \ud83d\ude86"}, "geometry": {"type": "Point", "coordinates": [2.477589444977636, 48.93263584051894]}}, {"type": "Feature", "properties": {"start": "Paris Est", "stop_name": "Gare de Drancy", "type": "Gare accessible", "transport": "transilien", "transport_legende": "\ud83d\udeb2 \u2764\ufe0f Transilien \ud83d\ude86"}, "geometry": {"type": "Point", "coordinates": [2.4554184360400626, 48.93310369201526]}}, {"type": "Feature", "properties": {"start": "Paris Est", "stop_name": "Le Bourget RER", "type": "Gare accessible", "transport": "transilien", "transport_legende": "\ud83d\udeb2 \u2764\ufe0f Transilien \ud83d\ude86"}, "geometry": {"type": "Point", "coordinates": [2.426654487193998, 48.931081043589145]}}, {"type": "Feature", "properties": {"start": "Paris Est", "stop_name": "La Courneuve - Aubervilliers RER", "type": "Gare accessible", "transport": "transilien", "transport_legende": "\ud83d\udeb2 \u2764\ufe0f Transilien \ud83d\ude86"}, "geometry": {"type": "Point", "coordinates": [2.3840917263677417, 48.92351366123533]}}, {"type": "Feature", "properties": {"start": "Paris Est", "stop_name": "La Plaine Stade de France", "type": "Gare accessible", "transport": "transilien", "transport_legende": "\ud83d\udeb2 \u2764\ufe0f Transilien \ud83d\ude86"}, "geometry": {"type": "Point", "coordinates": [2.362459916604931, 48.918076675621]}}, {"type": "Feature", "properties": {"start": "Paris Est", "stop_name": "Stade de France Saint-Denis", "type": "Gare accessible", "transport": "transilien", "transport_legende": "\ud83d\udeb2 \u2764\ufe0f Transilien \ud83d\ude86"}, "geometry": {"type": "Point", "coordinates": [2.3504430479100207, 48.91769737260247]}}, {"type": "Feature", "properties": {"start": "Paris Est", "stop_name": "Roissypole - A\u00e9roport CDG1 (B3)", "type": "Gare accessible", "transport": "transilien", "transport_legende": "\ud83d\udeb2 \u2764\ufe0f Transilien \ud83d\ude86"}, "geometry": {"type": "Point", "coordinates": [2.559372520906649, 49.010209128528416]}}, {"type": "Feature", "properties": {"start": "Paris Est", "stop_name": "Parc des Expositions", "type": "Gare accessible", "transport": "transilien", "transport_legende": "\ud83d\udeb2 \u2764\ufe0f Transilien \ud83d\ude86"}, "geometry": {"type": "Point", "coordinates": [2.5145512908225958, 48.97356812654279]}}, {"type": "Feature", "properties": {"start": "Paris Est", "stop_name": "Villepinte", "type": "Gare accessible", "transport": "transilien", "transport_legende": "\ud83d\udeb2 \u2764\ufe0f Transilien \ud83d\ude86"}, "geometry": {"type": "Point", "coordinates": [2.512783848981341, 48.96256540760733]}}, {"type": "Feature", "properties": {"start": "Paris Est", "stop_name": "Sevran Beaudottes", "type": "Gare accessible", "transport": "transilien", "transport_legende": "\ud83d\udeb2 \u2764\ufe0f Transilien \ud83d\ude86"}, "geometry": {"type": "Point", "coordinates": [2.5247262164471342, 48.94700236504643]}}, {"type": "Feature", "properties": {"start": "Paris Est", "stop_name": "Mitry - Claye", "type": "Gare accessible", "transport": "transilien", "transport_legende": "\ud83d\udeb2 \u2764\ufe0f Transilien \ud83d\ude86"}, "geometry": {"type": "Point", "coordinates": [2.6422341369736606, 48.9757479508066]}}, {"type": "Feature", "properties": {"start": "Paris Est", "stop_name": "Villeparisis - Mitry-le-Neuf", "type": "Gare accessible", "transport": "transilien", "transport_legende": "\ud83d\udeb2 \u2764\ufe0f Transilien \ud83d\ude86"}, "geometry": {"type": "Point", "coordinates": [2.603220561532749, 48.95316214687084]}}, {"type": "Feature", "properties": {"start": "Paris Est", "stop_name": "Vert Galant", "type": "Gare accessible", "transport": "transilien", "transport_legende": "\ud83d\udeb2 \u2764\ufe0f Transilien \ud83d\ude86"}, "geometry": {"type": "Point", "coordinates": [2.5663968806983126, 48.944091645418105]}}, {"type": "Feature", "properties": {"start": "Paris Est", "stop_name": "Gare de Coulommiers", "type": "Gare accessible", "transport": "transilien", "transport_legende": "\ud83d\udeb2 \u2764\ufe0f Transilien \ud83d\ude86"}, "geometry": {"type": "Point", "coordinates": [3.082363808793076, 48.80779779330968]}}, {"type": "Feature", "properties": {"start": "Paris Est", "stop_name": "Mouroux", "type": "Gare accessible", "transport": "transilien", "transport_legende": "\ud83d\udeb2 \u2764\ufe0f Transilien \ud83d\ude86"}, "geometry": {"type": "Point", "coordinates": [3.0430626039871616, 48.813701725231546]}}, {"type": "Feature", "properties": {"start": "Paris Est", "stop_name": "Gare SNCF", "type": "Gare accessible", "transport": "transilien", "transport_legende": "\ud83d\udeb2 \u2764\ufe0f Transilien \ud83d\ude86"}, "geometry": {"type": "Point", "coordinates": [2.386519727869182, 48.37020275020897]}}, {"type": "Feature", "properties": {"start": "Paris Est", "stop_name": "Bellevue", "type": "Gare accessible", "transport": "transilien", "transport_legende": "\ud83d\udeb2 \u2764\ufe0f Transilien \ud83d\ude86"}, "geometry": {"type": "Point", "coordinates": [2.229956322216565, 48.81887298138509]}}, {"type": "Feature", "properties": {"start": "Paris Est", "stop_name": "Mortcerf", "type": "Gare accessible", "transport": "transilien", "transport_legende": "\ud83d\udeb2 \u2764\ufe0f Transilien \ud83d\ude86"}, "geometry": {"type": "Point", "coordinates": [2.9074760676708205, 48.789592035371314]}}, {"type": "Feature", "properties": {"start": "Paris Est", "stop_name": "Marles-en-Brie", "type": "Gare accessible", "transport": "transilien", "transport_legende": "\ud83d\udeb2 \u2764\ufe0f Transilien \ud83d\ude86"}, "geometry": {"type": "Point", "coordinates": [2.868811725090548, 48.73481854687385]}}, {"type": "Feature", "properties": {"start": "Paris Est", "stop_name": "Tournan", "type": "Gare accessible", "transport": "transilien", "transport_legende": "\ud83d\udeb2 \u2764\ufe0f Transilien \ud83d\ude86"}, "geometry": {"type": "Point", "coordinates": [2.758901334165272, 48.739445157221006]}}, {"type": "Feature", "properties": {"start": "Paris Est", "stop_name": "Gare de Marles", "type": "Gare accessible", "transport": "transilien", "transport_legende": "\ud83d\udeb2 \u2764\ufe0f Transilien \ud83d\ude86"}, "geometry": {"type": "Point", "coordinates": [2.867770442455857, 48.73400301814706]}}, {"type": "Feature", "properties": {"start": "Paris Est", "stop_name": "Gare de Meaux (Quai D)", "type": "Gare accessible", "transport": "transilien", "transport_legende": "\ud83d\udeb2 \u2764\ufe0f Transilien \ud83d\ude86"}, "geometry": {"type": "Point", "coordinates": [2.8738272331374546, 48.95657591055679]}}, {"type": "Feature", "properties": {"start": "Paris Est", "stop_name": "Saint Fiacre", "type": "Gare accessible", "transport": "transilien", "transport_legende": "\ud83d\udeb2 \u2764\ufe0f Transilien \ud83d\ude86"}, "geometry": {"type": "Point", "coordinates": [2.950525709303532, 48.95870033439456]}}, {"type": "Feature", "properties": {"start": "Paris Est", "stop_name": "Gare de La Fert\u00e9-sous-Jouarre (Quai A)", "type": "Gare accessible", "transport": "transilien", "transport_legende": "\ud83d\udeb2 \u2764\ufe0f Transilien \ud83d\ude86"}, "geometry": {"type": "Point", "coordinates": [3.125079591534901, 48.95057911076801]}}, {"type": "Feature", "properties": {"start": "Paris Est", "stop_name": "Ch\u00e2teau-Thierry", "type": "Gare accessible", "transport": "transilien", "transport_legende": "\ud83d\udeb2 \u2764\ufe0f Transilien \ud83d\ude86"}, "geometry": {"type": "Point", "coordinates": [3.409522741444065, 49.03793350543396]}}, {"type": "Feature", "properties": {"start": "Paris Est", "stop_name": "Esbly", "type": "Gare accessible", "transport": "transilien", "transport_legende": "\ud83d\udeb2 \u2764\ufe0f Transilien \ud83d\ude86"}, "geometry": {"type": "Point", "coordinates": [2.809640025507793, 48.902895083058525]}}, {"type": "Feature", "properties": {"start": "Paris Est", "stop_name": "Vaires - Torcy", "type": "Gare accessible", "transport": "transilien", "transport_legende": "\ud83d\udeb2 \u2764\ufe0f Transilien \ud83d\ude86"}, "geometry": {"type": "Point", "coordinates": [2.637705554664271, 48.87517306494243]}}, {"type": "Feature", "properties": {"start": "Paris Est", "stop_name": "Chelles Gournay RER - Gasnier Guy", "type": "Gare accessible", "transport": "transilien", "transport_legende": "\ud83d\udeb2 \u2764\ufe0f Transilien \ud83d\ude86"}, "geometry": {"type": "Point", "coordinates": [2.581869565354592, 48.87468978445968]}}, {"type": "Feature", "properties": {"start": "Paris Est", "stop_name": "Gare de Tournan en Brie", "type": "Gare accessible", "transport": "transilien", "transport_legende": "\ud83d\udeb2 \u2764\ufe0f Transilien \ud83d\ude86"}, "geometry": {"type": "Point", "coordinates": [2.7594859723094656, 48.73963521425146]}}, {"type": "Feature", "properties": {"start": "Paris Est", "stop_name": "Gretz-Armainvilliers No", "type": "Gare accessible", "transport": "transilien", "transport_legende": "\ud83d\udeb2 \u2764\ufe0f Transilien \ud83d\ude86"}, "geometry": {"type": "Point", "coordinates": [2.729226799413152, 48.74540763317865]}}, {"type": "Feature", "properties": {"start": "Paris Est", "stop_name": "Gare d'Ozoir 200", "type": "Gare accessible", "transport": "transilien", "transport_legende": "\ud83d\udeb2 \u2764\ufe0f Transilien \ud83d\ude86"}, "geometry": {"type": "Point", "coordinates": [2.69026727348862, 48.769911693467606]}}, {"type": "Feature", "properties": {"start": "Paris Est", "stop_name": "Roissy-en-Brie", "type": "Gare accessible", "transport": "transilien", "transport_legende": "\ud83d\udeb2 \u2764\ufe0f Transilien \ud83d\ude86"}, "geometry": {"type": "Point", "coordinates": [2.650530702348584, 48.79563367624288]}}, {"type": "Feature", "properties": {"start": "Paris Est", "stop_name": "Les Yvris Noisy-le-Grand", "type": "Gare accessible", "transport": "transilien", "transport_legende": "\ud83d\udeb2 \u2764\ufe0f Transilien \ud83d\ude86"}, "geometry": {"type": "Point", "coordinates": [2.579980456371948, 48.82311348135466]}}, {"type": "Feature", "properties": {"start": "Paris Est", "stop_name": "Villiers-sur-Marne - Le Plessis-Tr\u00e9vise RER", "type": "Gare accessible", "transport": "transilien", "transport_legende": "\ud83d\udeb2 \u2764\ufe0f Transilien \ud83d\ude86"}, "geometry": {"type": "Point", "coordinates": [2.543336800614874, 48.82379013126307]}}, {"type": "Feature", "properties": {"start": "Paris Est", "stop_name": "Les Boullereaux Champigny", "type": "Gare accessible", "transport": "transilien", "transport_legende": "\ud83d\udeb2 \u2764\ufe0f Transilien \ud83d\ude86"}, "geometry": {"type": "Point", "coordinates": [2.511990843607618, 48.82486398816196]}}, {"type": "Feature", "properties": {"start": "Paris Est", "stop_name": "Nogent-le-Perreux RER", "type": "Gare accessible", "transport": "transilien", "transport_legende": "\ud83d\udeb2 \u2764\ufe0f Transilien \ud83d\ude86"}, "geometry": {"type": "Point", "coordinates": [2.494338734980877, 48.838351478594205]}}, {"type": "Feature", "properties": {"start": "Paris Est", "stop_name": "Rosny-sous-Bois", "type": "Gare accessible", "transport": "transilien", "transport_legende": "\ud83d\udeb2 \u2764\ufe0f Transilien \ud83d\ude86"}, "geometry": {"type": "Point", "coordinates": [2.4857557993217947, 48.87007067367753]}}, {"type": "Feature", "properties": {"start": "Paris Est", "stop_name": "Provins", "type": "Gare accessible", "transport": "transilien", "transport_legende": "\ud83d\udeb2 \u2764\ufe0f Transilien \ud83d\ude86"}, "geometry": {"type": "Point", "coordinates": [3.302334202203228, 48.55553092379296]}}, {"type": "Feature", "properties": {"start": "Paris Est", "stop_name": "Champbenoist Poigny", "type": "Gare accessible", "transport": "transilien", "transport_legende": "\ud83d\udeb2 \u2764\ufe0f Transilien \ud83d\ude86"}, "geometry": {"type": "Point", "coordinates": [3.2866300417033125, 48.54520762505785]}}, {"type": "Feature", "properties": {"start": "Paris Est", "stop_name": "Sainte-Colombe Septveilles", "type": "Gare accessible", "transport": "transilien", "transport_legende": "\ud83d\udeb2 \u2764\ufe0f Transilien \ud83d\ude86"}, "geometry": {"type": "Point", "coordinates": [3.2553403241826864, 48.52915312687445]}}, {"type": "Feature", "properties": {"start": "Paris Est", "stop_name": "Longueville", "type": "Gare accessible", "transport": "transilien", "transport_legende": "\ud83d\udeb2 \u2764\ufe0f Transilien \ud83d\ude86"}, "geometry": {"type": "Point", "coordinates": [3.250114078411789, 48.51378614127599]}}, {"type": "Feature", "properties": {"start": "Paris Est", "stop_name": "Nangis", "type": "Gare accessible", "transport": "transilien", "transport_legende": "\ud83d\udeb2 \u2764\ufe0f Transilien \ud83d\ude86"}, "geometry": {"type": "Point", "coordinates": [3.012177957825429, 48.5617195064875]}}, {"type": "Feature", "properties": {"start": "Paris Est", "stop_name": "Mormant", "type": "Gare accessible", "transport": "transilien", "transport_legende": "\ud83d\udeb2 \u2764\ufe0f Transilien \ud83d\ude86"}, "geometry": {"type": "Point", "coordinates": [2.88807855133882, 48.61409277056721]}}, {"type": "Feature", "properties": {"start": "Paris Est", "stop_name": "Gare de Verneuil l'Etang", "type": "Gare accessible", "transport": "transilien", "transport_legende": "\ud83d\udeb2 \u2764\ufe0f Transilien \ud83d\ude86"}, "geometry": {"type": "Point", "coordinates": [2.8250892153714657, 48.64484815031592]}}, {"type": "Feature", "properties": {"start": "Paris Est", "stop_name": "Gare de Verneuil-l'Etang", "type": "Gare accessible", "transport": "transilien", "transport_legende": "\ud83d\udeb2 \u2764\ufe0f Transilien \ud83d\ude86"}, "geometry": {"type": "Point", "coordinates": [2.825062248478155, 48.64479414143332]}}, {"type": "Feature", "properties": {"start": "Paris Est", "stop_name": "Gare de Longueville", "type": "Gare accessible", "transport": "transilien", "transport_legende": "\ud83d\udeb2 \u2764\ufe0f Transilien \ud83d\ude86"}, "geometry": {"type": "Point", "coordinates": [3.2496865069987044, 48.51356214372195]}}, {"type": "Feature", "properties": {"start": "Paris Est", "stop_name": "Ch\u00e9zy-sur-Marne", "type": "Gare accessible", "transport": "transilien", "transport_legende": "\ud83d\udeb2 \u2764\ufe0f Transilien \ud83d\ude86"}, "geometry": {"type": "Point", "coordinates": [3.3644154018991057, 48.99188251331995]}}, {"type": "Feature", "properties": {"start": "Paris Est", "stop_name": "Nogent-L'Artaud - Charly", "type": "Gare accessible", "transport": "transilien", "transport_legende": "\ud83d\udeb2 \u2764\ufe0f Transilien \ud83d\ude86"}, "geometry": {"type": "Point", "coordinates": [3.32284765024808, 48.96871609894733]}}, {"type": "Feature", "properties": {"start": "Paris Est", "stop_name": "Nanteuil - Sa\u00e2cy", "type": "Gare accessible", "transport": "transilien", "transport_legende": "\ud83d\udeb2 \u2764\ufe0f Transilien \ud83d\ude86"}, "geometry": {"type": "Point", "coordinates": [3.2194260927085296, 48.97400193831618]}}, {"type": "Feature", "properties": {"start": "Paris Est", "stop_name": "Gare de La Fert\u00e9-sous-Jouarre (Quai E)", "type": "Gare accessible", "transport": "transilien", "transport_legende": "\ud83d\udeb2 \u2764\ufe0f Transilien \ud83d\ude86"}, "geometry": {"type": "Point", "coordinates": [3.12466992294574, 48.95055256012645]}}, {"type": "Feature", "properties": {"start": "Paris Est", "stop_name": "Changis - Saint-Jean", "type": "Gare accessible", "transport": "transilien", "transport_legende": "\ud83d\udeb2 \u2764\ufe0f Transilien \ud83d\ude86"}, "geometry": {"type": "Point", "coordinates": [3.026089283734262, 48.95916631326023]}}, {"type": "Feature", "properties": {"start": "Paris Est", "stop_name": "Trilport", "type": "Gare accessible", "transport": "transilien", "transport_legende": "\ud83d\udeb2 \u2764\ufe0f Transilien \ud83d\ude86"}, "geometry": {"type": "Point", "coordinates": [2.949685912410061, 48.96016915361593]}}]}