{"type": "FeatureCollection", "features": [{"type": "Feature", "properties": {"start": "Place Robespierre", "stop_name": "Place Robespierre", "type": "Gare s\u00e9lectionn\u00e9e", "transport": "transilien", "nombre_trajet_moyen": 0.0, "transport_legende": "\ud83d\udeb2 \u2764\ufe0f Transilien \ud83d\ude86"}, "geometry": {"type": "Point", "coordinates": [1.745911588745307, 48.98530161323569]}}, {"type": "Feature", "properties": {"start": "Place Robespierre", "stop_name": "Gare d'Argenteuil", "type": "Gare accessible", "transport": "transilien", "nombre_trajet_moyen": 0.0, "transport_legende": "\ud83d\udeb2 \u2764\ufe0f Transilien \ud83d\ude86"}, "geometry": {"type": "Point", "coordinates": [2.2574327819077094, 48.94661803093192]}}, {"type": "Feature", "properties": {"start": "Place Robespierre", "stop_name": "Val d'Argenteuil", "type": "Gare accessible", "transport": "transilien", "nombre_trajet_moyen": 0.0, "transport_legende": "\ud83d\udeb2 \u2764\ufe0f Transilien \ud83d\ude86"}, "geometry": {"type": "Point", "coordinates": [2.232694050053452, 48.95065749524003]}}, {"type": "Feature", "properties": {"start": "Place Robespierre", "stop_name": "Gare de Cormeilles en Parisis", "type": "Gare accessible", "transport": "transilien", "nombre_trajet_moyen": 0.0, "transport_legende": "\ud83d\udeb2 \u2764\ufe0f Transilien \ud83d\ude86"}, "geometry": {"type": "Point", "coordinates": [2.194111796010436, 48.96851133173576]}}, {"type": "Feature", "properties": {"start": "Place Robespierre", "stop_name": "La Frette - Montigny", "type": "Gare accessible", "transport": "transilien", "nombre_trajet_moyen": 0.0, "transport_legende": "\ud83d\udeb2 \u2764\ufe0f Transilien \ud83d\ude86"}, "geometry": {"type": "Point", "coordinates": [2.180341866372171, 48.97988373233732]}}, {"type": "Feature", "properties": {"start": "Place Robespierre", "stop_name": "Herblay", "type": "Gare accessible", "transport": "transilien", "nombre_trajet_moyen": 0.0, "transport_legende": "\ud83d\udeb2 \u2764\ufe0f Transilien \ud83d\ude86"}, "geometry": {"type": "Point", "coordinates": [2.1622316587721904, 48.990136140429954]}}, {"type": "Feature", "properties": {"start": "Place Robespierre", "stop_name": "Place Coutisson", "type": "Gare accessible", "transport": "transilien", "nombre_trajet_moyen": 0.0, "transport_legende": "\ud83d\udeb2 \u2764\ufe0f Transilien \ud83d\ude86"}, "geometry": {"type": "Point", "coordinates": [2.097496390224522, 48.99635720614124]}}, {"type": "Feature", "properties": {"start": "Place Robespierre", "stop_name": "Conflans Fin d'Oise", "type": "Gare accessible", "transport": "transilien", "nombre_trajet_moyen": 0.0, "transport_legende": "\ud83d\udeb2 \u2764\ufe0f Transilien \ud83d\ude86"}, "geometry": {"type": "Point", "coordinates": [2.0746499245710197, 48.99115628725848]}}, {"type": "Feature", "properties": {"start": "Place Robespierre", "stop_name": "Foch Pasteur - Maurecourt", "type": "Gare accessible", "transport": "transilien", "nombre_trajet_moyen": 0.0, "transport_legende": "\ud83d\udeb2 \u2764\ufe0f Transilien \ud83d\ude86"}, "geometry": {"type": "Point", "coordinates": [2.064363853548564, 48.987533377298526]}}, {"type": "Feature", "properties": {"start": "Place Robespierre", "stop_name": "Andr\u00e9sy", "type": "Gare accessible", "transport": "transilien", "nombre_trajet_moyen": 0.0, "transport_legende": "\ud83d\udeb2 \u2764\ufe0f Transilien \ud83d\ude86"}, "geometry": {"type": "Point", "coordinates": [2.0486677678528, 48.97462075263292]}}, {"type": "Feature", "properties": {"start": "Place Robespierre", "stop_name": "Gare de Chanteloup-les-Vignes", "type": "Gare accessible", "transport": "transilien", "nombre_trajet_moyen": 0.0, "transport_legende": "\ud83d\udeb2 \u2764\ufe0f Transilien \ud83d\ude86"}, "geometry": {"type": "Point", "coordinates": [2.027638020100813, 48.97055056111148]}}, {"type": "Feature", "properties": {"start": "Place Robespierre", "stop_name": "Gare de Triel-sur-Seine", "type": "Gare accessible", "transport": "transilien", "nombre_trajet_moyen": 0.0, "transport_legende": "\ud83d\udeb2 \u2764\ufe0f Transilien \ud83d\ude86"}, "geometry": {"type": "Point", "coordinates": [2.005654048684108, 48.98082909711723]}}, {"type": "Feature", "properties": {"start": "Place Robespierre", "stop_name": "Vaux-sur-Seine", "type": "Gare accessible", "transport": "transilien", "nombre_trajet_moyen": 0.0, "transport_legende": "\ud83d\udeb2 \u2764\ufe0f Transilien \ud83d\ude86"}, "geometry": {"type": "Point", "coordinates": [1.9630264473162569, 49.0073550143858]}}, {"type": "Feature", "properties": {"start": "Place Robespierre", "stop_name": "Thun le Paradis", "type": "Gare accessible", "transport": "transilien", "nombre_trajet_moyen": 0.0, "transport_legende": "\ud83d\udeb2 \u2764\ufe0f Transilien \ud83d\ude86"}, "geometry": {"type": "Point", "coordinates": [1.919170589720022, 49.006673442207415]}}, {"type": "Feature", "properties": {"start": "Place Robespierre", "stop_name": "Cacao Barry - Meulan Hardricourt", "type": "Gare accessible", "transport": "transilien", "nombre_trajet_moyen": 0.0, "transport_legende": "\ud83d\udeb2 \u2764\ufe0f Transilien \ud83d\ude86"}, "geometry": {"type": "Point", "coordinates": [1.9017153686545123, 49.00508477258868]}}, {"type": "Feature", "properties": {"start": "Place Robespierre", "stop_name": "Gare de Juziers", "type": "Gare accessible", "transport": "transilien", "nombre_trajet_moyen": 0.0, "transport_legende": "\ud83d\udeb2 \u2764\ufe0f Transilien \ud83d\ude86"}, "geometry": {"type": "Point", "coordinates": [1.8456212983506992, 48.99258865891842]}}, {"type": "Feature", "properties": {"start": "Place Robespierre", "stop_name": "Gargenville", "type": "Gare accessible", "transport": "transilien", "nombre_trajet_moyen": 0.0, "transport_legende": "\ud83d\udeb2 \u2764\ufe0f Transilien \ud83d\ude86"}, "geometry": {"type": "Point", "coordinates": [1.8090110590166268, 48.983003872761415]}}, {"type": "Feature", "properties": {"start": "Place Robespierre", "stop_name": "Issou - Porcheville", "type": "Gare accessible", "transport": "transilien", "nombre_trajet_moyen": 0.0, "transport_legende": "\ud83d\udeb2 \u2764\ufe0f Transilien \ud83d\ude86"}, "geometry": {"type": "Point", "coordinates": [1.7838404356830648, 48.9793069192499]}}, {"type": "Feature", "properties": {"start": "Place Robespierre", "stop_name": "Calmette - Mantes Station", "type": "Gare accessible", "transport": "transilien", "nombre_trajet_moyen": 0.0, "transport_legende": "\ud83d\udeb2 \u2764\ufe0f Transilien \ud83d\ude86"}, "geometry": {"type": "Point", "coordinates": [1.716026210470374, 48.98369942603822]}}, {"type": "Feature", "properties": {"start": "Place Robespierre", "stop_name": "Mantes la Jolie", "type": "Gare accessible", "transport": "transilien", "nombre_trajet_moyen": 0.0, "transport_legende": "\ud83d\udeb2 \u2764\ufe0f Transilien \ud83d\ude86"}, "geometry": {"type": "Point", "coordinates": [1.7050685546106672, 48.98750274305828]}}]}