{"type": "FeatureCollection", "features": [{"type": "Feature", "properties": {"start": "Vanves - Malakoff", "stop_name": "Vanves - Malakoff", "type": "Gare s\u00e9lectionn\u00e9e", "transport": "transilien", "nombre_trajet_moyen": 3.03, "transport_legende": "\ud83d\udeb2 \u2764\ufe0f Transilien \ud83d\ude86"}, "geometry": {"type": "Point", "coordinates": [2.2919742374890983, 48.81828945559893]}}, {"type": "Feature", "properties": {"start": "Vanves - Malakoff", "stop_name": "Mantes-la-Jolie", "type": "Gare accessible", "transport": "transilien", "nombre_trajet_moyen": 0.43, "transport_legende": "\ud83d\udeb2 \u2764\ufe0f Transilien \ud83d\ude86"}, "geometry": {"type": "Point", "coordinates": [1.703836824856348, 48.98929502141949]}}, {"type": "Feature", "properties": {"start": "Vanves - Malakoff", "stop_name": "\u00c9p\u00f4ne - M\u00e9zi\u00e8res", "type": "Gare accessible", "transport": "transilien", "nombre_trajet_moyen": 0.43, "transport_legende": "\ud83d\udeb2 \u2764\ufe0f Transilien \ud83d\ude86"}, "geometry": {"type": "Point", "coordinates": [1.809133387838305, 48.96340497197892]}}, {"type": "Feature", "properties": {"start": "Vanves - Malakoff", "stop_name": "N\u00e9zel - Aulnay", "type": "Gare accessible", "transport": "transilien", "nombre_trajet_moyen": 0.43, "transport_legende": "\ud83d\udeb2 \u2764\ufe0f Transilien \ud83d\ude86"}, "geometry": {"type": "Point", "coordinates": [1.8404153320794885, 48.93882932493657]}}, {"type": "Feature", "properties": {"start": "Vanves - Malakoff", "stop_name": "Maule", "type": "Gare accessible", "transport": "transilien", "nombre_trajet_moyen": 0.43, "transport_legende": "\ud83d\udeb2 \u2764\ufe0f Transilien \ud83d\ude86"}, "geometry": {"type": "Point", "coordinates": [1.8568974216555527, 48.90932809474093]}}, {"type": "Feature", "properties": {"start": "Vanves - Malakoff", "stop_name": "Mareil-sur-Mauldre", "type": "Gare accessible", "transport": "transilien", "nombre_trajet_moyen": 0.43, "transport_legende": "\ud83d\udeb2 \u2764\ufe0f Transilien \ud83d\ude86"}, "geometry": {"type": "Point", "coordinates": [1.8718488171877576, 48.89302020567544]}}, {"type": "Feature", "properties": {"start": "Vanves - Malakoff", "stop_name": "Beynes", "type": "Gare accessible", "transport": "transilien", "nombre_trajet_moyen": 0.43, "transport_legende": "\ud83d\udeb2 \u2764\ufe0f Transilien \ud83d\ude86"}, "geometry": {"type": "Point", "coordinates": [1.8755955719389823, 48.860056612665424]}}, {"type": "Feature", "properties": {"start": "Vanves - Malakoff", "stop_name": "Plaisir - Grignon", "type": "Gare accessible", "transport": "transilien", "nombre_trajet_moyen": 2.1, "transport_legende": "\ud83d\udeb2 \u2764\ufe0f Transilien \ud83d\ude86"}, "geometry": {"type": "Point", "coordinates": [1.943537514733802, 48.831926089228816]}}, {"type": "Feature", "properties": {"start": "Vanves - Malakoff", "stop_name": "Plaisir - Les Clayes", "type": "Gare accessible", "transport": "transilien", "nombre_trajet_moyen": 2.1, "transport_legende": "\ud83d\udeb2 \u2764\ufe0f Transilien \ud83d\ude86"}, "geometry": {"type": "Point", "coordinates": [1.960091444651348, 48.83083896712]}}, {"type": "Feature", "properties": {"start": "Vanves - Malakoff", "stop_name": "Villepreux - Les Clayes", "type": "Gare accessible", "transport": "transilien", "nombre_trajet_moyen": 2.1, "transport_legende": "\ud83d\udeb2 \u2764\ufe0f Transilien \ud83d\ude86"}, "geometry": {"type": "Point", "coordinates": [1.992798523459497, 48.82366793006802]}}, {"type": "Feature", "properties": {"start": "Vanves - Malakoff", "stop_name": "Fontenay-le-Fleury", "type": "Gare accessible", "transport": "transilien", "nombre_trajet_moyen": 2.1, "transport_legende": "\ud83d\udeb2 \u2764\ufe0f Transilien \ud83d\ude86"}, "geometry": {"type": "Point", "coordinates": [2.0407045118857456, 48.80727344427781]}}, {"type": "Feature", "properties": {"start": "Vanves - Malakoff", "stop_name": "Saint-Cyr", "type": "Gare accessible", "transport": "transilien", "nombre_trajet_moyen": 2.73, "transport_legende": "\ud83d\udeb2 \u2764\ufe0f Transilien \ud83d\ude86"}, "geometry": {"type": "Point", "coordinates": [2.072712440765476, 48.79877460471833]}}, {"type": "Feature", "properties": {"start": "Vanves - Malakoff", "stop_name": "Versailles Chantiers", "type": "Gare accessible", "transport": "transilien", "nombre_trajet_moyen": 3.03, "transport_legende": "\ud83d\udeb2 \u2764\ufe0f Transilien \ud83d\ude86"}, "geometry": {"type": "Point", "coordinates": [2.1349078603373464, 48.79526039893613]}}, {"type": "Feature", "properties": {"start": "Vanves - Malakoff", "stop_name": "Viroflay Rive Gauche", "type": "Gare accessible", "transport": "transilien", "nombre_trajet_moyen": 3.03, "transport_legende": "\ud83d\udeb2 \u2764\ufe0f Transilien \ud83d\ude86"}, "geometry": {"type": "Point", "coordinates": [2.17158260741522, 48.800665521455045]}}, {"type": "Feature", "properties": {"start": "Vanves - Malakoff", "stop_name": "Chaville Rive Gauche", "type": "Gare accessible", "transport": "transilien", "nombre_trajet_moyen": 3.03, "transport_legende": "\ud83d\udeb2 \u2764\ufe0f Transilien \ud83d\ude86"}, "geometry": {"type": "Point", "coordinates": [2.189425762809199, 48.8051904761828]}}, {"type": "Feature", "properties": {"start": "Vanves - Malakoff", "stop_name": "S\u00e8vres Rive Gauche", "type": "Gare accessible", "transport": "transilien", "nombre_trajet_moyen": 3.03, "transport_legende": "\ud83d\udeb2 \u2764\ufe0f Transilien \ud83d\ude86"}, "geometry": {"type": "Point", "coordinates": [2.215079572125279, 48.82121360785643]}}, {"type": "Feature", "properties": {"start": "Vanves - Malakoff", "stop_name": "Bellevue", "type": "Gare accessible", "transport": "transilien", "nombre_trajet_moyen": 3.03, "transport_legende": "\ud83d\udeb2 \u2764\ufe0f Transilien \ud83d\ude86"}, "geometry": {"type": "Point", "coordinates": [2.229956322216565, 48.81887298138509]}}, {"type": "Feature", "properties": {"start": "Vanves - Malakoff", "stop_name": "Meudon", "type": "Gare accessible", "transport": "transilien", "nombre_trajet_moyen": 3.03, "transport_legende": "\ud83d\udeb2 \u2764\ufe0f Transilien \ud83d\ude86"}, "geometry": {"type": "Point", "coordinates": [2.2428787225795106, 48.81436409632574]}}, {"type": "Feature", "properties": {"start": "Vanves - Malakoff", "stop_name": "Clamart", "type": "Gare accessible", "transport": "transilien", "nombre_trajet_moyen": 3.03, "transport_legende": "\ud83d\udeb2 \u2764\ufe0f Transilien \ud83d\ude86"}, "geometry": {"type": "Point", "coordinates": [2.274243860950152, 48.81422563914296]}}, {"type": "Feature", "properties": {"start": "Vanves - Malakoff", "stop_name": "Gare Montparnasse", "type": "Gare accessible", "transport": "transilien", "nombre_trajet_moyen": 3.03, "transport_legende": "\ud83d\udeb2 \u2764\ufe0f Transilien \ud83d\ude86"}, "geometry": {"type": "Point", "coordinates": [2.316388731382968, 48.83841119933774]}}, {"type": "Feature", "properties": {"start": "Vanves - Malakoff", "stop_name": "Saint-Quentin en Yvelines - Montigny-le-Bretonneux", "type": "Gare accessible", "transport": "transilien", "nombre_trajet_moyen": 0.7, "transport_legende": "\ud83d\udeb2 \u2764\ufe0f Transilien \ud83d\ude86"}, "geometry": {"type": "Point", "coordinates": [2.044615988930814, 48.78748491597792]}}, {"type": "Feature", "properties": {"start": "Vanves - Malakoff", "stop_name": "Trappes", "type": "Gare accessible", "transport": "transilien", "nombre_trajet_moyen": 0.7, "transport_legende": "\ud83d\udeb2 \u2764\ufe0f Transilien \ud83d\ude86"}, "geometry": {"type": "Point", "coordinates": [2.0065902166898377, 48.7747853970692]}}, {"type": "Feature", "properties": {"start": "Vanves - Malakoff", "stop_name": "La Verri\u00e8re", "type": "Gare accessible", "transport": "transilien", "nombre_trajet_moyen": 0.7, "transport_legende": "\ud83d\udeb2 \u2764\ufe0f Transilien \ud83d\ude86"}, "geometry": {"type": "Point", "coordinates": [1.943057018064192, 48.7551716132828]}}, {"type": "Feature", "properties": {"start": "Vanves - Malakoff", "stop_name": "Coigni\u00e8res", "type": "Gare accessible", "transport": "transilien", "nombre_trajet_moyen": 0.7, "transport_legende": "\ud83d\udeb2 \u2764\ufe0f Transilien \ud83d\ude86"}, "geometry": {"type": "Point", "coordinates": [1.9214184023981653, 48.74374799338111]}}, {"type": "Feature", "properties": {"start": "Vanves - Malakoff", "stop_name": "Les Essarts-le-Roi", "type": "Gare accessible", "transport": "transilien", "nombre_trajet_moyen": 0.7, "transport_legende": "\ud83d\udeb2 \u2764\ufe0f Transilien \ud83d\ude86"}, "geometry": {"type": "Point", "coordinates": [1.889661391894688, 48.72169335309528]}}, {"type": "Feature", "properties": {"start": "Vanves - Malakoff", "stop_name": "Le Perray", "type": "Gare accessible", "transport": "transilien", "nombre_trajet_moyen": 0.7, "transport_legende": "\ud83d\udeb2 \u2764\ufe0f Transilien \ud83d\ude86"}, "geometry": {"type": "Point", "coordinates": [1.8566531860615936, 48.69336112490438]}}, {"type": "Feature", "properties": {"start": "Vanves - Malakoff", "stop_name": "Rambouillet", "type": "Gare accessible", "transport": "transilien", "nombre_trajet_moyen": 0.7, "transport_legende": "\ud83d\udeb2 \u2764\ufe0f Transilien \ud83d\ude86"}, "geometry": {"type": "Point", "coordinates": [1.832207614506548, 48.6438460126836]}}, {"type": "Feature", "properties": {"start": "Vanves - Malakoff", "stop_name": "Dreux", "type": "Gare accessible", "transport": "transilien", "nombre_trajet_moyen": 0.0, "transport_legende": "\ud83d\udeb2 \u2764\ufe0f Transilien \ud83d\ude86"}, "geometry": {"type": "Point", "coordinates": [1.3704314171005365, 48.731106368847485]}}, {"type": "Feature", "properties": {"start": "Vanves - Malakoff", "stop_name": "Marchezais - Brou\u00e9", "type": "Gare accessible", "transport": "transilien", "nombre_trajet_moyen": 0.0, "transport_legende": "\ud83d\udeb2 \u2764\ufe0f Transilien \ud83d\ude86"}, "geometry": {"type": "Point", "coordinates": [1.5135715190299066, 48.76839076858962]}}, {"type": "Feature", "properties": {"start": "Vanves - Malakoff", "stop_name": "Houdan", "type": "Gare accessible", "transport": "transilien", "nombre_trajet_moyen": 0.0, "transport_legende": "\ud83d\udeb2 \u2764\ufe0f Transilien \ud83d\ude86"}, "geometry": {"type": "Point", "coordinates": [1.6021344463889766, 48.79602555328117]}}, {"type": "Feature", "properties": {"start": "Vanves - Malakoff", "stop_name": "Tacoigni\u00e8res - Richebourg", "type": "Gare accessible", "transport": "transilien", "nombre_trajet_moyen": 0.0, "transport_legende": "\ud83d\udeb2 \u2764\ufe0f Transilien \ud83d\ude86"}, "geometry": {"type": "Point", "coordinates": [1.668661901995974, 48.82931965425061]}}, {"type": "Feature", "properties": {"start": "Vanves - Malakoff", "stop_name": "Orgerus - B\u00e9houst", "type": "Gare accessible", "transport": "transilien", "nombre_trajet_moyen": 0.0, "transport_legende": "\ud83d\udeb2 \u2764\ufe0f Transilien \ud83d\ude86"}, "geometry": {"type": "Point", "coordinates": [1.7030300359022217, 48.82662740630846]}}, {"type": "Feature", "properties": {"start": "Vanves - Malakoff", "stop_name": "Garanci\u00e8res - La Queue", "type": "Gare accessible", "transport": "transilien", "nombre_trajet_moyen": 0.0, "transport_legende": "\ud83d\udeb2 \u2764\ufe0f Transilien \ud83d\ude86"}, "geometry": {"type": "Point", "coordinates": [1.7645793224017483, 48.810463686279576]}}, {"type": "Feature", "properties": {"start": "Vanves - Malakoff", "stop_name": "Montfort-l'Amaury - M\u00e9r\u00e9", "type": "Gare accessible", "transport": "transilien", "nombre_trajet_moyen": 0.0, "transport_legende": "\ud83d\udeb2 \u2764\ufe0f Transilien \ud83d\ude86"}, "geometry": {"type": "Point", "coordinates": [1.8158352700699212, 48.802662371849536]}}, {"type": "Feature", "properties": {"start": "Vanves - Malakoff", "stop_name": "Villiers - Neauphle - Pontchartrain", "type": "Gare accessible", "transport": "transilien", "nombre_trajet_moyen": 0.0, "transport_legende": "\ud83d\udeb2 \u2764\ufe0f Transilien \ud83d\ude86"}, "geometry": {"type": "Point", "coordinates": [1.877535784941356, 48.81532337552301]}}]}