{"type": "FeatureCollection", "features": [{"type": "Feature", "properties": {"start": "Viry-Ch\u00e2tillon", "stop_name": "Viry-Ch\u00e2tillon", "type": "Gare s\u00e9lectionn\u00e9e", "transport": "transilien", "nombre_trajet_moyen": 9.23, "transport_legende": "\ud83d\udeb2 \u2764\ufe0f Transilien \ud83d\ude86"}, "geometry": {"type": "Point", "coordinates": [2.387021960013403, 48.67590783936994]}}, {"type": "Feature", "properties": {"start": "Viry-Ch\u00e2tillon", "stop_name": "Gare de Lyon - Diderot", "type": "Gare accessible", "transport": "transilien", "nombre_trajet_moyen": 0.07, "transport_legende": "\ud83d\udeb2 \u2764\ufe0f Transilien \ud83d\ude86"}, "geometry": {"type": "Point", "coordinates": [2.37258891322064, 48.84586459936938]}}, {"type": "Feature", "properties": {"start": "Viry-Ch\u00e2tillon", "stop_name": "Place d'Italie - Mairie du 13e", "type": "Gare accessible", "transport": "transilien", "nombre_trajet_moyen": 0.07, "transport_legende": "\ud83d\udeb2 \u2764\ufe0f Transilien \ud83d\ude86"}, "geometry": {"type": "Point", "coordinates": [2.356476214736473, 48.832571841350656]}}, {"type": "Feature", "properties": {"start": "Viry-Ch\u00e2tillon", "stop_name": "Porte d'Italie", "type": "Gare accessible", "transport": "transilien", "nombre_trajet_moyen": 0.07, "transport_legende": "\ud83d\udeb2 \u2764\ufe0f Transilien \ud83d\ude86"}, "geometry": {"type": "Point", "coordinates": [2.35922526106539, 48.81950069273876]}}, {"type": "Feature", "properties": {"start": "Viry-Ch\u00e2tillon", "stop_name": "A\u00e9roport Orly 4", "type": "Gare accessible", "transport": "transilien", "nombre_trajet_moyen": 0.07, "transport_legende": "\ud83d\udeb2 \u2764\ufe0f Transilien \ud83d\ude86"}, "geometry": {"type": "Point", "coordinates": [2.3693661084044275, 48.72875863232642]}}, {"type": "Feature", "properties": {"start": "Viry-Ch\u00e2tillon", "stop_name": "Pyramide de Juvisy", "type": "Gare accessible", "transport": "transilien", "nombre_trajet_moyen": 0.07, "transport_legende": "\ud83d\udeb2 \u2764\ufe0f Transilien \ud83d\ude86"}, "geometry": {"type": "Point", "coordinates": [2.3716185178567653, 48.69748720133352]}}, {"type": "Feature", "properties": {"start": "Viry-Ch\u00e2tillon", "stop_name": "Mairie", "type": "Gare accessible", "transport": "transilien", "nombre_trajet_moyen": 0.07, "transport_legende": "\ud83d\udeb2 \u2764\ufe0f Transilien \ud83d\ude86"}, "geometry": {"type": "Point", "coordinates": [1.9751843367210649, 48.978863999006606]}}, {"type": "Feature", "properties": {"start": "Viry-Ch\u00e2tillon", "stop_name": "Juvisy RER", "type": "Gare accessible", "transport": "transilien", "nombre_trajet_moyen": 0.07, "transport_legende": "\ud83d\udeb2 \u2764\ufe0f Transilien \ud83d\ude86"}, "geometry": {"type": "Point", "coordinates": [2.382055029825166, 48.6904988251228]}}, {"type": "Feature", "properties": {"start": "Viry-Ch\u00e2tillon", "stop_name": "Blazy", "type": "Gare accessible", "transport": "transilien", "nombre_trajet_moyen": 0.07, "transport_legende": "\ud83d\udeb2 \u2764\ufe0f Transilien \ud83d\ude86"}, "geometry": {"type": "Point", "coordinates": [2.3746085223793005, 48.68493719149944]}}, {"type": "Feature", "properties": {"start": "Viry-Ch\u00e2tillon", "stop_name": "Gare de Grigny Centre", "type": "Gare accessible", "transport": "transilien", "nombre_trajet_moyen": 0.2, "transport_legende": "\ud83d\udeb2 \u2764\ufe0f Transilien \ud83d\ude86"}, "geometry": {"type": "Point", "coordinates": [2.395111377075866, 48.652904023279966]}}, {"type": "Feature", "properties": {"start": "Viry-Ch\u00e2tillon", "stop_name": "Jean Jaur\u00e8s", "type": "Gare accessible", "transport": "transilien", "nombre_trajet_moyen": 0.07, "transport_legende": "\ud83d\udeb2 \u2764\ufe0f Transilien \ud83d\ude86"}, "geometry": {"type": "Point", "coordinates": [2.406639836988374, 48.65030843612308]}}, {"type": "Feature", "properties": {"start": "Viry-Ch\u00e2tillon", "stop_name": "Daumesnil", "type": "Gare accessible", "transport": "transilien", "nombre_trajet_moyen": 0.07, "transport_legende": "\ud83d\udeb2 \u2764\ufe0f Transilien \ud83d\ude86"}, "geometry": {"type": "Point", "coordinates": [2.41520097372294, 48.65075553361204]}}, {"type": "Feature", "properties": {"start": "Viry-Ch\u00e2tillon", "stop_name": "Pyramides - Lyc\u00e9e des Loges", "type": "Gare accessible", "transport": "transilien", "nombre_trajet_moyen": 0.07, "transport_legende": "\ud83d\udeb2 \u2764\ufe0f Transilien \ud83d\ude86"}, "geometry": {"type": "Point", "coordinates": [2.42523389515096, 48.63464012472095]}}, {"type": "Feature", "properties": {"start": "Viry-Ch\u00e2tillon", "stop_name": "Gare Routi\u00e8re", "type": "Gare accessible", "transport": "transilien", "nombre_trajet_moyen": 0.07, "transport_legende": "\ud83d\udeb2 \u2764\ufe0f Transilien \ud83d\ude86"}, "geometry": {"type": "Point", "coordinates": [2.4283773758459466, 48.62516530530012]}}, {"type": "Feature", "properties": {"start": "Viry-Ch\u00e2tillon", "stop_name": "Gare du Bras de Fer Evry G\u00e9nopole", "type": "Gare accessible", "transport": "transilien", "nombre_trajet_moyen": 0.07, "transport_legende": "\ud83d\udeb2 \u2764\ufe0f Transilien \ud83d\ude86"}, "geometry": {"type": "Point", "coordinates": [2.450716235430025, 48.62345338088501]}}, {"type": "Feature", "properties": {"start": "Viry-Ch\u00e2tillon", "stop_name": "Tarter\u00eats", "type": "Gare accessible", "transport": "transilien", "nombre_trajet_moyen": 0.07, "transport_legende": "\ud83d\udeb2 \u2764\ufe0f Transilien \ud83d\ude86"}, "geometry": {"type": "Point", "coordinates": [2.45872737775555, 48.61371220109407]}}, {"type": "Feature", "properties": {"start": "Viry-Ch\u00e2tillon", "stop_name": "Ambroise Croizat", "type": "Gare accessible", "transport": "transilien", "nombre_trajet_moyen": 0.07, "transport_legende": "\ud83d\udeb2 \u2764\ufe0f Transilien \ud83d\ude86"}, "geometry": {"type": "Point", "coordinates": [2.4661827511044736, 48.60630672113543]}}, {"type": "Feature", "properties": {"start": "Viry-Ch\u00e2tillon", "stop_name": "Gare de Corbeil-Essonnes", "type": "Gare accessible", "transport": "transilien", "nombre_trajet_moyen": 0.2, "transport_legende": "\ud83d\udeb2 \u2764\ufe0f Transilien \ud83d\ude86"}, "geometry": {"type": "Point", "coordinates": [2.4742716122476227, 48.61394375582231]}}, {"type": "Feature", "properties": {"start": "Viry-Ch\u00e2tillon", "stop_name": "Gare de Villeneuve-Saint-Georges", "type": "Gare accessible", "transport": "transilien", "nombre_trajet_moyen": 0.0, "transport_legende": "\ud83d\udeb2 \u2764\ufe0f Transilien \ud83d\ude86"}, "geometry": {"type": "Point", "coordinates": [2.4465573674434435, 48.729339398302656]}}, {"type": "Feature", "properties": {"start": "Viry-Ch\u00e2tillon", "stop_name": "Patte d'Oie", "type": "Gare accessible", "transport": "transilien", "nombre_trajet_moyen": 0.0, "transport_legende": "\ud83d\udeb2 \u2764\ufe0f Transilien \ud83d\ude86"}, "geometry": {"type": "Point", "coordinates": [2.4303597865245754, 48.703592746932735]}}, {"type": "Feature", "properties": {"start": "Viry-Ch\u00e2tillon", "stop_name": "Gare de Vigneux-sur-Seine", "type": "Gare accessible", "transport": "transilien", "nombre_trajet_moyen": 0.13, "transport_legende": "\ud83d\udeb2 \u2764\ufe0f Transilien \ud83d\ude86"}, "geometry": {"type": "Point", "coordinates": [2.415275573789753, 48.70845782500921]}}, {"type": "Feature", "properties": {"start": "Viry-Ch\u00e2tillon", "stop_name": "Eglise", "type": "Gare accessible", "transport": "transilien", "nombre_trajet_moyen": 0.0, "transport_legende": "\ud83d\udeb2 \u2764\ufe0f Transilien \ud83d\ude86"}, "geometry": {"type": "Point", "coordinates": [2.4089400998692025, 48.68702818742313]}}, {"type": "Feature", "properties": {"start": "Viry-Ch\u00e2tillon", "stop_name": "Gare d'Evry Courcouronnes Centre (niveau 0)", "type": "Gare accessible", "transport": "transilien", "nombre_trajet_moyen": 0.0, "transport_legende": "\ud83d\udeb2 \u2764\ufe0f Transilien \ud83d\ude86"}, "geometry": {"type": "Point", "coordinates": [2.4283515163494944, 48.62504824302955]}}, {"type": "Feature", "properties": {"start": "Viry-Ch\u00e2tillon", "stop_name": "Strathkelvin - Tarter\u00eats", "type": "Gare accessible", "transport": "transilien", "nombre_trajet_moyen": 0.0, "transport_legende": "\ud83d\udeb2 \u2764\ufe0f Transilien \ud83d\ude86"}, "geometry": {"type": "Point", "coordinates": [2.4628593538499928, 48.61955085603818]}}, {"type": "Feature", "properties": {"start": "Viry-Ch\u00e2tillon", "stop_name": "Juvisy", "type": "Gare accessible", "transport": "transilien", "nombre_trajet_moyen": 9.03, "transport_legende": "\ud83d\udeb2 \u2764\ufe0f Transilien \ud83d\ude86"}, "geometry": {"type": "Point", "coordinates": [2.383334629403869, 48.68970940912314]}}, {"type": "Feature", "properties": {"start": "Viry-Ch\u00e2tillon", "stop_name": "Ris-Orangis", "type": "Gare accessible", "transport": "transilien", "nombre_trajet_moyen": 2.67, "transport_legende": "\ud83d\udeb2 \u2764\ufe0f Transilien \ud83d\ude86"}, "geometry": {"type": "Point", "coordinates": [2.414997460834355, 48.659057463386254]}}, {"type": "Feature", "properties": {"start": "Viry-Ch\u00e2tillon", "stop_name": "Grand Bourg", "type": "Gare accessible", "transport": "transilien", "nombre_trajet_moyen": 2.53, "transport_legende": "\ud83d\udeb2 \u2764\ufe0f Transilien \ud83d\ude86"}, "geometry": {"type": "Point", "coordinates": [2.4348387319350167, 48.64880840591746]}}, {"type": "Feature", "properties": {"start": "Viry-Ch\u00e2tillon", "stop_name": "\u00c9vry - Val de Seine", "type": "Gare accessible", "transport": "transilien", "nombre_trajet_moyen": 2.53, "transport_legende": "\ud83d\udeb2 \u2764\ufe0f Transilien \ud83d\ude86"}, "geometry": {"type": "Point", "coordinates": [2.4523091616356028, 48.63439299320402]}}, {"type": "Feature", "properties": {"start": "Viry-Ch\u00e2tillon", "stop_name": "Corbeil-Essonnes", "type": "Gare accessible", "transport": "transilien", "nombre_trajet_moyen": 9.03, "transport_legende": "\ud83d\udeb2 \u2764\ufe0f Transilien \ud83d\ude86"}, "geometry": {"type": "Point", "coordinates": [2.472467657639279, 48.61323864277619]}}, {"type": "Feature", "properties": {"start": "Viry-Ch\u00e2tillon", "stop_name": "Moulin Galant", "type": "Gare accessible", "transport": "transilien", "nombre_trajet_moyen": 1.83, "transport_legende": "\ud83d\udeb2 \u2764\ufe0f Transilien \ud83d\ude86"}, "geometry": {"type": "Point", "coordinates": [2.473444919964576, 48.58688228073328]}}, {"type": "Feature", "properties": {"start": "Viry-Ch\u00e2tillon", "stop_name": "Mennecy", "type": "Gare accessible", "transport": "transilien", "nombre_trajet_moyen": 1.83, "transport_legende": "\ud83d\udeb2 \u2764\ufe0f Transilien \ud83d\ude86"}, "geometry": {"type": "Point", "coordinates": [2.4319348900260658, 48.57054850948166]}}, {"type": "Feature", "properties": {"start": "Viry-Ch\u00e2tillon", "stop_name": "Ballancourt", "type": "Gare accessible", "transport": "transilien", "nombre_trajet_moyen": 1.83, "transport_legende": "\ud83d\udeb2 \u2764\ufe0f Transilien \ud83d\ude86"}, "geometry": {"type": "Point", "coordinates": [2.3700930488013845, 48.53101531216478]}}, {"type": "Feature", "properties": {"start": "Viry-Ch\u00e2tillon", "stop_name": "La Fert\u00e9-Alais", "type": "Gare accessible", "transport": "transilien", "nombre_trajet_moyen": 1.83, "transport_legende": "\ud83d\udeb2 \u2764\ufe0f Transilien \ud83d\ude86"}, "geometry": {"type": "Point", "coordinates": [2.352260197381972, 48.4855007310595]}}, {"type": "Feature", "properties": {"start": "Viry-Ch\u00e2tillon", "stop_name": "Boutigny", "type": "Gare accessible", "transport": "transilien", "nombre_trajet_moyen": 1.83, "transport_legende": "\ud83d\udeb2 \u2764\ufe0f Transilien \ud83d\ude86"}, "geometry": {"type": "Point", "coordinates": [2.3767454804181263, 48.43442542513416]}}, {"type": "Feature", "properties": {"start": "Viry-Ch\u00e2tillon", "stop_name": "Maisse", "type": "Gare accessible", "transport": "transilien", "nombre_trajet_moyen": 1.83, "transport_legende": "\ud83d\udeb2 \u2764\ufe0f Transilien \ud83d\ude86"}, "geometry": {"type": "Point", "coordinates": [2.393493661032251, 48.39367132989446]}}, {"type": "Feature", "properties": {"start": "Viry-Ch\u00e2tillon", "stop_name": "Buno - Gironville", "type": "Gare accessible", "transport": "transilien", "nombre_trajet_moyen": 1.83, "transport_legende": "\ud83d\udeb2 \u2764\ufe0f Transilien \ud83d\ude86"}, "geometry": {"type": "Point", "coordinates": [2.387254108315933, 48.37149489082515]}}, {"type": "Feature", "properties": {"start": "Viry-Ch\u00e2tillon", "stop_name": "Boigneville", "type": "Gare accessible", "transport": "transilien", "nombre_trajet_moyen": 1.83, "transport_legende": "\ud83d\udeb2 \u2764\ufe0f Transilien \ud83d\ude86"}, "geometry": {"type": "Point", "coordinates": [2.378618440416535, 48.341208632507616]}}, {"type": "Feature", "properties": {"start": "Viry-Ch\u00e2tillon", "stop_name": "Malesherbes", "type": "Gare accessible", "transport": "transilien", "nombre_trajet_moyen": 1.83, "transport_legende": "\ud83d\udeb2 \u2764\ufe0f Transilien \ud83d\ude86"}, "geometry": {"type": "Point", "coordinates": [2.401036441728877, 48.293633291470464]}}, {"type": "Feature", "properties": {"start": "Viry-Ch\u00e2tillon", "stop_name": "Essonnes Robinson", "type": "Gare accessible", "transport": "transilien", "nombre_trajet_moyen": 0.47, "transport_legende": "\ud83d\udeb2 \u2764\ufe0f Transilien \ud83d\ude86"}, "geometry": {"type": "Point", "coordinates": [2.463295818844443, 48.60581740091332]}}, {"type": "Feature", "properties": {"start": "Viry-Ch\u00e2tillon", "stop_name": "Villab\u00e9", "type": "Gare accessible", "transport": "transilien", "nombre_trajet_moyen": 0.47, "transport_legende": "\ud83d\udeb2 \u2764\ufe0f Transilien \ud83d\ude86"}, "geometry": {"type": "Point", "coordinates": [2.461533386360794, 48.592814943454]}}, {"type": "Feature", "properties": {"start": "Viry-Ch\u00e2tillon", "stop_name": "Le Plessis Chenet", "type": "Gare accessible", "transport": "transilien", "nombre_trajet_moyen": 0.47, "transport_legende": "\ud83d\udeb2 \u2764\ufe0f Transilien \ud83d\ude86"}, "geometry": {"type": "Point", "coordinates": [2.479522291008497, 48.57358727886637]}}, {"type": "Feature", "properties": {"start": "Viry-Ch\u00e2tillon", "stop_name": "Le Coudray-Montceaux", "type": "Gare accessible", "transport": "transilien", "nombre_trajet_moyen": 0.47, "transport_legende": "\ud83d\udeb2 \u2764\ufe0f Transilien \ud83d\ude86"}, "geometry": {"type": "Point", "coordinates": [2.492424499497774, 48.56619819315809]}}, {"type": "Feature", "properties": {"start": "Viry-Ch\u00e2tillon", "stop_name": "Saint-Fargeau", "type": "Gare accessible", "transport": "transilien", "nombre_trajet_moyen": 0.47, "transport_legende": "\ud83d\udeb2 \u2764\ufe0f Transilien \ud83d\ude86"}, "geometry": {"type": "Point", "coordinates": [2.5426100742385285, 48.56502608446919]}}, {"type": "Feature", "properties": {"start": "Viry-Ch\u00e2tillon", "stop_name": "Ponthierry - Pringy", "type": "Gare accessible", "transport": "transilien", "nombre_trajet_moyen": 0.47, "transport_legende": "\ud83d\udeb2 \u2764\ufe0f Transilien \ud83d\ude86"}, "geometry": {"type": "Point", "coordinates": [2.5445365646399507, 48.535084951085466]}}, {"type": "Feature", "properties": {"start": "Viry-Ch\u00e2tillon", "stop_name": "Boissise-le-Roi", "type": "Gare accessible", "transport": "transilien", "nombre_trajet_moyen": 0.47, "transport_legende": "\ud83d\udeb2 \u2764\ufe0f Transilien \ud83d\ude86"}, "geometry": {"type": "Point", "coordinates": [2.57179291425262, 48.52985734002498]}}, {"type": "Feature", "properties": {"start": "Viry-Ch\u00e2tillon", "stop_name": "Vosves", "type": "Gare accessible", "transport": "transilien", "nombre_trajet_moyen": 0.47, "transport_legende": "\ud83d\udeb2 \u2764\ufe0f Transilien \ud83d\ude86"}, "geometry": {"type": "Point", "coordinates": [2.5994097381795305, 48.51507609100275]}}, {"type": "Feature", "properties": {"start": "Viry-Ch\u00e2tillon", "stop_name": "Melun", "type": "Gare accessible", "transport": "transilien", "nombre_trajet_moyen": 0.47, "transport_legende": "\ud83d\udeb2 \u2764\ufe0f Transilien \ud83d\ude86"}, "geometry": {"type": "Point", "coordinates": [2.65469836071817, 48.527491277248295]}}, {"type": "Feature", "properties": {"start": "Viry-Ch\u00e2tillon", "stop_name": "Creil", "type": "Gare accessible", "transport": "transilien", "nombre_trajet_moyen": 1.53, "transport_legende": "\ud83d\udeb2 \u2764\ufe0f Transilien \ud83d\ude86"}, "geometry": {"type": "Point", "coordinates": [2.46892902764167, 49.264185555044406]}}, {"type": "Feature", "properties": {"start": "Viry-Ch\u00e2tillon", "stop_name": "Chantilly - Gouvieux", "type": "Gare accessible", "transport": "transilien", "nombre_trajet_moyen": 1.53, "transport_legende": "\ud83d\udeb2 \u2764\ufe0f Transilien \ud83d\ude86"}, "geometry": {"type": "Point", "coordinates": [2.459515914008524, 49.187030004664]}}, {"type": "Feature", "properties": {"start": "Viry-Ch\u00e2tillon", "stop_name": "Orry-la-Ville - Coye", "type": "Gare accessible", "transport": "transilien", "nombre_trajet_moyen": 2.93, "transport_legende": "\ud83d\udeb2 \u2764\ufe0f Transilien \ud83d\ude86"}, "geometry": {"type": "Point", "coordinates": [2.489862086302069, 49.13840546145438]}}, {"type": "Feature", "properties": {"start": "Viry-Ch\u00e2tillon", "stop_name": "La Borne Blanche", "type": "Gare accessible", "transport": "transilien", "nombre_trajet_moyen": 2.93, "transport_legende": "\ud83d\udeb2 \u2764\ufe0f Transilien \ud83d\ude86"}, "geometry": {"type": "Point", "coordinates": [2.5069908684194053, 49.1261949449139]}}, {"type": "Feature", "properties": {"start": "Viry-Ch\u00e2tillon", "stop_name": "Survilliers - Fosses", "type": "Gare accessible", "transport": "transilien", "nombre_trajet_moyen": 2.93, "transport_legende": "\ud83d\udeb2 \u2764\ufe0f Transilien \ud83d\ude86"}, "geometry": {"type": "Point", "coordinates": [2.525517836696695, 49.09951161811565]}}, {"type": "Feature", "properties": {"start": "Viry-Ch\u00e2tillon", "stop_name": "Louvres", "type": "Gare accessible", "transport": "transilien", "nombre_trajet_moyen": 2.93, "transport_legende": "\ud83d\udeb2 \u2764\ufe0f Transilien \ud83d\ude86"}, "geometry": {"type": "Point", "coordinates": [2.5018113143714777, 49.04933726826723]}}, {"type": "Feature", "properties": {"start": "Viry-Ch\u00e2tillon", "stop_name": "Les Noues", "type": "Gare accessible", "transport": "transilien", "nombre_trajet_moyen": 2.93, "transport_legende": "\ud83d\udeb2 \u2764\ufe0f Transilien \ud83d\ude86"}, "geometry": {"type": "Point", "coordinates": [2.477713962139221, 49.03307204384692]}}, {"type": "Feature", "properties": {"start": "Viry-Ch\u00e2tillon", "stop_name": "Goussainville", "type": "Gare accessible", "transport": "transilien", "nombre_trajet_moyen": 2.93, "transport_legende": "\ud83d\udeb2 \u2764\ufe0f Transilien \ud83d\ude86"}, "geometry": {"type": "Point", "coordinates": [2.46256580793126, 49.02341075826703]}}, {"type": "Feature", "properties": {"start": "Viry-Ch\u00e2tillon", "stop_name": "Villiers-le-Bel - Gonesse - Arnouville", "type": "Gare accessible", "transport": "transilien", "nombre_trajet_moyen": 6.0, "transport_legende": "\ud83d\udeb2 \u2764\ufe0f Transilien \ud83d\ude86"}, "geometry": {"type": "Point", "coordinates": [2.416246795897305, 48.99377204005172]}}, {"type": "Feature", "properties": {"start": "Viry-Ch\u00e2tillon", "stop_name": "Garges - Sarcelles", "type": "Gare accessible", "transport": "transilien", "nombre_trajet_moyen": 6.0, "transport_legende": "\ud83d\udeb2 \u2764\ufe0f Transilien \ud83d\ude86"}, "geometry": {"type": "Point", "coordinates": [2.3899547555239407, 48.97632635843972]}}, {"type": "Feature", "properties": {"start": "Viry-Ch\u00e2tillon", "stop_name": "Pierrefitte - Stains", "type": "Gare accessible", "transport": "transilien", "nombre_trajet_moyen": 6.0, "transport_legende": "\ud83d\udeb2 \u2764\ufe0f Transilien \ud83d\ude86"}, "geometry": {"type": "Point", "coordinates": [2.3703314284767747, 48.96277628555098]}}, {"type": "Feature", "properties": {"start": "Viry-Ch\u00e2tillon", "stop_name": "Saint-Denis", "type": "Gare accessible", "transport": "transilien", "nombre_trajet_moyen": 6.0, "transport_legende": "\ud83d\udeb2 \u2764\ufe0f Transilien \ud83d\ude86"}, "geometry": {"type": "Point", "coordinates": [2.345479004987329, 48.93482889939617]}}, {"type": "Feature", "properties": {"start": "Viry-Ch\u00e2tillon", "stop_name": "Stade de France Saint-Denis", "type": "Gare accessible", "transport": "transilien", "nombre_trajet_moyen": 6.33, "transport_legende": "\ud83d\udeb2 \u2764\ufe0f Transilien \ud83d\ude86"}, "geometry": {"type": "Point", "coordinates": [2.3504430479100207, 48.91769737260247]}}, {"type": "Feature", "properties": {"start": "Viry-Ch\u00e2tillon", "stop_name": "Gare du Nord", "type": "Gare accessible", "transport": "transilien", "nombre_trajet_moyen": 6.33, "transport_legende": "\ud83d\udeb2 \u2764\ufe0f Transilien \ud83d\ude86"}, "geometry": {"type": "Point", "coordinates": [2.356693437528564, 48.88230685842714]}}, {"type": "Feature", "properties": {"start": "Viry-Ch\u00e2tillon", "stop_name": "Ch\u00e2telet les Halles", "type": "Gare accessible", "transport": "transilien", "nombre_trajet_moyen": 6.33, "transport_legende": "\ud83d\udeb2 \u2764\ufe0f Transilien \ud83d\ude86"}, "geometry": {"type": "Point", "coordinates": [2.34697651043533, 48.86174503191322]}}, {"type": "Feature", "properties": {"start": "Viry-Ch\u00e2tillon", "stop_name": "Gare de Lyon", "type": "Gare accessible", "transport": "transilien", "nombre_trajet_moyen": 6.63, "transport_legende": "\ud83d\udeb2 \u2764\ufe0f Transilien \ud83d\ude86"}, "geometry": {"type": "Point", "coordinates": [2.376365660931201, 48.84340211646564]}}, {"type": "Feature", "properties": {"start": "Viry-Ch\u00e2tillon", "stop_name": "Maisons-Alfort - Alfortville", "type": "Gare accessible", "transport": "transilien", "nombre_trajet_moyen": 6.53, "transport_legende": "\ud83d\udeb2 \u2764\ufe0f Transilien \ud83d\ude86"}, "geometry": {"type": "Point", "coordinates": [2.4264376603578035, 48.80217813521484]}}, {"type": "Feature", "properties": {"start": "Viry-Ch\u00e2tillon", "stop_name": "Villeneuve-Saint-Georges", "type": "Gare accessible", "transport": "transilien", "nombre_trajet_moyen": 6.63, "transport_legende": "\ud83d\udeb2 \u2764\ufe0f Transilien \ud83d\ude86"}, "geometry": {"type": "Point", "coordinates": [2.446304786739812, 48.730080267741016]}}, {"type": "Feature", "properties": {"start": "Viry-Ch\u00e2tillon", "stop_name": "Vigneux-sur-Seine", "type": "Gare accessible", "transport": "transilien", "nombre_trajet_moyen": 6.63, "transport_legende": "\ud83d\udeb2 \u2764\ufe0f Transilien \ud83d\ude86"}, "geometry": {"type": "Point", "coordinates": [2.413499342148242, 48.70808932141768]}}, {"type": "Feature", "properties": {"start": "Viry-Ch\u00e2tillon", "stop_name": "Grigny Centre", "type": "Gare accessible", "transport": "transilien", "nombre_trajet_moyen": 6.83, "transport_legende": "\ud83d\udeb2 \u2764\ufe0f Transilien \ud83d\ude86"}, "geometry": {"type": "Point", "coordinates": [2.39678605544789, 48.65484195083382]}}, {"type": "Feature", "properties": {"start": "Viry-Ch\u00e2tillon", "stop_name": "Orangis Bois de l'\u00c9pine", "type": "Gare accessible", "transport": "transilien", "nombre_trajet_moyen": 6.97, "transport_legende": "\ud83d\udeb2 \u2764\ufe0f Transilien \ud83d\ude86"}, "geometry": {"type": "Point", "coordinates": [2.40769076622141, 48.6363396147683]}}, {"type": "Feature", "properties": {"start": "Viry-Ch\u00e2tillon", "stop_name": "\u00c9vry - Courcouronnes", "type": "Gare accessible", "transport": "transilien", "nombre_trajet_moyen": 6.83, "transport_legende": "\ud83d\udeb2 \u2764\ufe0f Transilien \ud83d\ude86"}, "geometry": {"type": "Point", "coordinates": [2.430032909521453, 48.62588794663492]}}, {"type": "Feature", "properties": {"start": "Viry-Ch\u00e2tillon", "stop_name": "Le Bras de Fer", "type": "Gare accessible", "transport": "transilien", "nombre_trajet_moyen": 6.97, "transport_legende": "\ud83d\udeb2 \u2764\ufe0f Transilien \ud83d\ude86"}, "geometry": {"type": "Point", "coordinates": [2.4520047548737254, 48.62330639719716]}}, {"type": "Feature", "properties": {"start": "Viry-Ch\u00e2tillon", "stop_name": "Villeneuve Triage", "type": "Gare accessible", "transport": "transilien", "nombre_trajet_moyen": 6.57, "transport_legende": "\ud83d\udeb2 \u2764\ufe0f Transilien \ud83d\ude86"}, "geometry": {"type": "Point", "coordinates": [2.438697833840877, 48.74461113914048]}}, {"type": "Feature", "properties": {"start": "Viry-Ch\u00e2tillon", "stop_name": "Cr\u00e9teil Pompadour", "type": "Gare accessible", "transport": "transilien", "nombre_trajet_moyen": 6.5, "transport_legende": "\ud83d\udeb2 \u2764\ufe0f Transilien \ud83d\ude86"}, "geometry": {"type": "Point", "coordinates": [2.435080408386999, 48.77100562083573]}}, {"type": "Feature", "properties": {"start": "Viry-Ch\u00e2tillon", "stop_name": "Le Vert de Maisons", "type": "Gare accessible", "transport": "transilien", "nombre_trajet_moyen": 6.47, "transport_legende": "\ud83d\udeb2 \u2764\ufe0f Transilien \ud83d\ude86"}, "geometry": {"type": "Point", "coordinates": [2.4321242678299977, 48.78883131123265]}}, {"type": "Feature", "properties": {"start": "Viry-Ch\u00e2tillon", "stop_name": "Paris Gare de Lyon", "type": "Gare accessible", "transport": "transilien", "nombre_trajet_moyen": 0.0, "transport_legende": "\ud83d\udeb2 \u2764\ufe0f Transilien \ud83d\ude86"}, "geometry": {"type": "Point", "coordinates": [2.3754276162953336, 48.84265525074534]}}, {"type": "Feature", "properties": {"start": "Viry-Ch\u00e2tillon", "stop_name": "Gare de Villeneuve", "type": "Gare accessible", "transport": "transilien", "nombre_trajet_moyen": 0.13, "transport_legende": "\ud83d\udeb2 \u2764\ufe0f Transilien \ud83d\ude86"}, "geometry": {"type": "Point", "coordinates": [2.44708425278972, 48.72965664548239]}}, {"type": "Feature", "properties": {"start": "Viry-Ch\u00e2tillon", "stop_name": "Gare Routi\u00e8re Seine", "type": "Gare accessible", "transport": "transilien", "nombre_trajet_moyen": 0.13, "transport_legende": "\ud83d\udeb2 \u2764\ufe0f Transilien \ud83d\ude86"}, "geometry": {"type": "Point", "coordinates": [2.386162705105628, 48.69009728241674]}}, {"type": "Feature", "properties": {"start": "Viry-Ch\u00e2tillon", "stop_name": "\u00c9vry Courcouronnes", "type": "Gare accessible", "transport": "transilien", "nombre_trajet_moyen": 0.13, "transport_legende": "\ud83d\udeb2 \u2764\ufe0f Transilien \ud83d\ude86"}, "geometry": {"type": "Point", "coordinates": [2.428606857645351, 48.62527434930175]}}, {"type": "Feature", "properties": {"start": "Viry-Ch\u00e2tillon", "stop_name": "Champs Elys\u00e9es - Grand Bourg", "type": "Gare accessible", "transport": "transilien", "nombre_trajet_moyen": 0.13, "transport_legende": "\ud83d\udeb2 \u2764\ufe0f Transilien \ud83d\ude86"}, "geometry": {"type": "Point", "coordinates": [2.4316274001786238, 48.64326115549505]}}, {"type": "Feature", "properties": {"start": "Viry-Ch\u00e2tillon", "stop_name": "\u00c9vry", "type": "Gare accessible", "transport": "transilien", "nombre_trajet_moyen": 0.13, "transport_legende": "\ud83d\udeb2 \u2764\ufe0f Transilien \ud83d\ude86"}, "geometry": {"type": "Point", "coordinates": [2.451902623544602, 48.63454992216828]}}]}