{"type": "FeatureCollection", "features": [{"type": "Feature", "properties": {"start": "\u00c9pinay - Villetaneuse", "stop_name": "\u00c9pinay - Villetaneuse", "type": "Gare s\u00e9lectionn\u00e9e", "transport": "transilien", "nombre_trajet_moyen": 2.47, "transport_legende": "\ud83d\udeb2 \u2764\ufe0f Transilien \ud83d\ude86"}, "geometry": {"type": "Point", "coordinates": [2.3287601965958715, 48.95792884911306]}}, {"type": "Feature", "properties": {"start": "\u00c9pinay - Villetaneuse", "stop_name": "\u00c9pinay-sur-Seine", "type": "Gare accessible", "transport": "transilien", "nombre_trajet_moyen": 1.5, "transport_legende": "\ud83d\udeb2 \u2764\ufe0f Transilien \ud83d\ude86"}, "geometry": {"type": "Point", "coordinates": [2.302388375122374, 48.95382604164122]}}, {"type": "Feature", "properties": {"start": "\u00c9pinay - Villetaneuse", "stop_name": "Villetaneuse Universit\u00e9", "type": "Gare accessible", "transport": "transilien", "nombre_trajet_moyen": 1.5, "transport_legende": "\ud83d\udeb2 \u2764\ufe0f Transilien \ud83d\ude86"}, "geometry": {"type": "Point", "coordinates": [2.3419700953709217, 48.9597196726106]}}, {"type": "Feature", "properties": {"start": "\u00c9pinay - Villetaneuse", "stop_name": "Pierrefitte - Stains", "type": "Gare accessible", "transport": "transilien", "nombre_trajet_moyen": 1.5, "transport_legende": "\ud83d\udeb2 \u2764\ufe0f Transilien \ud83d\ude86"}, "geometry": {"type": "Point", "coordinates": [2.3703314284767747, 48.96277628555098]}}, {"type": "Feature", "properties": {"start": "\u00c9pinay - Villetaneuse", "stop_name": "Stains la Cerisaie", "type": "Gare accessible", "transport": "transilien", "nombre_trajet_moyen": 1.5, "transport_legende": "\ud83d\udeb2 \u2764\ufe0f Transilien \ud83d\ude86"}, "geometry": {"type": "Point", "coordinates": [2.391751538657703, 48.954694847106445]}}, {"type": "Feature", "properties": {"start": "\u00c9pinay - Villetaneuse", "stop_name": "Dugny - La Courneuve", "type": "Gare accessible", "transport": "transilien", "nombre_trajet_moyen": 1.5, "transport_legende": "\ud83d\udeb2 \u2764\ufe0f Transilien \ud83d\ude86"}, "geometry": {"type": "Point", "coordinates": [2.41104524117172, 48.94391001020698]}}, {"type": "Feature", "properties": {"start": "\u00c9pinay - Villetaneuse", "stop_name": "Le Bourget", "type": "Gare accessible", "transport": "transilien", "nombre_trajet_moyen": 1.5, "transport_legende": "\ud83d\udeb2 \u2764\ufe0f Transilien \ud83d\ude86"}, "geometry": {"type": "Point", "coordinates": [2.425825637815098, 48.930744340383264]}}, {"type": "Feature", "properties": {"start": "\u00c9pinay - Villetaneuse", "stop_name": "Luzarches", "type": "Gare accessible", "transport": "transilien", "nombre_trajet_moyen": 0.33, "transport_legende": "\ud83d\udeb2 \u2764\ufe0f Transilien \ud83d\ude86"}, "geometry": {"type": "Point", "coordinates": [2.4200435326085863, 49.117099228494695]}}, {"type": "Feature", "properties": {"start": "\u00c9pinay - Villetaneuse", "stop_name": "Seugy", "type": "Gare accessible", "transport": "transilien", "nombre_trajet_moyen": 0.33, "transport_legende": "\ud83d\udeb2 \u2764\ufe0f Transilien \ud83d\ude86"}, "geometry": {"type": "Point", "coordinates": [2.3996583056293246, 49.11912737513361]}}, {"type": "Feature", "properties": {"start": "\u00c9pinay - Villetaneuse", "stop_name": "Viarmes", "type": "Gare accessible", "transport": "transilien", "nombre_trajet_moyen": 0.33, "transport_legende": "\ud83d\udeb2 \u2764\ufe0f Transilien \ud83d\ude86"}, "geometry": {"type": "Point", "coordinates": [2.368237642296928, 49.11663481669089]}}, {"type": "Feature", "properties": {"start": "\u00c9pinay - Villetaneuse", "stop_name": "Belloy - Saint-Martin", "type": "Gare accessible", "transport": "transilien", "nombre_trajet_moyen": 0.33, "transport_legende": "\ud83d\udeb2 \u2764\ufe0f Transilien \ud83d\ude86"}, "geometry": {"type": "Point", "coordinates": [2.3613265147338978, 49.09838940491585]}}, {"type": "Feature", "properties": {"start": "\u00c9pinay - Villetaneuse", "stop_name": "Villaines", "type": "Gare accessible", "transport": "transilien", "nombre_trajet_moyen": 0.33, "transport_legende": "\ud83d\udeb2 \u2764\ufe0f Transilien \ud83d\ude86"}, "geometry": {"type": "Point", "coordinates": [2.3505357370070645, 49.07926437056656]}}, {"type": "Feature", "properties": {"start": "\u00c9pinay - Villetaneuse", "stop_name": "Montsoult - Maffliers", "type": "Gare accessible", "transport": "transilien", "nombre_trajet_moyen": 0.5, "transport_legende": "\ud83d\udeb2 \u2764\ufe0f Transilien \ud83d\ude86"}, "geometry": {"type": "Point", "coordinates": [2.3228219079408823, 49.06616021905701]}}, {"type": "Feature", "properties": {"start": "\u00c9pinay - Villetaneuse", "stop_name": "Bouff\u00e9mont - Moisselles", "type": "Gare accessible", "transport": "transilien", "nombre_trajet_moyen": 0.5, "transport_legende": "\ud83d\udeb2 \u2764\ufe0f Transilien \ud83d\ude86"}, "geometry": {"type": "Point", "coordinates": [2.3229000286671555, 49.045103567466136]}}, {"type": "Feature", "properties": {"start": "\u00c9pinay - Villetaneuse", "stop_name": "Domont", "type": "Gare accessible", "transport": "transilien", "nombre_trajet_moyen": 0.5, "transport_legende": "\ud83d\udeb2 \u2764\ufe0f Transilien \ud83d\ude86"}, "geometry": {"type": "Point", "coordinates": [2.3371269712571614, 49.03284003832482]}}, {"type": "Feature", "properties": {"start": "\u00c9pinay - Villetaneuse", "stop_name": "\u00c9couen - \u00c9zanville", "type": "Gare accessible", "transport": "transilien", "nombre_trajet_moyen": 0.5, "transport_legende": "\ud83d\udeb2 \u2764\ufe0f Transilien \ud83d\ude86"}, "geometry": {"type": "Point", "coordinates": [2.362236789305572, 49.02319914892831]}}, {"type": "Feature", "properties": {"start": "\u00c9pinay - Villetaneuse", "stop_name": "Sarcelles - Saint-Brice", "type": "Gare accessible", "transport": "transilien", "nombre_trajet_moyen": 0.73, "transport_legende": "\ud83d\udeb2 \u2764\ufe0f Transilien \ud83d\ude86"}, "geometry": {"type": "Point", "coordinates": [2.3686856352535357, 48.99620491669132]}}, {"type": "Feature", "properties": {"start": "\u00c9pinay - Villetaneuse", "stop_name": "Groslay", "type": "Gare accessible", "transport": "transilien", "nombre_trajet_moyen": 0.73, "transport_legende": "\ud83d\udeb2 \u2764\ufe0f Transilien \ud83d\ude86"}, "geometry": {"type": "Point", "coordinates": [2.3535217052321715, 48.98436467954606]}}, {"type": "Feature", "properties": {"start": "\u00c9pinay - Villetaneuse", "stop_name": "Deuil - Montmagny", "type": "Gare accessible", "transport": "transilien", "nombre_trajet_moyen": 0.73, "transport_legende": "\ud83d\udeb2 \u2764\ufe0f Transilien \ud83d\ude86"}, "geometry": {"type": "Point", "coordinates": [2.338131209772398, 48.97592570310552]}}, {"type": "Feature", "properties": {"start": "\u00c9pinay - Villetaneuse", "stop_name": "Saint-Denis", "type": "Gare accessible", "transport": "transilien", "nombre_trajet_moyen": 1.0, "transport_legende": "\ud83d\udeb2 \u2764\ufe0f Transilien \ud83d\ude86"}, "geometry": {"type": "Point", "coordinates": [2.345479004987329, 48.93482889939617]}}, {"type": "Feature", "properties": {"start": "\u00c9pinay - Villetaneuse", "stop_name": "Gare du Nord", "type": "Gare accessible", "transport": "transilien", "nombre_trajet_moyen": 1.0, "transport_legende": "\ud83d\udeb2 \u2764\ufe0f Transilien \ud83d\ude86"}, "geometry": {"type": "Point", "coordinates": [2.356693437528564, 48.88230685842714]}}, {"type": "Feature", "properties": {"start": "\u00c9pinay - Villetaneuse", "stop_name": "Pontoise", "type": "Gare accessible", "transport": "transilien", "nombre_trajet_moyen": 0.77, "transport_legende": "\ud83d\udeb2 \u2764\ufe0f Transilien \ud83d\ude86"}, "geometry": {"type": "Point", "coordinates": [2.0957859968423524, 49.04673337596684]}}, {"type": "Feature", "properties": {"start": "\u00c9pinay - Villetaneuse", "stop_name": "Saint-Ouen-l'Aum\u00f4ne", "type": "Gare accessible", "transport": "transilien", "nombre_trajet_moyen": 0.77, "transport_legende": "\ud83d\udeb2 \u2764\ufe0f Transilien \ud83d\ude86"}, "geometry": {"type": "Point", "coordinates": [2.105230857870794, 49.04530690087292]}}, {"type": "Feature", "properties": {"start": "\u00c9pinay - Villetaneuse", "stop_name": "Saint-Ouen-l'Aum\u00f4ne Liesse", "type": "Gare accessible", "transport": "transilien", "nombre_trajet_moyen": 0.77, "transport_legende": "\ud83d\udeb2 \u2764\ufe0f Transilien \ud83d\ude86"}, "geometry": {"type": "Point", "coordinates": [2.128124092657316, 49.0341234164973]}}, {"type": "Feature", "properties": {"start": "\u00c9pinay - Villetaneuse", "stop_name": "Pierrelaye", "type": "Gare accessible", "transport": "transilien", "nombre_trajet_moyen": 0.77, "transport_legende": "\ud83d\udeb2 \u2764\ufe0f Transilien \ud83d\ude86"}, "geometry": {"type": "Point", "coordinates": [2.1545313948758564, 49.01917957374756]}}, {"type": "Feature", "properties": {"start": "\u00c9pinay - Villetaneuse", "stop_name": "Montigny - Beauchamp", "type": "Gare accessible", "transport": "transilien", "nombre_trajet_moyen": 0.77, "transport_legende": "\ud83d\udeb2 \u2764\ufe0f Transilien \ud83d\ude86"}, "geometry": {"type": "Point", "coordinates": [2.1965151756043038, 49.007744118117]}}, {"type": "Feature", "properties": {"start": "\u00c9pinay - Villetaneuse", "stop_name": "Franconville - Le Plessis-Bouchard", "type": "Gare accessible", "transport": "transilien", "nombre_trajet_moyen": 0.77, "transport_legende": "\ud83d\udeb2 \u2764\ufe0f Transilien \ud83d\ude86"}, "geometry": {"type": "Point", "coordinates": [2.2341907839306554, 48.99374640051787]}}, {"type": "Feature", "properties": {"start": "\u00c9pinay - Villetaneuse", "stop_name": "Cernay", "type": "Gare accessible", "transport": "transilien", "nombre_trajet_moyen": 0.77, "transport_legende": "\ud83d\udeb2 \u2764\ufe0f Transilien \ud83d\ude86"}, "geometry": {"type": "Point", "coordinates": [2.257017857907824, 48.985149200200375]}}, {"type": "Feature", "properties": {"start": "\u00c9pinay - Villetaneuse", "stop_name": "Ermont - Eaubonne", "type": "Gare accessible", "transport": "transilien", "nombre_trajet_moyen": 0.8, "transport_legende": "\ud83d\udeb2 \u2764\ufe0f Transilien \ud83d\ude86"}, "geometry": {"type": "Point", "coordinates": [2.2707541014797794, 48.98049890628609]}}, {"type": "Feature", "properties": {"start": "\u00c9pinay - Villetaneuse", "stop_name": "Champ de Courses d'Enghien", "type": "Gare accessible", "transport": "transilien", "nombre_trajet_moyen": 0.8, "transport_legende": "\ud83d\udeb2 \u2764\ufe0f Transilien \ud83d\ude86"}, "geometry": {"type": "Point", "coordinates": [2.291148632256432, 48.9796949197308]}}, {"type": "Feature", "properties": {"start": "\u00c9pinay - Villetaneuse", "stop_name": "Enghien-les-Bains", "type": "Gare accessible", "transport": "transilien", "nombre_trajet_moyen": 0.8, "transport_legende": "\ud83d\udeb2 \u2764\ufe0f Transilien \ud83d\ude86"}, "geometry": {"type": "Point", "coordinates": [2.306793374168272, 48.97288052394267]}}, {"type": "Feature", "properties": {"start": "\u00c9pinay - Villetaneuse", "stop_name": "La Barre Ormesson", "type": "Gare accessible", "transport": "transilien", "nombre_trajet_moyen": 0.8, "transport_legende": "\ud83d\udeb2 \u2764\ufe0f Transilien \ud83d\ude86"}, "geometry": {"type": "Point", "coordinates": [2.3167036448125224, 48.96628415206348]}}, {"type": "Feature", "properties": {"start": "\u00c9pinay - Villetaneuse", "stop_name": "Presles - Courcelles", "type": "Gare accessible", "transport": "transilien", "nombre_trajet_moyen": 0.5, "transport_legende": "\ud83d\udeb2 \u2764\ufe0f Transilien \ud83d\ude86"}, "geometry": {"type": "Point", "coordinates": [2.2878509419549213, 49.11367528279733]}}, {"type": "Feature", "properties": {"start": "\u00c9pinay - Villetaneuse", "stop_name": "Nointel - Mours", "type": "Gare accessible", "transport": "transilien", "nombre_trajet_moyen": 0.5, "transport_legende": "\ud83d\udeb2 \u2764\ufe0f Transilien \ud83d\ude86"}, "geometry": {"type": "Point", "coordinates": [2.2799576391232472, 49.13282894869498]}}, {"type": "Feature", "properties": {"start": "\u00c9pinay - Villetaneuse", "stop_name": "Persan - Beaumont", "type": "Gare accessible", "transport": "transilien", "nombre_trajet_moyen": 0.7, "transport_legende": "\ud83d\udeb2 \u2764\ufe0f Transilien \ud83d\ude86"}, "geometry": {"type": "Point", "coordinates": [2.2777997330536137, 49.14758294460079]}}, {"type": "Feature", "properties": {"start": "\u00c9pinay - Villetaneuse", "stop_name": "Saint-Leu-la-For\u00eat", "type": "Gare accessible", "transport": "transilien", "nombre_trajet_moyen": 0.53, "transport_legende": "\ud83d\udeb2 \u2764\ufe0f Transilien \ud83d\ude86"}, "geometry": {"type": "Point", "coordinates": [2.2428869689226687, 49.01523840177278]}}, {"type": "Feature", "properties": {"start": "\u00c9pinay - Villetaneuse", "stop_name": "Gros Noyer Saint-Prix", "type": "Gare accessible", "transport": "transilien", "nombre_trajet_moyen": 0.53, "transport_legende": "\ud83d\udeb2 \u2764\ufe0f Transilien \ud83d\ude86"}, "geometry": {"type": "Point", "coordinates": [2.2596836105712628, 48.99607903406629]}}, {"type": "Feature", "properties": {"start": "\u00c9pinay - Villetaneuse", "stop_name": "Ermont Halte", "type": "Gare accessible", "transport": "transilien", "nombre_trajet_moyen": 0.53, "transport_legende": "\ud83d\udeb2 \u2764\ufe0f Transilien \ud83d\ude86"}, "geometry": {"type": "Point", "coordinates": [2.26320025038274, 48.990533377371726]}}, {"type": "Feature", "properties": {"start": "\u00c9pinay - Villetaneuse", "stop_name": "Champagne-sur-Oise", "type": "Gare accessible", "transport": "transilien", "nombre_trajet_moyen": 0.5, "transport_legende": "\ud83d\udeb2 \u2764\ufe0f Transilien \ud83d\ude86"}, "geometry": {"type": "Point", "coordinates": [2.242987667830016, 49.136089580289706]}}, {"type": "Feature", "properties": {"start": "\u00c9pinay - Villetaneuse", "stop_name": "L'Isle-Adam - Parmain", "type": "Gare accessible", "transport": "transilien", "nombre_trajet_moyen": 0.5, "transport_legende": "\ud83d\udeb2 \u2764\ufe0f Transilien \ud83d\ude86"}, "geometry": {"type": "Point", "coordinates": [2.209941858169547, 49.11454854558362]}}, {"type": "Feature", "properties": {"start": "\u00c9pinay - Villetaneuse", "stop_name": "Valmondois", "type": "Gare accessible", "transport": "transilien", "nombre_trajet_moyen": 0.53, "transport_legende": "\ud83d\udeb2 \u2764\ufe0f Transilien \ud83d\ude86"}, "geometry": {"type": "Point", "coordinates": [2.2019152338634327, 49.09093718795672]}}, {"type": "Feature", "properties": {"start": "\u00c9pinay - Villetaneuse", "stop_name": "M\u00e9riel", "type": "Gare accessible", "transport": "transilien", "nombre_trajet_moyen": 0.53, "transport_legende": "\ud83d\udeb2 \u2764\ufe0f Transilien \ud83d\ude86"}, "geometry": {"type": "Point", "coordinates": [2.205438463461229, 49.07775311707399]}}, {"type": "Feature", "properties": {"start": "\u00c9pinay - Villetaneuse", "stop_name": "M\u00e9ry-sur-Oise", "type": "Gare accessible", "transport": "transilien", "nombre_trajet_moyen": 0.53, "transport_legende": "\ud83d\udeb2 \u2764\ufe0f Transilien \ud83d\ude86"}, "geometry": {"type": "Point", "coordinates": [2.19141823646768, 49.058277435287074]}}, {"type": "Feature", "properties": {"start": "\u00c9pinay - Villetaneuse", "stop_name": "Fr\u00e9pillon", "type": "Gare accessible", "transport": "transilien", "nombre_trajet_moyen": 0.53, "transport_legende": "\ud83d\udeb2 \u2764\ufe0f Transilien \ud83d\ude86"}, "geometry": {"type": "Point", "coordinates": [2.197098920791642, 49.04527720662213]}}, {"type": "Feature", "properties": {"start": "\u00c9pinay - Villetaneuse", "stop_name": "Bessancourt", "type": "Gare accessible", "transport": "transilien", "nombre_trajet_moyen": 0.53, "transport_legende": "\ud83d\udeb2 \u2764\ufe0f Transilien \ud83d\ude86"}, "geometry": {"type": "Point", "coordinates": [2.2103009348975013, 49.03527556641014]}}, {"type": "Feature", "properties": {"start": "\u00c9pinay - Villetaneuse", "stop_name": "Taverny", "type": "Gare accessible", "transport": "transilien", "nombre_trajet_moyen": 0.53, "transport_legende": "\ud83d\udeb2 \u2764\ufe0f Transilien \ud83d\ude86"}, "geometry": {"type": "Point", "coordinates": [2.222287008769188, 49.0249763828466]}}, {"type": "Feature", "properties": {"start": "\u00c9pinay - Villetaneuse", "stop_name": "Vaucelles", "type": "Gare accessible", "transport": "transilien", "nombre_trajet_moyen": 0.53, "transport_legende": "\ud83d\udeb2 \u2764\ufe0f Transilien \ud83d\ude86"}, "geometry": {"type": "Point", "coordinates": [2.2294526219892656, 49.02172683988197]}}]}