{"type": "FeatureCollection", "features": [{"type": "Feature", "properties": {"start": "Aiguebelle", "stop_name": "Aiguebelle", "type": "Gare s\u00e9lectionn\u00e9e", "transport": "TER", "transport_legende": "\ud83d\udeb2 \u2764\ufe0f Train TER \ud83d\ude86"}, "geometry": {"type": "Point", "coordinates": [6.306737, 45.543703]}}, {"type": "Feature", "properties": {"start": "Aiguebelle", "stop_name": "Modane", "type": "Gare accessible", "transport": "TER", "transport_legende": "\ud83d\udeb2 \u2764\ufe0f Train TER \ud83d\ude86"}, "geometry": {"type": "Point", "coordinates": [6.659139, 45.193555]}}, {"type": "Feature", "properties": {"start": "Aiguebelle", "stop_name": "Saint-Michel - Valloire", "type": "Gare accessible", "transport": "TER", "transport_legende": "\ud83d\udeb2 \u2764\ufe0f Train TER \ud83d\ude86"}, "geometry": {"type": "Point", "coordinates": [6.471914, 45.216916]}}, {"type": "Feature", "properties": {"start": "Aiguebelle", "stop_name": "Saint-Jean-de-Maurienne Arvan", "type": "Gare accessible", "transport": "TER", "transport_legende": "\ud83d\udeb2 \u2764\ufe0f Train TER \ud83d\ude86"}, "geometry": {"type": "Point", "coordinates": [6.354716, 45.277542]}}, {"type": "Feature", "properties": {"start": "Aiguebelle", "stop_name": "Saint-Avre - La Chambre", "type": "Gare accessible", "transport": "TER", "transport_legende": "\ud83d\udeb2 \u2764\ufe0f Train TER \ud83d\ude86"}, "geometry": {"type": "Point", "coordinates": [6.302867, 45.35312]}}, {"type": "Feature", "properties": {"start": "Aiguebelle", "stop_name": "\u00c9pierre - Saint-L\u00e9ger", "type": "Gare accessible", "transport": "TER", "transport_legende": "\ud83d\udeb2 \u2764\ufe0f Train TER \ud83d\ude86"}, "geometry": {"type": "Point", "coordinates": [6.292486, 45.457008]}}, {"type": "Feature", "properties": {"start": "Aiguebelle", "stop_name": "Chamousset", "type": "Gare accessible", "transport": "TER", "transport_legende": "\ud83d\udeb2 \u2764\ufe0f Train TER \ud83d\ude86"}, "geometry": {"type": "Point", "coordinates": [6.206743, 45.557574]}}, {"type": "Feature", "properties": {"start": "Aiguebelle", "stop_name": "Saint-Pierre-d'Albigny", "type": "Gare accessible", "transport": "TER", "transport_legende": "\ud83d\udeb2 \u2764\ufe0f Train TER \ud83d\ude86"}, "geometry": {"type": "Point", "coordinates": [6.156289, 45.557399]}}, {"type": "Feature", "properties": {"start": "Aiguebelle", "stop_name": "Montm\u00e9lian", "type": "Gare accessible", "transport": "TER", "transport_legende": "\ud83d\udeb2 \u2764\ufe0f Train TER \ud83d\ude86"}, "geometry": {"type": "Point", "coordinates": [6.043175, 45.503082]}}, {"type": "Feature", "properties": {"start": "Aiguebelle", "stop_name": "Chamb\u00e9ry - Challes-les-Eaux", "type": "Gare accessible", "transport": "TER", "transport_legende": "\ud83d\udeb2 \u2764\ufe0f Train TER \ud83d\ude86"}, "geometry": {"type": "Point", "coordinates": [5.919547, 45.571302]}}, {"type": "Feature", "properties": {"start": "Aiguebelle", "stop_name": "Pontamafrey", "type": "Gare accessible", "transport": "TER", "transport_legende": "\ud83d\udeb2 \u2764\ufe0f Train TER \ud83d\ude86"}, "geometry": {"type": "Point", "coordinates": [6.340528, 45.31251]}}, {"type": "Feature", "properties": {"start": "Aiguebelle", "stop_name": "Saint-\u00c9tienne-de-Cuines", "type": "Gare accessible", "transport": "TER", "transport_legende": "\ud83d\udeb2 \u2764\ufe0f Train TER \ud83d\ude86"}, "geometry": {"type": "Point", "coordinates": [6.291754, 45.342056]}}, {"type": "Feature", "properties": {"start": "Aiguebelle", "stop_name": "La Chambre", "type": "Gare accessible", "transport": "TER", "transport_legende": "\ud83d\udeb2 \u2764\ufe0f Train TER \ud83d\ude86"}, "geometry": {"type": "Point", "coordinates": [6.299657, 45.359174]}}, {"type": "Feature", "properties": {"start": "Aiguebelle", "stop_name": "Les Chavannes-Saint-R\u00e9my", "type": "Gare accessible", "transport": "TER", "transport_legende": "\ud83d\udeb2 \u2764\ufe0f Train TER \ud83d\ude86"}, "geometry": {"type": "Point", "coordinates": [6.275897, 45.387608]}}, {"type": "Feature", "properties": {"start": "Aiguebelle", "stop_name": "Argentine", "type": "Gare accessible", "transport": "TER", "transport_legende": "\ud83d\udeb2 \u2764\ufe0f Train TER \ud83d\ude86"}, "geometry": {"type": "Point", "coordinates": [6.313534, 45.493232]}}, {"type": "Feature", "properties": {"start": "Aiguebelle", "stop_name": "Argentine-Gemelly-ou-Stade", "type": "Gare accessible", "transport": "TER", "transport_legende": "\ud83d\udeb2 \u2764\ufe0f Train TER \ud83d\ude86"}, "geometry": {"type": "Point", "coordinates": [6.313834, 45.493131]}}, {"type": "Feature", "properties": {"start": "Aiguebelle", "stop_name": "Aiton-Salle-Polyvalente", "type": "Gare accessible", "transport": "TER", "transport_legende": "\ud83d\udeb2 \u2764\ufe0f Train TER \ud83d\ude86"}, "geometry": {"type": "Point", "coordinates": [6.254831, 45.560231]}}]}