{"type": "FeatureCollection", "features": [{"type": "Feature", "properties": {"start": "Alteckendorf Eckendorf", "stop_name": "Alteckendorf Eckendorf", "type": "Gare s\u00e9lectionn\u00e9e", "transport": "TER", "nombre_trajet_moyen": 0.32, "transport_legende": "\ud83d\udeb2 \u2764\ufe0f Train TER \ud83d\ude86"}, "geometry": {"type": "Point", "coordinates": [7.601602, 48.789785]}}, {"type": "Feature", "properties": {"start": "Alteckendorf Eckendorf", "stop_name": "Sarreguemines", "type": "Gare accessible", "transport": "TER", "nombre_trajet_moyen": 0.21, "transport_legende": "\ud83d\udeb2 \u2764\ufe0f Train TER \ud83d\ude86"}, "geometry": {"type": "Point", "coordinates": [7.068576, 49.10738]}}, {"type": "Feature", "properties": {"start": "Alteckendorf Eckendorf", "stop_name": "Oermingen", "type": "Gare accessible", "transport": "TER", "nombre_trajet_moyen": 0.21, "transport_legende": "\ud83d\udeb2 \u2764\ufe0f Train TER \ud83d\ude86"}, "geometry": {"type": "Point", "coordinates": [7.131732, 49.000372]}}, {"type": "Feature", "properties": {"start": "Alteckendorf Eckendorf", "stop_name": "Diemeringen", "type": "Gare accessible", "transport": "TER", "nombre_trajet_moyen": 0.32, "transport_legende": "\ud83d\udeb2 \u2764\ufe0f Train TER \ud83d\ude86"}, "geometry": {"type": "Point", "coordinates": [7.185252, 48.940533]}}, {"type": "Feature", "properties": {"start": "Alteckendorf Eckendorf", "stop_name": "Adamswiller Mairie", "type": "Gare accessible", "transport": "TER", "nombre_trajet_moyen": 0.32, "transport_legende": "\ud83d\udeb2 \u2764\ufe0f Train TER \ud83d\ude86"}, "geometry": {"type": "Point", "coordinates": [7.201179, 48.903835]}}, {"type": "Feature", "properties": {"start": "Alteckendorf Eckendorf", "stop_name": "Adamswiller Lotissement la For\u00eat", "type": "Gare accessible", "transport": "TER", "nombre_trajet_moyen": 0.32, "transport_legende": "\ud83d\udeb2 \u2764\ufe0f Train TER \ud83d\ude86"}, "geometry": {"type": "Point", "coordinates": [7.208238, 48.905635]}}, {"type": "Feature", "properties": {"start": "Alteckendorf Eckendorf", "stop_name": "Tieffenbach - Struth", "type": "Gare accessible", "transport": "TER", "nombre_trajet_moyen": 0.32, "transport_legende": "\ud83d\udeb2 \u2764\ufe0f Train TER \ud83d\ude86"}, "geometry": {"type": "Point", "coordinates": [7.255418, 48.90636]}}, {"type": "Feature", "properties": {"start": "Alteckendorf Eckendorf", "stop_name": "Frohmuhl Lavoir", "type": "Gare accessible", "transport": "TER", "nombre_trajet_moyen": 0.32, "transport_legende": "\ud83d\udeb2 \u2764\ufe0f Train TER \ud83d\ude86"}, "geometry": {"type": "Point", "coordinates": [7.280985, 48.907795]}}, {"type": "Feature", "properties": {"start": "Alteckendorf Eckendorf", "stop_name": "Col de Puberg", "type": "Gare accessible", "transport": "TER", "nombre_trajet_moyen": 0.32, "transport_legende": "\ud83d\udeb2 \u2764\ufe0f Train TER \ud83d\ude86"}, "geometry": {"type": "Point", "coordinates": [7.318055, 48.916898]}}, {"type": "Feature", "properties": {"start": "Alteckendorf Eckendorf", "stop_name": "Wingen-sur-Moder", "type": "Gare accessible", "transport": "TER", "nombre_trajet_moyen": 0.32, "transport_legende": "\ud83d\udeb2 \u2764\ufe0f Train TER \ud83d\ude86"}, "geometry": {"type": "Point", "coordinates": [7.380538, 48.920092]}}, {"type": "Feature", "properties": {"start": "Alteckendorf Eckendorf", "stop_name": "Wimmenau D.919 - Rue de la Gare", "type": "Gare accessible", "transport": "TER", "nombre_trajet_moyen": 0.32, "transport_legende": "\ud83d\udeb2 \u2764\ufe0f Train TER \ud83d\ude86"}, "geometry": {"type": "Point", "coordinates": [7.420315, 48.910025]}}, {"type": "Feature", "properties": {"start": "Alteckendorf Eckendorf", "stop_name": "Ingwiller", "type": "Gare accessible", "transport": "TER", "nombre_trajet_moyen": 0.32, "transport_legende": "\ud83d\udeb2 \u2764\ufe0f Train TER \ud83d\ude86"}, "geometry": {"type": "Point", "coordinates": [7.477162, 48.872407]}}, {"type": "Feature", "properties": {"start": "Alteckendorf Eckendorf", "stop_name": "Menchhoffen Abri", "type": "Gare accessible", "transport": "TER", "nombre_trajet_moyen": 0.32, "transport_legende": "\ud83d\udeb2 \u2764\ufe0f Train TER \ud83d\ude86"}, "geometry": {"type": "Point", "coordinates": [7.496546, 48.858842]}}, {"type": "Feature", "properties": {"start": "Alteckendorf Eckendorf", "stop_name": "Obermodern", "type": "Gare accessible", "transport": "TER", "nombre_trajet_moyen": 0.32, "transport_legende": "\ud83d\udeb2 \u2764\ufe0f Train TER \ud83d\ude86"}, "geometry": {"type": "Point", "coordinates": [7.547135, 48.842587]}}, {"type": "Feature", "properties": {"start": "Alteckendorf Eckendorf", "stop_name": "Ettendorf", "type": "Gare accessible", "transport": "TER", "nombre_trajet_moyen": 0.32, "transport_legende": "\ud83d\udeb2 \u2764\ufe0f Train TER \ud83d\ude86"}, "geometry": {"type": "Point", "coordinates": [7.585288, 48.808186]}}, {"type": "Feature", "properties": {"start": "Alteckendorf Eckendorf", "stop_name": "Alteckendorf Altdorf", "type": "Gare accessible", "transport": "TER", "nombre_trajet_moyen": 0.32, "transport_legende": "\ud83d\udeb2 \u2764\ufe0f Train TER \ud83d\ude86"}, "geometry": {"type": "Point", "coordinates": [7.589267, 48.794562]}}, {"type": "Feature", "properties": {"start": "Alteckendorf Eckendorf", "stop_name": "Alteckendorf Mairie", "type": "Gare accessible", "transport": "TER", "nombre_trajet_moyen": 0.32, "transport_legende": "\ud83d\udeb2 \u2764\ufe0f Train TER \ud83d\ude86"}, "geometry": {"type": "Point", "coordinates": [7.594688, 48.792818]}}, {"type": "Feature", "properties": {"start": "Alteckendorf Eckendorf", "stop_name": "Minversheim Rue Principale", "type": "Gare accessible", "transport": "TER", "nombre_trajet_moyen": 0.32, "transport_legende": "\ud83d\udeb2 \u2764\ufe0f Train TER \ud83d\ude86"}, "geometry": {"type": "Point", "coordinates": [7.620869, 48.784366]}}, {"type": "Feature", "properties": {"start": "Alteckendorf Eckendorf", "stop_name": "Mommenheim", "type": "Gare accessible", "transport": "TER", "nombre_trajet_moyen": 0.32, "transport_legende": "\ud83d\udeb2 \u2764\ufe0f Train TER \ud83d\ude86"}, "geometry": {"type": "Point", "coordinates": [7.642303, 48.755951]}}, {"type": "Feature", "properties": {"start": "Alteckendorf Eckendorf", "stop_name": "Strasbourg", "type": "Gare accessible", "transport": "TER", "nombre_trajet_moyen": 0.32, "transport_legende": "\ud83d\udeb2 \u2764\ufe0f Train TER \ud83d\ude86"}, "geometry": {"type": "Point", "coordinates": [7.734793, 48.584532]}}]}