{"type": "FeatureCollection", "features": [{"type": "Feature", "properties": {"start": "Andr\u00e9zieux", "stop_name": "Andr\u00e9zieux", "type": "Gare s\u00e9lectionn\u00e9e", "transport": "TER", "transport_legende": "\ud83d\udeb2 \u2764\ufe0f Train TER \ud83d\ude86"}, "geometry": {"type": "Point", "coordinates": [4.255418, 45.521736]}}, {"type": "Feature", "properties": {"start": "Andr\u00e9zieux", "stop_name": "St-Etienne-Ch\u00e2tcrx. G Routi\u00e8re", "type": "Gare accessible", "transport": "TER", "transport_legende": "\ud83d\udeb2 \u2764\ufe0f Train TER \ud83d\ude86"}, "geometry": {"type": "Point", "coordinates": [4.401156, 45.442658]}}, {"type": "Feature", "properties": {"start": "Andr\u00e9zieux", "stop_name": "Saint-\u00c9tienne La Terrasse", "type": "Gare accessible", "transport": "TER", "transport_legende": "\ud83d\udeb2 \u2764\ufe0f Train TER \ud83d\ude86"}, "geometry": {"type": "Point", "coordinates": [4.379554, 45.464868]}}, {"type": "Feature", "properties": {"start": "Andr\u00e9zieux", "stop_name": "Bonson", "type": "Gare accessible", "transport": "TER", "transport_legende": "\ud83d\udeb2 \u2764\ufe0f Train TER \ud83d\ude86"}, "geometry": {"type": "Point", "coordinates": [4.21625, 45.522197]}}, {"type": "Feature", "properties": {"start": "Andr\u00e9zieux", "stop_name": "Sury-le-Comtal", "type": "Gare accessible", "transport": "TER", "transport_legende": "\ud83d\udeb2 \u2764\ufe0f Train TER \ud83d\ude86"}, "geometry": {"type": "Point", "coordinates": [4.182497, 45.52912]}}, {"type": "Feature", "properties": {"start": "Andr\u00e9zieux", "stop_name": "Saint-Romain-le-Puy", "type": "Gare accessible", "transport": "TER", "transport_legende": "\ud83d\udeb2 \u2764\ufe0f Train TER \ud83d\ude86"}, "geometry": {"type": "Point", "coordinates": [4.120989, 45.554576]}}, {"type": "Feature", "properties": {"start": "Andr\u00e9zieux", "stop_name": "Montbrison", "type": "Gare accessible", "transport": "TER", "transport_legende": "\ud83d\udeb2 \u2764\ufe0f Train TER \ud83d\ude86"}, "geometry": {"type": "Point", "coordinates": [4.07824, 45.604481]}}, {"type": "Feature", "properties": {"start": "Andr\u00e9zieux", "stop_name": "Bo\u00ebn", "type": "Gare accessible", "transport": "TER", "transport_legende": "\ud83d\udeb2 \u2764\ufe0f Train TER \ud83d\ude86"}, "geometry": {"type": "Point", "coordinates": [4.005061, 45.741386]}}, {"type": "Feature", "properties": {"start": "Andr\u00e9zieux", "stop_name": "Saint-\u00c9tienne Ch\u00e2teaucreux", "type": "Gare accessible", "transport": "TER", "transport_legende": "\ud83d\udeb2 \u2764\ufe0f Train TER \ud83d\ude86"}, "geometry": {"type": "Point", "coordinates": [4.399722, 45.443366]}}, {"type": "Feature", "properties": {"start": "Andr\u00e9zieux", "stop_name": "La Fouillouse", "type": "Gare accessible", "transport": "TER", "transport_legende": "\ud83d\udeb2 \u2764\ufe0f Train TER \ud83d\ude86"}, "geometry": {"type": "Point", "coordinates": [4.317084, 45.497768]}}]}