{"type": "FeatureCollection", "features": [{"type": "Feature", "properties": {"start": "Annemasse", "stop_name": "Annemasse", "type": "Gare s\u00e9lectionn\u00e9e", "transport": "TER", "nombre_trajet_moyen": 26.25, "transport_legende": "\ud83d\udeb2 \u2764\ufe0f Train TER \ud83d\ude86"}, "geometry": {"type": "Point", "coordinates": [6.236431, 46.199245]}}, {"type": "Feature", "properties": {"start": "Annemasse", "stop_name": "Lausanne", "type": "Gare accessible", "transport": "TER", "nombre_trajet_moyen": 0.75, "transport_legende": "\ud83d\udeb2 \u2764\ufe0f Train TER \ud83d\ude86"}, "geometry": {"type": "Point", "coordinates": [6.62909, 46.51679]}}, {"type": "Feature", "properties": {"start": "Annemasse", "stop_name": "Renens VD", "type": "Gare accessible", "transport": "TER", "nombre_trajet_moyen": 0.75, "transport_legende": "\ud83d\udeb2 \u2764\ufe0f Train TER \ud83d\ude86"}, "geometry": {"type": "Point", "coordinates": [6.57893, 46.53704]}}, {"type": "Feature", "properties": {"start": "Annemasse", "stop_name": "Morges", "type": "Gare accessible", "transport": "TER", "nombre_trajet_moyen": 0.75, "transport_legende": "\ud83d\udeb2 \u2764\ufe0f Train TER \ud83d\ude86"}, "geometry": {"type": "Point", "coordinates": [6.49396, 46.5111]}}, {"type": "Feature", "properties": {"start": "Annemasse", "stop_name": "Allaman", "type": "Gare accessible", "transport": "TER", "nombre_trajet_moyen": 0.75, "transport_legende": "\ud83d\udeb2 \u2764\ufe0f Train TER \ud83d\ude86"}, "geometry": {"type": "Point", "coordinates": [6.3997, 46.47575]}}, {"type": "Feature", "properties": {"start": "Annemasse", "stop_name": "Rolle", "type": "Gare accessible", "transport": "TER", "nombre_trajet_moyen": 0.75, "transport_legende": "\ud83d\udeb2 \u2764\ufe0f Train TER \ud83d\ude86"}, "geometry": {"type": "Point", "coordinates": [6.3364, 46.46275]}}, {"type": "Feature", "properties": {"start": "Annemasse", "stop_name": "Gland", "type": "Gare accessible", "transport": "TER", "nombre_trajet_moyen": 0.75, "transport_legende": "\ud83d\udeb2 \u2764\ufe0f Train TER \ud83d\ude86"}, "geometry": {"type": "Point", "coordinates": [6.269138, 46.419995]}}, {"type": "Feature", "properties": {"start": "Annemasse", "stop_name": "Nyon", "type": "Gare accessible", "transport": "TER", "nombre_trajet_moyen": 0.75, "transport_legende": "\ud83d\udeb2 \u2764\ufe0f Train TER \ud83d\ude86"}, "geometry": {"type": "Point", "coordinates": [6.23596, 46.38442]}}, {"type": "Feature", "properties": {"start": "Annemasse", "stop_name": "Coppet", "type": "Gare accessible", "transport": "TER", "nombre_trajet_moyen": 14.86, "transport_legende": "\ud83d\udeb2 \u2764\ufe0f Train TER \ud83d\ude86"}, "geometry": {"type": "Point", "coordinates": [6.187829, 46.317378]}}, {"type": "Feature", "properties": {"start": "Annemasse", "stop_name": "Gen\u00e8ve", "type": "Gare accessible", "transport": "TER", "nombre_trajet_moyen": 18.6, "transport_legende": "\ud83d\udeb2 \u2764\ufe0f Train TER \ud83d\ude86"}, "geometry": {"type": "Point", "coordinates": [6.14244, 46.21022]}}, {"type": "Feature", "properties": {"start": "Annemasse", "stop_name": "Lancy-Pont-Rouge", "type": "Gare accessible", "transport": "TER", "nombre_trajet_moyen": 18.6, "transport_legende": "\ud83d\udeb2 \u2764\ufe0f Train TER \ud83d\ude86"}, "geometry": {"type": "Point", "coordinates": [6.125333, 46.188897]}}, {"type": "Feature", "properties": {"start": "Annemasse", "stop_name": "Gen\u00e8ve-Eaux-Vives", "type": "Gare accessible", "transport": "TER", "nombre_trajet_moyen": 18.6, "transport_legende": "\ud83d\udeb2 \u2764\ufe0f Train TER \ud83d\ude86"}, "geometry": {"type": "Point", "coordinates": [6.16658, 46.201444]}}, {"type": "Feature", "properties": {"start": "Annemasse", "stop_name": "Vevey", "type": "Gare accessible", "transport": "TER", "nombre_trajet_moyen": 0.75, "transport_legende": "\ud83d\udeb2 \u2764\ufe0f Train TER \ud83d\ude86"}, "geometry": {"type": "Point", "coordinates": [6.84344, 46.463]}}, {"type": "Feature", "properties": {"start": "Annemasse", "stop_name": "St-Maurice", "type": "Gare accessible", "transport": "TER", "nombre_trajet_moyen": 0.27, "transport_legende": "\ud83d\udeb2 \u2764\ufe0f Train TER \ud83d\ude86"}, "geometry": {"type": "Point", "coordinates": [7.00204, 46.21637]}}, {"type": "Feature", "properties": {"start": "Annemasse", "stop_name": "Bex", "type": "Gare accessible", "transport": "TER", "nombre_trajet_moyen": 0.27, "transport_legende": "\ud83d\udeb2 \u2764\ufe0f Train TER \ud83d\ude86"}, "geometry": {"type": "Point", "coordinates": [7.00067, 46.25146]}}, {"type": "Feature", "properties": {"start": "Annemasse", "stop_name": "Aigle", "type": "Gare accessible", "transport": "TER", "nombre_trajet_moyen": 0.27, "transport_legende": "\ud83d\udeb2 \u2764\ufe0f Train TER \ud83d\ude86"}, "geometry": {"type": "Point", "coordinates": [6.96367, 46.31685]}}, {"type": "Feature", "properties": {"start": "Annemasse", "stop_name": "Villeneuve", "type": "Gare accessible", "transport": "TER", "nombre_trajet_moyen": 0.23, "transport_legende": "\ud83d\udeb2 \u2764\ufe0f Train TER \ud83d\ude86"}, "geometry": {"type": "Point", "coordinates": [6.92699, 46.39837]}}, {"type": "Feature", "properties": {"start": "Annemasse", "stop_name": "Montreux", "type": "Gare accessible", "transport": "TER", "nombre_trajet_moyen": 0.27, "transport_legende": "\ud83d\udeb2 \u2764\ufe0f Train TER \ud83d\ude86"}, "geometry": {"type": "Point", "coordinates": [6.91043, 46.43588]}}, {"type": "Feature", "properties": {"start": "Annemasse", "stop_name": "Martigny", "type": "Gare accessible", "transport": "TER", "nombre_trajet_moyen": 0.23, "transport_legende": "\ud83d\udeb2 \u2764\ufe0f Train TER \ud83d\ude86"}, "geometry": {"type": "Point", "coordinates": [7.07911, 46.10583]}}, {"type": "Feature", "properties": {"start": "Annemasse", "stop_name": "Sion", "type": "Gare accessible", "transport": "TER", "nombre_trajet_moyen": 0.23, "transport_legende": "\ud83d\udeb2 \u2764\ufe0f Train TER \ud83d\ude86"}, "geometry": {"type": "Point", "coordinates": [7.35918, 46.22754]}}, {"type": "Feature", "properties": {"start": "Annemasse", "stop_name": "Ch\u00eane-Bourg", "type": "Gare accessible", "transport": "TER", "nombre_trajet_moyen": 18.21, "transport_legende": "\ud83d\udeb2 \u2764\ufe0f Train TER \ud83d\ude86"}, "geometry": {"type": "Point", "coordinates": [6.197253, 46.196607]}}, {"type": "Feature", "properties": {"start": "Annemasse", "stop_name": "Gen\u00e8ve-Champel", "type": "Gare accessible", "transport": "TER", "nombre_trajet_moyen": 18.21, "transport_legende": "\ud83d\udeb2 \u2764\ufe0f Train TER \ud83d\ude86"}, "geometry": {"type": "Point", "coordinates": [6.153505, 46.192191]}}, {"type": "Feature", "properties": {"start": "Annemasse", "stop_name": "Lancy-Bachet", "type": "Gare accessible", "transport": "TER", "nombre_trajet_moyen": 18.21, "transport_legende": "\ud83d\udeb2 \u2764\ufe0f Train TER \ud83d\ude86"}, "geometry": {"type": "Point", "coordinates": [6.129372, 46.174333]}}, {"type": "Feature", "properties": {"start": "Annemasse", "stop_name": "Gen\u00e8ve-S\u00e9cheron", "type": "Gare accessible", "transport": "TER", "nombre_trajet_moyen": 15.91, "transport_legende": "\ud83d\udeb2 \u2764\ufe0f Train TER \ud83d\ude86"}, "geometry": {"type": "Point", "coordinates": [6.144557, 46.222438]}}, {"type": "Feature", "properties": {"start": "Annemasse", "stop_name": "Chamb\u00e9sy", "type": "Gare accessible", "transport": "TER", "nombre_trajet_moyen": 15.91, "transport_legende": "\ud83d\udeb2 \u2764\ufe0f Train TER \ud83d\ude86"}, "geometry": {"type": "Point", "coordinates": [6.147342, 46.242378]}}, {"type": "Feature", "properties": {"start": "Annemasse", "stop_name": "Les Tuileries", "type": "Gare accessible", "transport": "TER", "nombre_trajet_moyen": 15.91, "transport_legende": "\ud83d\udeb2 \u2764\ufe0f Train TER \ud83d\ude86"}, "geometry": {"type": "Point", "coordinates": [6.147342, 46.249945]}}, {"type": "Feature", "properties": {"start": "Annemasse", "stop_name": "Genthod-Bellevue", "type": "Gare accessible", "transport": "TER", "nombre_trajet_moyen": 15.91, "transport_legende": "\ud83d\udeb2 \u2764\ufe0f Train TER \ud83d\ude86"}, "geometry": {"type": "Point", "coordinates": [6.153962, 46.256728]}}, {"type": "Feature", "properties": {"start": "Annemasse", "stop_name": "Creux-de-Genthod", "type": "Gare accessible", "transport": "TER", "nombre_trajet_moyen": 15.91, "transport_legende": "\ud83d\udeb2 \u2764\ufe0f Train TER \ud83d\ude86"}, "geometry": {"type": "Point", "coordinates": [6.161319, 46.263758]}}, {"type": "Feature", "properties": {"start": "Annemasse", "stop_name": "Versoix", "type": "Gare accessible", "transport": "TER", "nombre_trajet_moyen": 15.91, "transport_legende": "\ud83d\udeb2 \u2764\ufe0f Train TER \ud83d\ude86"}, "geometry": {"type": "Point", "coordinates": [6.165748, 46.279717]}}, {"type": "Feature", "properties": {"start": "Annemasse", "stop_name": "Pont-C\u00e9ard", "type": "Gare accessible", "transport": "TER", "nombre_trajet_moyen": 15.91, "transport_legende": "\ud83d\udeb2 \u2764\ufe0f Train TER \ud83d\ude86"}, "geometry": {"type": "Point", "coordinates": [6.162667, 46.28739]}}, {"type": "Feature", "properties": {"start": "Annemasse", "stop_name": "Mies", "type": "Gare accessible", "transport": "TER", "nombre_trajet_moyen": 15.91, "transport_legende": "\ud83d\udeb2 \u2764\ufe0f Train TER \ud83d\ude86"}, "geometry": {"type": "Point", "coordinates": [6.169566, 46.299879]}}, {"type": "Feature", "properties": {"start": "Annemasse", "stop_name": "Tannay", "type": "Gare accessible", "transport": "TER", "nombre_trajet_moyen": 14.14, "transport_legende": "\ud83d\udeb2 \u2764\ufe0f Train TER \ud83d\ude86"}, "geometry": {"type": "Point", "coordinates": [6.181127, 46.307636]}}, {"type": "Feature", "properties": {"start": "Annemasse", "stop_name": "Machilly", "type": "Gare accessible", "transport": "TER", "nombre_trajet_moyen": 9.77, "transport_legende": "\ud83d\udeb2 \u2764\ufe0f Train TER \ud83d\ude86"}, "geometry": {"type": "Point", "coordinates": [6.328197, 46.251292]}}, {"type": "Feature", "properties": {"start": "Annemasse", "stop_name": "Bons-en-Chablais", "type": "Gare accessible", "transport": "TER", "nombre_trajet_moyen": 10.73, "transport_legende": "\ud83d\udeb2 \u2764\ufe0f Train TER \ud83d\ude86"}, "geometry": {"type": "Point", "coordinates": [6.36647, 46.27011]}}, {"type": "Feature", "properties": {"start": "Annemasse", "stop_name": "Perrignier", "type": "Gare accessible", "transport": "TER", "nombre_trajet_moyen": 9.77, "transport_legende": "\ud83d\udeb2 \u2764\ufe0f Train TER \ud83d\ude86"}, "geometry": {"type": "Point", "coordinates": [6.424888, 46.303341]}}, {"type": "Feature", "properties": {"start": "Annemasse", "stop_name": "Thonon-les-Bains", "type": "Gare accessible", "transport": "TER", "nombre_trajet_moyen": 10.73, "transport_legende": "\ud83d\udeb2 \u2764\ufe0f Train TER \ud83d\ude86"}, "geometry": {"type": "Point", "coordinates": [6.481673, 46.368989]}}, {"type": "Feature", "properties": {"start": "Annemasse", "stop_name": "\u00c9vian-les-Bains", "type": "Gare accessible", "transport": "TER", "nombre_trajet_moyen": 10.73, "transport_legende": "\ud83d\udeb2 \u2764\ufe0f Train TER \ud83d\ude86"}, "geometry": {"type": "Point", "coordinates": [6.577469, 46.397916]}}, {"type": "Feature", "properties": {"start": "Annemasse", "stop_name": "Reignier", "type": "Gare accessible", "transport": "TER", "nombre_trajet_moyen": 12.12, "transport_legende": "\ud83d\udeb2 \u2764\ufe0f Train TER \ud83d\ude86"}, "geometry": {"type": "Point", "coordinates": [6.267539, 46.125636]}}, {"type": "Feature", "properties": {"start": "Annemasse", "stop_name": "La Roche-sur-Foron", "type": "Gare accessible", "transport": "TER", "nombre_trajet_moyen": 13.12, "transport_legende": "\ud83d\udeb2 \u2764\ufe0f Train TER \ud83d\ude86"}, "geometry": {"type": "Point", "coordinates": [6.30384, 46.067542]}}, {"type": "Feature", "properties": {"start": "Annemasse", "stop_name": "Groisy - Thorens - La Caille", "type": "Gare accessible", "transport": "TER", "nombre_trajet_moyen": 4.03, "transport_legende": "\ud83d\udeb2 \u2764\ufe0f Train TER \ud83d\ude86"}, "geometry": {"type": "Point", "coordinates": [6.175733, 46.01116]}}, {"type": "Feature", "properties": {"start": "Annemasse", "stop_name": "Pringy", "type": "Gare accessible", "transport": "TER", "nombre_trajet_moyen": 4.6, "transport_legende": "\ud83d\udeb2 \u2764\ufe0f Train TER \ud83d\ude86"}, "geometry": {"type": "Point", "coordinates": [6.123338, 45.939517]}}, {"type": "Feature", "properties": {"start": "Annemasse", "stop_name": "Annecy", "type": "Gare accessible", "transport": "TER", "nombre_trajet_moyen": 4.6, "transport_legende": "\ud83d\udeb2 \u2764\ufe0f Train TER \ud83d\ude86"}, "geometry": {"type": "Point", "coordinates": [6.121826, 45.902047]}}, {"type": "Feature", "properties": {"start": "Annemasse", "stop_name": "Saint-Pierre-en-Faucigny", "type": "Gare accessible", "transport": "TER", "nombre_trajet_moyen": 9.95, "transport_legende": "\ud83d\udeb2 \u2764\ufe0f Train TER \ud83d\ude86"}, "geometry": {"type": "Point", "coordinates": [6.375782, 46.059357]}}, {"type": "Feature", "properties": {"start": "Annemasse", "stop_name": "Bonneville", "type": "Gare accessible", "transport": "TER", "nombre_trajet_moyen": 10.95, "transport_legende": "\ud83d\udeb2 \u2764\ufe0f Train TER \ud83d\ude86"}, "geometry": {"type": "Point", "coordinates": [6.416493, 46.077752]}}, {"type": "Feature", "properties": {"start": "Annemasse", "stop_name": "Marignier", "type": "Gare accessible", "transport": "TER", "nombre_trajet_moyen": 9.95, "transport_legende": "\ud83d\udeb2 \u2764\ufe0f Train TER \ud83d\ude86"}, "geometry": {"type": "Point", "coordinates": [6.507849, 46.088786]}}, {"type": "Feature", "properties": {"start": "Annemasse", "stop_name": "Cluses", "type": "Gare accessible", "transport": "TER", "nombre_trajet_moyen": 10.95, "transport_legende": "\ud83d\udeb2 \u2764\ufe0f Train TER \ud83d\ude86"}, "geometry": {"type": "Point", "coordinates": [6.582771, 46.061468]}}, {"type": "Feature", "properties": {"start": "Annemasse", "stop_name": "Magland", "type": "Gare accessible", "transport": "TER", "nombre_trajet_moyen": 9.95, "transport_legende": "\ud83d\udeb2 \u2764\ufe0f Train TER \ud83d\ude86"}, "geometry": {"type": "Point", "coordinates": [6.621524, 46.016951]}}, {"type": "Feature", "properties": {"start": "Annemasse", "stop_name": "Sallanches - Combloux - Meg\u00e8ve", "type": "Gare accessible", "transport": "TER", "nombre_trajet_moyen": 10.95, "transport_legende": "\ud83d\udeb2 \u2764\ufe0f Train TER \ud83d\ude86"}, "geometry": {"type": "Point", "coordinates": [6.636458, 45.935699]}}, {"type": "Feature", "properties": {"start": "Annemasse", "stop_name": "Saint-Gervais-les-Bains-Le Fayet", "type": "Gare accessible", "transport": "TER", "nombre_trajet_moyen": 10.95, "transport_legende": "\ud83d\udeb2 \u2764\ufe0f Train TER \ud83d\ude86"}, "geometry": {"type": "Point", "coordinates": [6.701331, 45.906423]}}, {"type": "Feature", "properties": {"start": "Annemasse", "stop_name": "Bellegarde", "type": "Gare accessible", "transport": "TER", "nombre_trajet_moyen": 9.12, "transport_legende": "\ud83d\udeb2 \u2764\ufe0f Train TER \ud83d\ude86"}, "geometry": {"type": "Point", "coordinates": [5.823483, 46.109425]}}, {"type": "Feature", "properties": {"start": "Annemasse", "stop_name": "Valleiry", "type": "Gare accessible", "transport": "TER", "nombre_trajet_moyen": 8.08, "transport_legende": "\ud83d\udeb2 \u2764\ufe0f Train TER \ud83d\ude86"}, "geometry": {"type": "Point", "coordinates": [5.967379, 46.109343]}}, {"type": "Feature", "properties": {"start": "Annemasse", "stop_name": "Saint-Julien-en-Genevois", "type": "Gare accessible", "transport": "TER", "nombre_trajet_moyen": 8.08, "transport_legende": "\ud83d\udeb2 \u2764\ufe0f Train TER \ud83d\ude86"}, "geometry": {"type": "Point", "coordinates": [6.085527, 46.142075]}}, {"type": "Feature", "properties": {"start": "Annemasse", "stop_name": "Chamonix-Mont-Blanc", "type": "Gare accessible", "transport": "TER", "nombre_trajet_moyen": 0.31, "transport_legende": "\ud83d\udeb2 \u2764\ufe0f Train TER \ud83d\ude86"}, "geometry": {"type": "Point", "coordinates": [6.87363, 45.92277]}}, {"type": "Feature", "properties": {"start": "Annemasse", "stop_name": "Lyon Part Dieu", "type": "Gare accessible", "transport": "TER", "nombre_trajet_moyen": 0.03, "transport_legende": "\ud83d\udeb2 \u2764\ufe0f Train TER \ud83d\ude86"}, "geometry": {"type": "Point", "coordinates": [4.859409, 45.760596]}}, {"type": "Feature", "properties": {"start": "Annemasse", "stop_name": "Amb\u00e9rieu-en-Bugey", "type": "Gare accessible", "transport": "TER", "nombre_trajet_moyen": 0.03, "transport_legende": "\ud83d\udeb2 \u2764\ufe0f Train TER \ud83d\ude86"}, "geometry": {"type": "Point", "coordinates": [5.342402, 45.954014]}}, {"type": "Feature", "properties": {"start": "Annemasse", "stop_name": "Tenay - Hauteville", "type": "Gare accessible", "transport": "TER", "nombre_trajet_moyen": 0.03, "transport_legende": "\ud83d\udeb2 \u2764\ufe0f Train TER \ud83d\ude86"}, "geometry": {"type": "Point", "coordinates": [5.50161, 45.92221]}}, {"type": "Feature", "properties": {"start": "Annemasse", "stop_name": "Culoz", "type": "Gare accessible", "transport": "TER", "nombre_trajet_moyen": 0.03, "transport_legende": "\ud83d\udeb2 \u2764\ufe0f Train TER \ud83d\ude86"}, "geometry": {"type": "Point", "coordinates": [5.778728, 45.843278]}}, {"type": "Feature", "properties": {"start": "Annemasse", "stop_name": "Seyssel - Corbonod", "type": "Gare accessible", "transport": "TER", "nombre_trajet_moyen": 0.03, "transport_legende": "\ud83d\udeb2 \u2764\ufe0f Train TER \ud83d\ude86"}, "geometry": {"type": "Point", "coordinates": [5.831503, 45.963074]}}, {"type": "Feature", "properties": {"start": "Annemasse", "stop_name": "Virieu-le-Grand - Belley", "type": "Gare accessible", "transport": "TER", "nombre_trajet_moyen": 0.03, "transport_legende": "\ud83d\udeb2 \u2764\ufe0f Train TER \ud83d\ude86"}, "geometry": {"type": "Point", "coordinates": [5.65363, 45.848323]}}]}