{"type": "FeatureCollection", "features": [{"type": "Feature", "properties": {"start": "Arches Gare", "stop_name": "Arches Gare", "type": "Gare s\u00e9lectionn\u00e9e", "transport": "TER", "nombre_trajet_moyen": 13.26, "transport_legende": "\ud83d\udeb2 \u2764\ufe0f Train TER \ud83d\ude86"}, "geometry": {"type": "Point", "coordinates": [6.528105, 48.118896]}}, {"type": "Feature", "properties": {"start": "Arches Gare", "stop_name": "\u00c9pinal", "type": "Gare accessible", "transport": "TER", "nombre_trajet_moyen": 13.26, "transport_legende": "\ud83d\udeb2 \u2764\ufe0f Train TER \ud83d\ude86"}, "geometry": {"type": "Point", "coordinates": [6.441787, 48.178005]}}, {"type": "Feature", "properties": {"start": "Arches Gare", "stop_name": "Chenimenil Filature", "type": "Gare accessible", "transport": "TER", "nombre_trajet_moyen": 1.19, "transport_legende": "\ud83d\udeb2 \u2764\ufe0f Train TER \ud83d\ude86"}, "geometry": {"type": "Point", "coordinates": [6.600507, 48.133949]}}, {"type": "Feature", "properties": {"start": "Arches Gare", "stop_name": "Docelles-Chenim\u00e9nil Gare", "type": "Gare accessible", "transport": "TER", "nombre_trajet_moyen": 1.19, "transport_legende": "\ud83d\udeb2 \u2764\ufe0f Train TER \ud83d\ude86"}, "geometry": {"type": "Point", "coordinates": [6.610969, 48.143566]}}, {"type": "Feature", "properties": {"start": "Arches Gare", "stop_name": "L\u00e9panges-Vologn R. Poste", "type": "Gare accessible", "transport": "TER", "nombre_trajet_moyen": 1.19, "transport_legende": "\ud83d\udeb2 \u2764\ufe0f Train TER \ud83d\ude86"}, "geometry": {"type": "Point", "coordinates": [6.671589, 48.172701]}}, {"type": "Feature", "properties": {"start": "Arches Gare", "stop_name": "Bruy\u00e8res", "type": "Gare accessible", "transport": "TER", "nombre_trajet_moyen": 3.29, "transport_legende": "\ud83d\udeb2 \u2764\ufe0f Train TER \ud83d\ude86"}, "geometry": {"type": "Point", "coordinates": [6.718908, 48.205021]}}, {"type": "Feature", "properties": {"start": "Arches Gare", "stop_name": "Laveline-devant-Bruy\u00e8res Mairie", "type": "Gare accessible", "transport": "TER", "nombre_trajet_moyen": 0.54, "transport_legende": "\ud83d\udeb2 \u2764\ufe0f Train TER \ud83d\ude86"}, "geometry": {"type": "Point", "coordinates": [6.757545, 48.184156]}}, {"type": "Feature", "properties": {"start": "Arches Gare", "stop_name": "Biffontaine Mairie", "type": "Gare accessible", "transport": "TER", "nombre_trajet_moyen": 0.55, "transport_legende": "\ud83d\udeb2 \u2764\ufe0f Train TER \ud83d\ude86"}, "geometry": {"type": "Point", "coordinates": [6.805456, 48.211291]}}, {"type": "Feature", "properties": {"start": "Arches Gare", "stop_name": "La Houssi\u00e8re Van\u00e9mont Centre", "type": "Gare accessible", "transport": "TER", "nombre_trajet_moyen": 0.55, "transport_legende": "\ud83d\udeb2 \u2764\ufe0f Train TER \ud83d\ude86"}, "geometry": {"type": "Point", "coordinates": [6.878465, 48.20039]}}, {"type": "Feature", "properties": {"start": "Arches Gare", "stop_name": "Corcieux le Conti", "type": "Gare accessible", "transport": "TER", "nombre_trajet_moyen": 0.55, "transport_legende": "\ud83d\udeb2 \u2764\ufe0f Train TER \ud83d\ude86"}, "geometry": {"type": "Point", "coordinates": [6.882863, 48.170746]}}, {"type": "Feature", "properties": {"start": "Arches Gare", "stop_name": "Saint-L\u00e9onard Centre", "type": "Gare accessible", "transport": "TER", "nombre_trajet_moyen": 0.55, "transport_legende": "\ud83d\udeb2 \u2764\ufe0f Train TER \ud83d\ude86"}, "geometry": {"type": "Point", "coordinates": [6.943201, 48.21668]}}, {"type": "Feature", "properties": {"start": "Arches Gare", "stop_name": "Saint-Di\u00e9-des-Vosges", "type": "Gare accessible", "transport": "TER", "nombre_trajet_moyen": 2.65, "transport_legende": "\ud83d\udeb2 \u2764\ufe0f Train TER \ud83d\ude86"}, "geometry": {"type": "Point", "coordinates": [6.948516, 48.282043]}}, {"type": "Feature", "properties": {"start": "Arches Gare", "stop_name": "Saales", "type": "Gare accessible", "transport": "TER", "nombre_trajet_moyen": 2.1, "transport_legende": "\ud83d\udeb2 \u2764\ufe0f Train TER \ud83d\ude86"}, "geometry": {"type": "Point", "coordinates": [7.110225, 48.347315]}}, {"type": "Feature", "properties": {"start": "Arches Gare", "stop_name": "Saint-Blaise-la-Roche", "type": "Gare accessible", "transport": "TER", "nombre_trajet_moyen": 2.1, "transport_legende": "\ud83d\udeb2 \u2764\ufe0f Train TER \ud83d\ude86"}, "geometry": {"type": "Point", "coordinates": [7.165336, 48.407333]}}, {"type": "Feature", "properties": {"start": "Arches Gare", "stop_name": "Rothau", "type": "Gare accessible", "transport": "TER", "nombre_trajet_moyen": 2.1, "transport_legende": "\ud83d\udeb2 \u2764\ufe0f Train TER \ud83d\ude86"}, "geometry": {"type": "Point", "coordinates": [7.207709, 48.459232]}}, {"type": "Feature", "properties": {"start": "Arches Gare", "stop_name": "Schirmeck - La Broque", "type": "Gare accessible", "transport": "TER", "nombre_trajet_moyen": 2.09, "transport_legende": "\ud83d\udeb2 \u2764\ufe0f Train TER \ud83d\ude86"}, "geometry": {"type": "Point", "coordinates": [7.216339, 48.479989]}}, {"type": "Feature", "properties": {"start": "Arches Gare", "stop_name": "Urmatt", "type": "Gare accessible", "transport": "TER", "nombre_trajet_moyen": 2.09, "transport_legende": "\ud83d\udeb2 \u2764\ufe0f Train TER \ud83d\ude86"}, "geometry": {"type": "Point", "coordinates": [7.338299, 48.525984]}}, {"type": "Feature", "properties": {"start": "Arches Gare", "stop_name": "Molsheim", "type": "Gare accessible", "transport": "TER", "nombre_trajet_moyen": 2.09, "transport_legende": "\ud83d\udeb2 \u2764\ufe0f Train TER \ud83d\ude86"}, "geometry": {"type": "Point", "coordinates": [7.500284, 48.537151]}}, {"type": "Feature", "properties": {"start": "Arches Gare", "stop_name": "Mutzig Passage \u00e0 Niveau", "type": "Gare accessible", "transport": "TER", "nombre_trajet_moyen": 0.1, "transport_legende": "\ud83d\udeb2 \u2764\ufe0f Train TER \ud83d\ude86"}, "geometry": {"type": "Point", "coordinates": [7.46108, 48.533919]}}, {"type": "Feature", "properties": {"start": "Arches Gare", "stop_name": "Gresswiller Abri", "type": "Gare accessible", "transport": "TER", "nombre_trajet_moyen": 0.1, "transport_legende": "\ud83d\udeb2 \u2764\ufe0f Train TER \ud83d\ude86"}, "geometry": {"type": "Point", "coordinates": [7.42571, 48.535956]}}, {"type": "Feature", "properties": {"start": "Arches Gare", "stop_name": "Mullerhof", "type": "Gare accessible", "transport": "TER", "nombre_trajet_moyen": 0.95, "transport_legende": "\ud83d\udeb2 \u2764\ufe0f Train TER \ud83d\ude86"}, "geometry": {"type": "Point", "coordinates": [7.311958, 48.52451]}}, {"type": "Feature", "properties": {"start": "Arches Gare", "stop_name": "Lutzelhouse Abri \u00c9glise", "type": "Gare accessible", "transport": "TER", "nombre_trajet_moyen": 0.1, "transport_legende": "\ud83d\udeb2 \u2764\ufe0f Train TER \ud83d\ude86"}, "geometry": {"type": "Point", "coordinates": [7.287589, 48.519287]}}, {"type": "Feature", "properties": {"start": "Arches Gare", "stop_name": "Wisches \u00c9glise", "type": "Gare accessible", "transport": "TER", "nombre_trajet_moyen": 0.1, "transport_legende": "\ud83d\udeb2 \u2764\ufe0f Train TER \ud83d\ude86"}, "geometry": {"type": "Point", "coordinates": [7.268896, 48.508635]}}, {"type": "Feature", "properties": {"start": "Arches Gare", "stop_name": "Russ-Hersbach", "type": "Gare accessible", "transport": "TER", "nombre_trajet_moyen": 2.09, "transport_legende": "\ud83d\udeb2 \u2764\ufe0f Train TER \ud83d\ude86"}, "geometry": {"type": "Point", "coordinates": [7.251925, 48.498221]}}, {"type": "Feature", "properties": {"start": "Arches Gare", "stop_name": "Provench\u00e8res-sur-Fave", "type": "Gare accessible", "transport": "TER", "nombre_trajet_moyen": 1.1, "transport_legende": "\ud83d\udeb2 \u2764\ufe0f Train TER \ud83d\ude86"}, "geometry": {"type": "Point", "coordinates": [7.08549, 48.304629]}}, {"type": "Feature", "properties": {"start": "Arches Gare", "stop_name": "Bourg-Bruche \u00c9glise", "type": "Gare accessible", "transport": "TER", "nombre_trajet_moyen": 0.1, "transport_legende": "\ud83d\udeb2 \u2764\ufe0f Train TER \ud83d\ude86"}, "geometry": {"type": "Point", "coordinates": [7.13517, 48.359044]}}, {"type": "Feature", "properties": {"start": "Arches Gare", "stop_name": "Nancy", "type": "Gare accessible", "transport": "TER", "nombre_trajet_moyen": 11.59, "transport_legende": "\ud83d\udeb2 \u2764\ufe0f Train TER \ud83d\ude86"}, "geometry": {"type": "Point", "coordinates": [6.174579, 48.689857]}}, {"type": "Feature", "properties": {"start": "Arches Gare", "stop_name": "Varang\u00e9ville - Saint-Nicolas", "type": "Gare accessible", "transport": "TER", "nombre_trajet_moyen": 11.59, "transport_legende": "\ud83d\udeb2 \u2764\ufe0f Train TER \ud83d\ude86"}, "geometry": {"type": "Point", "coordinates": [6.313142, 48.635215]}}, {"type": "Feature", "properties": {"start": "Arches Gare", "stop_name": "Blainville - Damelevi\u00e8res", "type": "Gare accessible", "transport": "TER", "nombre_trajet_moyen": 11.59, "transport_legende": "\ud83d\udeb2 \u2764\ufe0f Train TER \ud83d\ude86"}, "geometry": {"type": "Point", "coordinates": [6.386948, 48.564799]}}, {"type": "Feature", "properties": {"start": "Arches Gare", "stop_name": "Bayon", "type": "Gare accessible", "transport": "TER", "nombre_trajet_moyen": 11.59, "transport_legende": "\ud83d\udeb2 \u2764\ufe0f Train TER \ud83d\ude86"}, "geometry": {"type": "Point", "coordinates": [6.32286, 48.468045]}}, {"type": "Feature", "properties": {"start": "Arches Gare", "stop_name": "Charmes", "type": "Gare accessible", "transport": "TER", "nombre_trajet_moyen": 11.59, "transport_legende": "\ud83d\udeb2 \u2764\ufe0f Train TER \ud83d\ude86"}, "geometry": {"type": "Point", "coordinates": [6.301537, 48.378483]}}, {"type": "Feature", "properties": {"start": "Arches Gare", "stop_name": "Ch\u00e2tel - Nomexy", "type": "Gare accessible", "transport": "TER", "nombre_trajet_moyen": 11.59, "transport_legende": "\ud83d\udeb2 \u2764\ufe0f Train TER \ud83d\ude86"}, "geometry": {"type": "Point", "coordinates": [6.388008, 48.307114]}}, {"type": "Feature", "properties": {"start": "Arches Gare", "stop_name": "Thaon", "type": "Gare accessible", "transport": "TER", "nombre_trajet_moyen": 11.59, "transport_legende": "\ud83d\udeb2 \u2764\ufe0f Train TER \ud83d\ude86"}, "geometry": {"type": "Point", "coordinates": [6.416337, 48.244686]}}, {"type": "Feature", "properties": {"start": "Arches Gare", "stop_name": "Pouxeux", "type": "Gare accessible", "transport": "TER", "nombre_trajet_moyen": 11.74, "transport_legende": "\ud83d\udeb2 \u2764\ufe0f Train TER \ud83d\ude86"}, "geometry": {"type": "Point", "coordinates": [6.569532, 48.108806]}}, {"type": "Feature", "properties": {"start": "Arches Gare", "stop_name": "\u00c9loyes", "type": "Gare accessible", "transport": "TER", "nombre_trajet_moyen": 11.74, "transport_legende": "\ud83d\udeb2 \u2764\ufe0f Train TER \ud83d\ude86"}, "geometry": {"type": "Point", "coordinates": [6.600101, 48.087196]}}, {"type": "Feature", "properties": {"start": "Arches Gare", "stop_name": "Saint-Nabord", "type": "Gare accessible", "transport": "TER", "nombre_trajet_moyen": 11.74, "transport_legende": "\ud83d\udeb2 \u2764\ufe0f Train TER \ud83d\ude86"}, "geometry": {"type": "Point", "coordinates": [6.581572, 48.045742]}}, {"type": "Feature", "properties": {"start": "Arches Gare", "stop_name": "Remiremont", "type": "Gare accessible", "transport": "TER", "nombre_trajet_moyen": 11.74, "transport_legende": "\ud83d\udeb2 \u2764\ufe0f Train TER \ud83d\ude86"}, "geometry": {"type": "Point", "coordinates": [6.598879, 48.016342]}}, {"type": "Feature", "properties": {"start": "Arches Gare", "stop_name": "Strasbourg", "type": "Gare accessible", "transport": "TER", "nombre_trajet_moyen": 1.99, "transport_legende": "\ud83d\udeb2 \u2764\ufe0f Train TER \ud83d\ude86"}, "geometry": {"type": "Point", "coordinates": [7.734793, 48.584532]}}, {"type": "Feature", "properties": {"start": "Arches Gare", "stop_name": "Entzheim A\u00e9roport", "type": "Gare accessible", "transport": "TER", "nombre_trajet_moyen": 1.99, "transport_legende": "\ud83d\udeb2 \u2764\ufe0f Train TER \ud83d\ude86"}, "geometry": {"type": "Point", "coordinates": [7.62794, 48.54699]}}, {"type": "Feature", "properties": {"start": "Arches Gare", "stop_name": "Mutzig", "type": "Gare accessible", "transport": "TER", "nombre_trajet_moyen": 1.99, "transport_legende": "\ud83d\udeb2 \u2764\ufe0f Train TER \ud83d\ude86"}, "geometry": {"type": "Point", "coordinates": [7.462147, 48.533828]}}, {"type": "Feature", "properties": {"start": "Arches Gare", "stop_name": "Gresswiller", "type": "Gare accessible", "transport": "TER", "nombre_trajet_moyen": 1.99, "transport_legende": "\ud83d\udeb2 \u2764\ufe0f Train TER \ud83d\ude86"}, "geometry": {"type": "Point", "coordinates": [7.42468, 48.53334]}}, {"type": "Feature", "properties": {"start": "Arches Gare", "stop_name": "Lutzelhouse", "type": "Gare accessible", "transport": "TER", "nombre_trajet_moyen": 1.99, "transport_legende": "\ud83d\udeb2 \u2764\ufe0f Train TER \ud83d\ude86"}, "geometry": {"type": "Point", "coordinates": [7.292916, 48.517614]}}, {"type": "Feature", "properties": {"start": "Arches Gare", "stop_name": "Wisches", "type": "Gare accessible", "transport": "TER", "nombre_trajet_moyen": 1.99, "transport_legende": "\ud83d\udeb2 \u2764\ufe0f Train TER \ud83d\ude86"}, "geometry": {"type": "Point", "coordinates": [7.270243, 48.507649]}}, {"type": "Feature", "properties": {"start": "Arches Gare", "stop_name": "Fouday", "type": "Gare accessible", "transport": "TER", "nombre_trajet_moyen": 1.26, "transport_legende": "\ud83d\udeb2 \u2764\ufe0f Train TER \ud83d\ude86"}, "geometry": {"type": "Point", "coordinates": [7.187411, 48.424867]}}, {"type": "Feature", "properties": {"start": "Arches Gare", "stop_name": "Bourg-Bruche", "type": "Gare accessible", "transport": "TER", "nombre_trajet_moyen": 1.26, "transport_legende": "\ud83d\udeb2 \u2764\ufe0f Train TER \ud83d\ude86"}, "geometry": {"type": "Point", "coordinates": [7.13731, 48.359846]}}, {"type": "Feature", "properties": {"start": "Arches Gare", "stop_name": "Heiligenberg - Mollkirch", "type": "Gare accessible", "transport": "TER", "nombre_trajet_moyen": 0.85, "transport_legende": "\ud83d\udeb2 \u2764\ufe0f Train TER \ud83d\ude86"}, "geometry": {"type": "Point", "coordinates": [7.381576, 48.52747]}}, {"type": "Feature", "properties": {"start": "Arches Gare", "stop_name": "Strasbourg Roethig", "type": "Gare accessible", "transport": "TER", "nombre_trajet_moyen": 0.11, "transport_legende": "\ud83d\udeb2 \u2764\ufe0f Train TER \ud83d\ude86"}, "geometry": {"type": "Point", "coordinates": [7.69485, 48.563303]}}, {"type": "Feature", "properties": {"start": "Arches Gare", "stop_name": "Lingolsheim", "type": "Gare accessible", "transport": "TER", "nombre_trajet_moyen": 0.11, "transport_legende": "\ud83d\udeb2 \u2764\ufe0f Train TER \ud83d\ude86"}, "geometry": {"type": "Point", "coordinates": [7.678569, 48.559408]}}, {"type": "Feature", "properties": {"start": "Arches Gare", "stop_name": "Duppigheim", "type": "Gare accessible", "transport": "TER", "nombre_trajet_moyen": 0.11, "transport_legende": "\ud83d\udeb2 \u2764\ufe0f Train TER \ud83d\ude86"}, "geometry": {"type": "Point", "coordinates": [7.586809, 48.543967]}}, {"type": "Feature", "properties": {"start": "Arches Gare", "stop_name": "Duttlenheim", "type": "Gare accessible", "transport": "TER", "nombre_trajet_moyen": 0.11, "transport_legende": "\ud83d\udeb2 \u2764\ufe0f Train TER \ud83d\ude86"}, "geometry": {"type": "Point", "coordinates": [7.566289, 48.545379]}}, {"type": "Feature", "properties": {"start": "Arches Gare", "stop_name": "Dachstein", "type": "Gare accessible", "transport": "TER", "nombre_trajet_moyen": 0.11, "transport_legende": "\ud83d\udeb2 \u2764\ufe0f Train TER \ud83d\ude86"}, "geometry": {"type": "Point", "coordinates": [7.533004, 48.542855]}}, {"type": "Feature", "properties": {"start": "Arches Gare", "stop_name": "Pont-\u00e0-Mousson", "type": "Gare accessible", "transport": "TER", "nombre_trajet_moyen": 0.69, "transport_legende": "\ud83d\udeb2 \u2764\ufe0f Train TER \ud83d\ude86"}, "geometry": {"type": "Point", "coordinates": [6.051021, 48.900348]}}, {"type": "Feature", "properties": {"start": "Arches Gare", "stop_name": "Pagny-sur-Moselle", "type": "Gare accessible", "transport": "TER", "nombre_trajet_moyen": 0.69, "transport_legende": "\ud83d\udeb2 \u2764\ufe0f Train TER \ud83d\ude86"}, "geometry": {"type": "Point", "coordinates": [6.025035, 48.9852]}}, {"type": "Feature", "properties": {"start": "Arches Gare", "stop_name": "Metz", "type": "Gare accessible", "transport": "TER", "nombre_trajet_moyen": 0.69, "transport_legende": "\ud83d\udeb2 \u2764\ufe0f Train TER \ud83d\ude86"}, "geometry": {"type": "Point", "coordinates": [6.177052, 49.109466]}}, {"type": "Feature", "properties": {"start": "Arches Gare", "stop_name": "Vincey", "type": "Gare accessible", "transport": "TER", "nombre_trajet_moyen": 1.64, "transport_legende": "\ud83d\udeb2 \u2764\ufe0f Train TER \ud83d\ude86"}, "geometry": {"type": "Point", "coordinates": [6.335801, 48.343424]}}, {"type": "Feature", "properties": {"start": "Arches Gare", "stop_name": "Igney", "type": "Gare accessible", "transport": "TER", "nombre_trajet_moyen": 1.64, "transport_legende": "\ud83d\udeb2 \u2764\ufe0f Train TER \ud83d\ude86"}, "geometry": {"type": "Point", "coordinates": [6.39969, 48.270747]}}, {"type": "Feature", "properties": {"start": "Arches Gare", "stop_name": "Einvaux", "type": "Gare accessible", "transport": "TER", "nombre_trajet_moyen": 0.95, "transport_legende": "\ud83d\udeb2 \u2764\ufe0f Train TER \ud83d\ude86"}, "geometry": {"type": "Point", "coordinates": [6.393244, 48.503597]}}]}