{"type": "FeatureCollection", "features": [{"type": "Feature", "properties": {"start": "Avignon Centre", "stop_name": "Avignon Centre", "type": "Gare s\u00e9lectionn\u00e9e", "transport": "TER", "nombre_trajet_moyen": 41.44, "transport_legende": "\ud83d\udeb2 \u2764\ufe0f Train TER \ud83d\ude86"}, "geometry": {"type": "Point", "coordinates": [4.805269, 43.941923]}}, {"type": "Feature", "properties": {"start": "Avignon Centre", "stop_name": "Annecy", "type": "Gare accessible", "transport": "TER", "nombre_trajet_moyen": 0.21, "transport_legende": "\ud83d\udeb2 \u2764\ufe0f Train TER \ud83d\ude86"}, "geometry": {"type": "Point", "coordinates": [6.121826, 45.902047]}}, {"type": "Feature", "properties": {"start": "Avignon Centre", "stop_name": "Rumilly", "type": "Gare accessible", "transport": "TER", "nombre_trajet_moyen": 0.21, "transport_legende": "\ud83d\udeb2 \u2764\ufe0f Train TER \ud83d\ude86"}, "geometry": {"type": "Point", "coordinates": [5.947949, 45.863053]}}, {"type": "Feature", "properties": {"start": "Avignon Centre", "stop_name": "Albens", "type": "Gare accessible", "transport": "TER", "nombre_trajet_moyen": 0.21, "transport_legende": "\ud83d\udeb2 \u2764\ufe0f Train TER \ud83d\ude86"}, "geometry": {"type": "Point", "coordinates": [5.948342, 45.785946]}}, {"type": "Feature", "properties": {"start": "Avignon Centre", "stop_name": "Gr\u00e9sy-sur-Aix", "type": "Gare accessible", "transport": "TER", "nombre_trajet_moyen": 0.21, "transport_legende": "\ud83d\udeb2 \u2764\ufe0f Train TER \ud83d\ude86"}, "geometry": {"type": "Point", "coordinates": [5.922146, 45.724527]}}, {"type": "Feature", "properties": {"start": "Avignon Centre", "stop_name": "Aix-les-Bains le Revard", "type": "Gare accessible", "transport": "TER", "nombre_trajet_moyen": 0.21, "transport_legende": "\ud83d\udeb2 \u2764\ufe0f Train TER \ud83d\ude86"}, "geometry": {"type": "Point", "coordinates": [5.909371, 45.688161]}}, {"type": "Feature", "properties": {"start": "Avignon Centre", "stop_name": "Chamb\u00e9ry - Challes-les-Eaux", "type": "Gare accessible", "transport": "TER", "nombre_trajet_moyen": 0.21, "transport_legende": "\ud83d\udeb2 \u2764\ufe0f Train TER \ud83d\ude86"}, "geometry": {"type": "Point", "coordinates": [5.919547, 45.571302]}}, {"type": "Feature", "properties": {"start": "Avignon Centre", "stop_name": "Montm\u00e9lian", "type": "Gare accessible", "transport": "TER", "nombre_trajet_moyen": 0.21, "transport_legende": "\ud83d\udeb2 \u2764\ufe0f Train TER \ud83d\ude86"}, "geometry": {"type": "Point", "coordinates": [6.043175, 45.503082]}}, {"type": "Feature", "properties": {"start": "Avignon Centre", "stop_name": "Pontcharra sur Br\u00e9da", "type": "Gare accessible", "transport": "TER", "nombre_trajet_moyen": 0.21, "transport_legende": "\ud83d\udeb2 \u2764\ufe0f Train TER \ud83d\ude86"}, "geometry": {"type": "Point", "coordinates": [6.007859, 45.434091]}}, {"type": "Feature", "properties": {"start": "Avignon Centre", "stop_name": "Grenoble Universit\u00e9s - Gi\u00e8res", "type": "Gare accessible", "transport": "TER", "nombre_trajet_moyen": 0.21, "transport_legende": "\ud83d\udeb2 \u2764\ufe0f Train TER \ud83d\ude86"}, "geometry": {"type": "Point", "coordinates": [5.784731, 45.184971]}}, {"type": "Feature", "properties": {"start": "Avignon Centre", "stop_name": "Grenoble", "type": "Gare accessible", "transport": "TER", "nombre_trajet_moyen": 0.21, "transport_legende": "\ud83d\udeb2 \u2764\ufe0f Train TER \ud83d\ude86"}, "geometry": {"type": "Point", "coordinates": [5.714366, 45.192693]}}, {"type": "Feature", "properties": {"start": "Avignon Centre", "stop_name": "Moirans", "type": "Gare accessible", "transport": "TER", "nombre_trajet_moyen": 0.21, "transport_legende": "\ud83d\udeb2 \u2764\ufe0f Train TER \ud83d\ude86"}, "geometry": {"type": "Point", "coordinates": [5.581934, 45.32216]}}, {"type": "Feature", "properties": {"start": "Avignon Centre", "stop_name": "Tullins Fures", "type": "Gare accessible", "transport": "TER", "nombre_trajet_moyen": 0.21, "transport_legende": "\ud83d\udeb2 \u2764\ufe0f Train TER \ud83d\ude86"}, "geometry": {"type": "Point", "coordinates": [5.492174, 45.300905]}}, {"type": "Feature", "properties": {"start": "Avignon Centre", "stop_name": "Saint-Marcellin", "type": "Gare accessible", "transport": "TER", "nombre_trajet_moyen": 0.21, "transport_legende": "\ud83d\udeb2 \u2764\ufe0f Train TER \ud83d\ude86"}, "geometry": {"type": "Point", "coordinates": [5.323654, 45.150885]}}, {"type": "Feature", "properties": {"start": "Avignon Centre", "stop_name": "Saint-Hilaire - Saint-Nazaire", "type": "Gare accessible", "transport": "TER", "nombre_trajet_moyen": 0.21, "transport_legende": "\ud83d\udeb2 \u2764\ufe0f Train TER \ud83d\ude86"}, "geometry": {"type": "Point", "coordinates": [5.243845, 45.071342]}}, {"type": "Feature", "properties": {"start": "Avignon Centre", "stop_name": "Romans - Bourg-de-P\u00e9age", "type": "Gare accessible", "transport": "TER", "nombre_trajet_moyen": 0.21, "transport_legende": "\ud83d\udeb2 \u2764\ufe0f Train TER \ud83d\ude86"}, "geometry": {"type": "Point", "coordinates": [5.049574, 45.048862]}}, {"type": "Feature", "properties": {"start": "Avignon Centre", "stop_name": "Valence TGV Rh\u00f4ne-Alpes Sud", "type": "Gare accessible", "transport": "TER", "nombre_trajet_moyen": 0.21, "transport_legende": "\ud83d\udeb2 \u2764\ufe0f Train TER \ud83d\ude86"}, "geometry": {"type": "Point", "coordinates": [4.978652, 44.991907]}}, {"type": "Feature", "properties": {"start": "Avignon Centre", "stop_name": "Valence Ville", "type": "Gare accessible", "transport": "TER", "nombre_trajet_moyen": 16.51, "transport_legende": "\ud83d\udeb2 \u2764\ufe0f Train TER \ud83d\ude86"}, "geometry": {"type": "Point", "coordinates": [4.893288, 44.928081]}}, {"type": "Feature", "properties": {"start": "Avignon Centre", "stop_name": "Livron", "type": "Gare accessible", "transport": "TER", "nombre_trajet_moyen": 12.08, "transport_legende": "\ud83d\udeb2 \u2764\ufe0f Train TER \ud83d\ude86"}, "geometry": {"type": "Point", "coordinates": [4.830559, 44.779617]}}, {"type": "Feature", "properties": {"start": "Avignon Centre", "stop_name": "Mont\u00e9limar", "type": "Gare accessible", "transport": "TER", "nombre_trajet_moyen": 16.51, "transport_legende": "\ud83d\udeb2 \u2764\ufe0f Train TER \ud83d\ude86"}, "geometry": {"type": "Point", "coordinates": [4.744726, 44.558936]}}, {"type": "Feature", "properties": {"start": "Avignon Centre", "stop_name": "Pierrelatte", "type": "Gare accessible", "transport": "TER", "nombre_trajet_moyen": 16.51, "transport_legende": "\ud83d\udeb2 \u2764\ufe0f Train TER \ud83d\ude86"}, "geometry": {"type": "Point", "coordinates": [4.703798, 44.374634]}}, {"type": "Feature", "properties": {"start": "Avignon Centre", "stop_name": "Boll\u00e8ne la Croisi\u00e8re", "type": "Gare accessible", "transport": "TER", "nombre_trajet_moyen": 16.51, "transport_legende": "\ud83d\udeb2 \u2764\ufe0f Train TER \ud83d\ude86"}, "geometry": {"type": "Point", "coordinates": [4.708055, 44.27154]}}, {"type": "Feature", "properties": {"start": "Avignon Centre", "stop_name": "Orange", "type": "Gare accessible", "transport": "TER", "nombre_trajet_moyen": 16.51, "transport_legende": "\ud83d\udeb2 \u2764\ufe0f Train TER \ud83d\ude86"}, "geometry": {"type": "Point", "coordinates": [4.820058, 44.137485]}}, {"type": "Feature", "properties": {"start": "Avignon Centre", "stop_name": "Marseille Saint-Charles", "type": "Gare accessible", "transport": "TER", "nombre_trajet_moyen": 14.78, "transport_legende": "\ud83d\udeb2 \u2764\ufe0f Train TER \ud83d\ude86"}, "geometry": {"type": "Point", "coordinates": [5.380407, 43.302666]}}, {"type": "Feature", "properties": {"start": "Avignon Centre", "stop_name": "Vitrolles A\u00e9roport Marseille P", "type": "Gare accessible", "transport": "TER", "nombre_trajet_moyen": 14.78, "transport_legende": "\ud83d\udeb2 \u2764\ufe0f Train TER \ud83d\ude86"}, "geometry": {"type": "Point", "coordinates": [5.237122, 43.441734]}}, {"type": "Feature", "properties": {"start": "Avignon Centre", "stop_name": "Miramas", "type": "Gare accessible", "transport": "TER", "nombre_trajet_moyen": 14.87, "transport_legende": "\ud83d\udeb2 \u2764\ufe0f Train TER \ud83d\ude86"}, "geometry": {"type": "Point", "coordinates": [4.999565, 43.580737]}}, {"type": "Feature", "properties": {"start": "Avignon Centre", "stop_name": "Saint-Martin-de-Crau", "type": "Gare accessible", "transport": "TER", "nombre_trajet_moyen": 8.19, "transport_legende": "\ud83d\udeb2 \u2764\ufe0f Train TER \ud83d\ude86"}, "geometry": {"type": "Point", "coordinates": [4.800331, 43.622351]}}, {"type": "Feature", "properties": {"start": "Avignon Centre", "stop_name": "Arles", "type": "Gare accessible", "transport": "TER", "nombre_trajet_moyen": 9.67, "transport_legende": "\ud83d\udeb2 \u2764\ufe0f Train TER \ud83d\ude86"}, "geometry": {"type": "Point", "coordinates": [4.632105, 43.684863]}}, {"type": "Feature", "properties": {"start": "Avignon Centre", "stop_name": "Tain-l'Hermitage - Tournon", "type": "Gare accessible", "transport": "TER", "nombre_trajet_moyen": 12.21, "transport_legende": "\ud83d\udeb2 \u2764\ufe0f Train TER \ud83d\ude86"}, "geometry": {"type": "Point", "coordinates": [4.839708, 45.072178]}}, {"type": "Feature", "properties": {"start": "Avignon Centre", "stop_name": "Saint-Vallier sur Rh\u00f4ne", "type": "Gare accessible", "transport": "TER", "nombre_trajet_moyen": 10.82, "transport_legende": "\ud83d\udeb2 \u2764\ufe0f Train TER \ud83d\ude86"}, "geometry": {"type": "Point", "coordinates": [4.814302, 45.185678]}}, {"type": "Feature", "properties": {"start": "Avignon Centre", "stop_name": "Saint-Rambert-d'Albon", "type": "Gare accessible", "transport": "TER", "nombre_trajet_moyen": 10.82, "transport_legende": "\ud83d\udeb2 \u2764\ufe0f Train TER \ud83d\ude86"}, "geometry": {"type": "Point", "coordinates": [4.810739, 45.29776]}}, {"type": "Feature", "properties": {"start": "Avignon Centre", "stop_name": "Le P\u00e9age-de-Roussillon", "type": "Gare accessible", "transport": "TER", "nombre_trajet_moyen": 12.21, "transport_legende": "\ud83d\udeb2 \u2764\ufe0f Train TER \ud83d\ude86"}, "geometry": {"type": "Point", "coordinates": [4.795406, 45.371724]}}, {"type": "Feature", "properties": {"start": "Avignon Centre", "stop_name": "Saint-Clair - Les Roches", "type": "Gare accessible", "transport": "TER", "nombre_trajet_moyen": 10.82, "transport_legende": "\ud83d\udeb2 \u2764\ufe0f Train TER \ud83d\ude86"}, "geometry": {"type": "Point", "coordinates": [4.769669, 45.450303]}}, {"type": "Feature", "properties": {"start": "Avignon Centre", "stop_name": "Vienne", "type": "Gare accessible", "transport": "TER", "nombre_trajet_moyen": 12.21, "transport_legende": "\ud83d\udeb2 \u2764\ufe0f Train TER \ud83d\ude86"}, "geometry": {"type": "Point", "coordinates": [4.874274, 45.521231]}}, {"type": "Feature", "properties": {"start": "Avignon Centre", "stop_name": "Lyon Part Dieu", "type": "Gare accessible", "transport": "TER", "nombre_trajet_moyen": 10.86, "transport_legende": "\ud83d\udeb2 \u2764\ufe0f Train TER \ud83d\ude86"}, "geometry": {"type": "Point", "coordinates": [4.859409, 45.760596]}}, {"type": "Feature", "properties": {"start": "Avignon Centre", "stop_name": "Le Thor", "type": "Gare accessible", "transport": "TER", "nombre_trajet_moyen": 6.2, "transport_legende": "\ud83d\udeb2 \u2764\ufe0f Train TER \ud83d\ude86"}, "geometry": {"type": "Point", "coordinates": [4.996271, 43.926507]}}, {"type": "Feature", "properties": {"start": "Avignon Centre", "stop_name": "L'Isle-sur-Sorgue - Fontaine-V", "type": "Gare accessible", "transport": "TER", "nombre_trajet_moyen": 6.2, "transport_legende": "\ud83d\udeb2 \u2764\ufe0f Train TER \ud83d\ude86"}, "geometry": {"type": "Point", "coordinates": [5.047606, 43.917398]}}, {"type": "Feature", "properties": {"start": "Avignon Centre", "stop_name": "Cavaillon", "type": "Gare accessible", "transport": "TER", "nombre_trajet_moyen": 6.21, "transport_legende": "\ud83d\udeb2 \u2764\ufe0f Train TER \ud83d\ude86"}, "geometry": {"type": "Point", "coordinates": [5.043714, 43.834703]}}, {"type": "Feature", "properties": {"start": "Avignon Centre", "stop_name": "Salon", "type": "Gare accessible", "transport": "TER", "nombre_trajet_moyen": 6.2, "transport_legende": "\ud83d\udeb2 \u2764\ufe0f Train TER \ud83d\ude86"}, "geometry": {"type": "Point", "coordinates": [5.088588, 43.639082]}}, {"type": "Feature", "properties": {"start": "Avignon Centre", "stop_name": "Montfavet", "type": "Gare accessible", "transport": "TER", "nombre_trajet_moyen": 6.2, "transport_legende": "\ud83d\udeb2 \u2764\ufe0f Train TER \ud83d\ude86"}, "geometry": {"type": "Point", "coordinates": [4.87404, 43.932679]}}, {"type": "Feature", "properties": {"start": "Avignon Centre", "stop_name": "Mori\u00e8res-l\u00e8s-Avignon", "type": "Gare accessible", "transport": "TER", "nombre_trajet_moyen": 6.2, "transport_legende": "\ud83d\udeb2 \u2764\ufe0f Train TER \ud83d\ude86"}, "geometry": {"type": "Point", "coordinates": [4.908206, 43.941502]}}, {"type": "Feature", "properties": {"start": "Avignon Centre", "stop_name": "Saint-Saturnin-l\u00e8s-Avignon", "type": "Gare accessible", "transport": "TER", "nombre_trajet_moyen": 6.2, "transport_legende": "\ud83d\udeb2 \u2764\ufe0f Train TER \ud83d\ude86"}, "geometry": {"type": "Point", "coordinates": [4.935321, 43.95318]}}, {"type": "Feature", "properties": {"start": "Avignon Centre", "stop_name": "Gadagne", "type": "Gare accessible", "transport": "TER", "nombre_trajet_moyen": 6.2, "transport_legende": "\ud83d\udeb2 \u2764\ufe0f Train TER \ud83d\ude86"}, "geometry": {"type": "Point", "coordinates": [4.956824, 43.929699]}}, {"type": "Feature", "properties": {"start": "Avignon Centre", "stop_name": "Orgon", "type": "Gare accessible", "transport": "TER", "nombre_trajet_moyen": 6.2, "transport_legende": "\ud83d\udeb2 \u2764\ufe0f Train TER \ud83d\ude86"}, "geometry": {"type": "Point", "coordinates": [5.045683, 43.785932]}}, {"type": "Feature", "properties": {"start": "Avignon Centre", "stop_name": "S\u00e9nas", "type": "Gare accessible", "transport": "TER", "nombre_trajet_moyen": 6.2, "transport_legende": "\ud83d\udeb2 \u2764\ufe0f Train TER \ud83d\ude86"}, "geometry": {"type": "Point", "coordinates": [5.073345, 43.741003]}}, {"type": "Feature", "properties": {"start": "Avignon Centre", "stop_name": "Lamanon", "type": "Gare accessible", "transport": "TER", "nombre_trajet_moyen": 6.2, "transport_legende": "\ud83d\udeb2 \u2764\ufe0f Train TER \ud83d\ude86"}, "geometry": {"type": "Point", "coordinates": [5.091369, 43.700033]}}, {"type": "Feature", "properties": {"start": "Avignon Centre", "stop_name": "Avignon TGV", "type": "Gare accessible", "transport": "TER", "nombre_trajet_moyen": 9.99, "transport_legende": "\ud83d\udeb2 \u2764\ufe0f Train TER \ud83d\ude86"}, "geometry": {"type": "Point", "coordinates": [4.786136, 43.92194]}}, {"type": "Feature", "properties": {"start": "Avignon Centre", "stop_name": "Portbou", "type": "Gare accessible", "transport": "TER", "nombre_trajet_moyen": 3.25, "transport_legende": "\ud83d\udeb2 \u2764\ufe0f Train TER \ud83d\ude86"}, "geometry": {"type": "Point", "coordinates": [3.158034, 42.424701]}}, {"type": "Feature", "properties": {"start": "Avignon Centre", "stop_name": "Cerb\u00e8re", "type": "Gare accessible", "transport": "TER", "nombre_trajet_moyen": 3.44, "transport_legende": "\ud83d\udeb2 \u2764\ufe0f Train TER \ud83d\ude86"}, "geometry": {"type": "Point", "coordinates": [3.163403, 42.441773]}}, {"type": "Feature", "properties": {"start": "Avignon Centre", "stop_name": "Banyuls-sur-Mer", "type": "Gare accessible", "transport": "TER", "nombre_trajet_moyen": 3.44, "transport_legende": "\ud83d\udeb2 \u2764\ufe0f Train TER \ud83d\ude86"}, "geometry": {"type": "Point", "coordinates": [3.12505, 42.482958]}}, {"type": "Feature", "properties": {"start": "Avignon Centre", "stop_name": "Port-Vendres", "type": "Gare accessible", "transport": "TER", "nombre_trajet_moyen": 3.44, "transport_legende": "\ud83d\udeb2 \u2764\ufe0f Train TER \ud83d\ude86"}, "geometry": {"type": "Point", "coordinates": [3.102576, 42.513608]}}, {"type": "Feature", "properties": {"start": "Avignon Centre", "stop_name": "Collioure", "type": "Gare accessible", "transport": "TER", "nombre_trajet_moyen": 3.44, "transport_legende": "\ud83d\udeb2 \u2764\ufe0f Train TER \ud83d\ude86"}, "geometry": {"type": "Point", "coordinates": [3.078202, 42.526928]}}, {"type": "Feature", "properties": {"start": "Avignon Centre", "stop_name": "Argel\u00e8s-sur-Mer", "type": "Gare accessible", "transport": "TER", "nombre_trajet_moyen": 3.44, "transport_legende": "\ud83d\udeb2 \u2764\ufe0f Train TER \ud83d\ude86"}, "geometry": {"type": "Point", "coordinates": [3.021919, 42.543908]}}, {"type": "Feature", "properties": {"start": "Avignon Centre", "stop_name": "Elne", "type": "Gare accessible", "transport": "TER", "nombre_trajet_moyen": 3.44, "transport_legende": "\ud83d\udeb2 \u2764\ufe0f Train TER \ud83d\ude86"}, "geometry": {"type": "Point", "coordinates": [2.963585, 42.597114]}}, {"type": "Feature", "properties": {"start": "Avignon Centre", "stop_name": "Perpignan", "type": "Gare accessible", "transport": "TER", "nombre_trajet_moyen": 5.24, "transport_legende": "\ud83d\udeb2 \u2764\ufe0f Train TER \ud83d\ude86"}, "geometry": {"type": "Point", "coordinates": [2.879355, 42.696096]}}, {"type": "Feature", "properties": {"start": "Avignon Centre", "stop_name": "Rivesaltes", "type": "Gare accessible", "transport": "TER", "nombre_trajet_moyen": 5.24, "transport_legende": "\ud83d\udeb2 \u2764\ufe0f Train TER \ud83d\ude86"}, "geometry": {"type": "Point", "coordinates": [2.867807, 42.766375]}}, {"type": "Feature", "properties": {"start": "Avignon Centre", "stop_name": "Salses", "type": "Gare accessible", "transport": "TER", "nombre_trajet_moyen": 5.24, "transport_legende": "\ud83d\udeb2 \u2764\ufe0f Train TER \ud83d\ude86"}, "geometry": {"type": "Point", "coordinates": [2.917447, 42.835609]}}, {"type": "Feature", "properties": {"start": "Avignon Centre", "stop_name": "Leucate la Franqui", "type": "Gare accessible", "transport": "TER", "nombre_trajet_moyen": 5.24, "transport_legende": "\ud83d\udeb2 \u2764\ufe0f Train TER \ud83d\ude86"}, "geometry": {"type": "Point", "coordinates": [3.012845, 42.932836]}}, {"type": "Feature", "properties": {"start": "Avignon Centre", "stop_name": "Port-la-Nouvelle", "type": "Gare accessible", "transport": "TER", "nombre_trajet_moyen": 5.24, "transport_legende": "\ud83d\udeb2 \u2764\ufe0f Train TER \ud83d\ude86"}, "geometry": {"type": "Point", "coordinates": [3.038819, 43.019934]}}, {"type": "Feature", "properties": {"start": "Avignon Centre", "stop_name": "Narbonne", "type": "Gare accessible", "transport": "TER", "nombre_trajet_moyen": 8.02, "transport_legende": "\ud83d\udeb2 \u2764\ufe0f Train TER \ud83d\ude86"}, "geometry": {"type": "Point", "coordinates": [3.005667, 43.190618]}}, {"type": "Feature", "properties": {"start": "Avignon Centre", "stop_name": "B\u00e9ziers", "type": "Gare accessible", "transport": "TER", "nombre_trajet_moyen": 8.57, "transport_legende": "\ud83d\udeb2 \u2764\ufe0f Train TER \ud83d\ude86"}, "geometry": {"type": "Point", "coordinates": [3.218895, 43.336295]}}, {"type": "Feature", "properties": {"start": "Avignon Centre", "stop_name": "Agde", "type": "Gare accessible", "transport": "TER", "nombre_trajet_moyen": 8.57, "transport_legende": "\ud83d\udeb2 \u2764\ufe0f Train TER \ud83d\ude86"}, "geometry": {"type": "Point", "coordinates": [3.466203, 43.31728]}}, {"type": "Feature", "properties": {"start": "Avignon Centre", "stop_name": "S\u00e8te", "type": "Gare accessible", "transport": "TER", "nombre_trajet_moyen": 9.49, "transport_legende": "\ud83d\udeb2 \u2764\ufe0f Train TER \ud83d\ude86"}, "geometry": {"type": "Point", "coordinates": [3.696571, 43.412641]}}, {"type": "Feature", "properties": {"start": "Avignon Centre", "stop_name": "Frontignan", "type": "Gare accessible", "transport": "TER", "nombre_trajet_moyen": 9.49, "transport_legende": "\ud83d\udeb2 \u2764\ufe0f Train TER \ud83d\ude86"}, "geometry": {"type": "Point", "coordinates": [3.758689, 43.444934]}}, {"type": "Feature", "properties": {"start": "Avignon Centre", "stop_name": "Montpellier Saint-Roch", "type": "Gare accessible", "transport": "TER", "nombre_trajet_moyen": 10.47, "transport_legende": "\ud83d\udeb2 \u2764\ufe0f Train TER \ud83d\ude86"}, "geometry": {"type": "Point", "coordinates": [3.880674, 43.604738]}}, {"type": "Feature", "properties": {"start": "Avignon Centre", "stop_name": "Baillargues", "type": "Gare accessible", "transport": "TER", "nombre_trajet_moyen": 10.46, "transport_legende": "\ud83d\udeb2 \u2764\ufe0f Train TER \ud83d\ude86"}, "geometry": {"type": "Point", "coordinates": [4.007159, 43.653323]}}, {"type": "Feature", "properties": {"start": "Avignon Centre", "stop_name": "Lunel", "type": "Gare accessible", "transport": "TER", "nombre_trajet_moyen": 10.47, "transport_legende": "\ud83d\udeb2 \u2764\ufe0f Train TER \ud83d\ude86"}, "geometry": {"type": "Point", "coordinates": [4.131086, 43.679392]}}, {"type": "Feature", "properties": {"start": "Avignon Centre", "stop_name": "Verg\u00e8ze - Codognan", "type": "Gare accessible", "transport": "TER", "nombre_trajet_moyen": 10.46, "transport_legende": "\ud83d\udeb2 \u2764\ufe0f Train TER \ud83d\ude86"}, "geometry": {"type": "Point", "coordinates": [4.218911, 43.739784]}}, {"type": "Feature", "properties": {"start": "Avignon Centre", "stop_name": "N\u00eemes Centre", "type": "Gare accessible", "transport": "TER", "nombre_trajet_moyen": 10.91, "transport_legende": "\ud83d\udeb2 \u2764\ufe0f Train TER \ud83d\ude86"}, "geometry": {"type": "Point", "coordinates": [4.365872, 43.832313]}}, {"type": "Feature", "properties": {"start": "Avignon Centre", "stop_name": "N\u00eemes Pont du Gard", "type": "Gare accessible", "transport": "TER", "nombre_trajet_moyen": 9.6, "transport_legende": "\ud83d\udeb2 \u2764\ufe0f Train TER \ud83d\ude86"}, "geometry": {"type": "Point", "coordinates": [4.507678, 43.816809]}}, {"type": "Feature", "properties": {"start": "Avignon Centre", "stop_name": "Beaucaire", "type": "Gare accessible", "transport": "TER", "nombre_trajet_moyen": 9.32, "transport_legende": "\ud83d\udeb2 \u2764\ufe0f Train TER \ud83d\ude86"}, "geometry": {"type": "Point", "coordinates": [4.647087, 43.80209]}}, {"type": "Feature", "properties": {"start": "Avignon Centre", "stop_name": "Tarascon-sur-Rh\u00f4ne", "type": "Gare accessible", "transport": "TER", "nombre_trajet_moyen": 9.33, "transport_legende": "\ud83d\udeb2 \u2764\ufe0f Train TER \ud83d\ude86"}, "geometry": {"type": "Point", "coordinates": [4.657206, 43.801331]}}, {"type": "Feature", "properties": {"start": "Avignon Centre", "stop_name": "Saint-C\u00e9saire", "type": "Gare accessible", "transport": "TER", "nombre_trajet_moyen": 2.95, "transport_legende": "\ud83d\udeb2 \u2764\ufe0f Train TER \ud83d\ude86"}, "geometry": {"type": "Point", "coordinates": [4.327634, 43.813345]}}, {"type": "Feature", "properties": {"start": "Avignon Centre", "stop_name": "Lunel-Viel", "type": "Gare accessible", "transport": "TER", "nombre_trajet_moyen": 2.41, "transport_legende": "\ud83d\udeb2 \u2764\ufe0f Train TER \ud83d\ude86"}, "geometry": {"type": "Point", "coordinates": [4.09374, 43.681173]}}, {"type": "Feature", "properties": {"start": "Avignon Centre", "stop_name": "Valergues - Lansargues", "type": "Gare accessible", "transport": "TER", "nombre_trajet_moyen": 2.41, "transport_legende": "\ud83d\udeb2 \u2764\ufe0f Train TER \ud83d\ude86"}, "geometry": {"type": "Point", "coordinates": [4.060256, 43.672631]}}, {"type": "Feature", "properties": {"start": "Avignon Centre", "stop_name": "Saint-Aun\u00e8s", "type": "Gare accessible", "transport": "TER", "nombre_trajet_moyen": 1.57, "transport_legende": "\ud83d\udeb2 \u2764\ufe0f Train TER \ud83d\ude86"}, "geometry": {"type": "Point", "coordinates": [3.96309, 43.635442]}}, {"type": "Feature", "properties": {"start": "Avignon Centre", "stop_name": "Villeneuve-l\u00e8s-Maguelone", "type": "Gare accessible", "transport": "TER", "nombre_trajet_moyen": 2.65, "transport_legende": "\ud83d\udeb2 \u2764\ufe0f Train TER \ud83d\ude86"}, "geometry": {"type": "Point", "coordinates": [3.849887, 43.543728]}}, {"type": "Feature", "properties": {"start": "Avignon Centre", "stop_name": "Vic - Mireval", "type": "Gare accessible", "transport": "TER", "nombre_trajet_moyen": 2.65, "transport_legende": "\ud83d\udeb2 \u2764\ufe0f Train TER \ud83d\ude86"}, "geometry": {"type": "Point", "coordinates": [3.799379, 43.500704]}}, {"type": "Feature", "properties": {"start": "Avignon Centre", "stop_name": "Gallargues", "type": "Gare accessible", "transport": "TER", "nombre_trajet_moyen": 1.23, "transport_legende": "\ud83d\udeb2 \u2764\ufe0f Train TER \ud83d\ude86"}, "geometry": {"type": "Point", "coordinates": [4.171079, 43.716033]}}, {"type": "Feature", "properties": {"start": "Avignon Centre", "stop_name": "Uchaud", "type": "Gare accessible", "transport": "TER", "nombre_trajet_moyen": 1.23, "transport_legende": "\ud83d\udeb2 \u2764\ufe0f Train TER \ud83d\ude86"}, "geometry": {"type": "Point", "coordinates": [4.267443, 43.758096]}}, {"type": "Feature", "properties": {"start": "Avignon Centre", "stop_name": "Milhaud", "type": "Gare accessible", "transport": "TER", "nombre_trajet_moyen": 1.67, "transport_legende": "\ud83d\udeb2 \u2764\ufe0f Train TER \ud83d\ude86"}, "geometry": {"type": "Point", "coordinates": [4.303327, 43.788489]}}, {"type": "Feature", "properties": {"start": "Avignon Centre", "stop_name": "Marseillan Plage", "type": "Gare accessible", "transport": "TER", "nombre_trajet_moyen": 1.41, "transport_legende": "\ud83d\udeb2 \u2764\ufe0f Train TER \ud83d\ude86"}, "geometry": {"type": "Point", "coordinates": [3.535629, 43.318258]}}, {"type": "Feature", "properties": {"start": "Avignon Centre", "stop_name": "Vias", "type": "Gare accessible", "transport": "TER", "nombre_trajet_moyen": 1.41, "transport_legende": "\ud83d\udeb2 \u2764\ufe0f Train TER \ud83d\ude86"}, "geometry": {"type": "Point", "coordinates": [3.425356, 43.315653]}}, {"type": "Feature", "properties": {"start": "Avignon Centre", "stop_name": "Coursan", "type": "Gare accessible", "transport": "TER", "nombre_trajet_moyen": 0.73, "transport_legende": "\ud83d\udeb2 \u2764\ufe0f Train TER \ud83d\ude86"}, "geometry": {"type": "Point", "coordinates": [3.050946, 43.233731]}}, {"type": "Feature", "properties": {"start": "Avignon Centre", "stop_name": "Pont-Saint-Esprit", "type": "Gare accessible", "transport": "TER", "nombre_trajet_moyen": 5.22, "transport_legende": "\ud83d\udeb2 \u2764\ufe0f Train TER \ud83d\ude86"}, "geometry": {"type": "Point", "coordinates": [4.643118, 44.25315]}}, {"type": "Feature", "properties": {"start": "Avignon Centre", "stop_name": "Bagnols-sur-C\u00e8ze", "type": "Gare accessible", "transport": "TER", "nombre_trajet_moyen": 5.22, "transport_legende": "\ud83d\udeb2 \u2764\ufe0f Train TER \ud83d\ude86"}, "geometry": {"type": "Point", "coordinates": [4.626982, 44.161604]}}, {"type": "Feature", "properties": {"start": "Avignon Centre", "stop_name": "Sorgues - Ch\u00e2teauneuf-du-Pape", "type": "Gare accessible", "transport": "TER", "nombre_trajet_moyen": 14.96, "transport_legende": "\ud83d\udeb2 \u2764\ufe0f Train TER \ud83d\ude86"}, "geometry": {"type": "Point", "coordinates": [4.875612, 44.005427]}}, {"type": "Feature", "properties": {"start": "Avignon Centre", "stop_name": "Entraigues-sur-la-Sorgue", "type": "Gare accessible", "transport": "TER", "nombre_trajet_moyen": 4.52, "transport_legende": "\ud83d\udeb2 \u2764\ufe0f Train TER \ud83d\ude86"}, "geometry": {"type": "Point", "coordinates": [4.9221, 44.005317]}}, {"type": "Feature", "properties": {"start": "Avignon Centre", "stop_name": "Monteux", "type": "Gare accessible", "transport": "TER", "nombre_trajet_moyen": 4.52, "transport_legende": "\ud83d\udeb2 \u2764\ufe0f Train TER \ud83d\ude86"}, "geometry": {"type": "Point", "coordinates": [4.994788, 44.037355]}}, {"type": "Feature", "properties": {"start": "Avignon Centre", "stop_name": "Carpentras", "type": "Gare accessible", "transport": "TER", "nombre_trajet_moyen": 4.52, "transport_legende": "\ud83d\udeb2 \u2764\ufe0f Train TER \ud83d\ude86"}, "geometry": {"type": "Point", "coordinates": [5.044439, 44.048484]}}, {"type": "Feature", "properties": {"start": "Avignon Centre", "stop_name": "L'Estaque", "type": "Gare accessible", "transport": "TER", "nombre_trajet_moyen": 12.91, "transport_legende": "\ud83d\udeb2 \u2764\ufe0f Train TER \ud83d\ude86"}, "geometry": {"type": "Point", "coordinates": [5.321342, 43.363646]}}, {"type": "Feature", "properties": {"start": "Avignon Centre", "stop_name": "Pas des Lanciers", "type": "Gare accessible", "transport": "TER", "nombre_trajet_moyen": 12.91, "transport_legende": "\ud83d\udeb2 \u2764\ufe0f Train TER \ud83d\ude86"}, "geometry": {"type": "Point", "coordinates": [5.253825, 43.409709]}}, {"type": "Feature", "properties": {"start": "Avignon Centre", "stop_name": "Rognac", "type": "Gare accessible", "transport": "TER", "nombre_trajet_moyen": 12.91, "transport_legende": "\ud83d\udeb2 \u2764\ufe0f Train TER \ud83d\ude86"}, "geometry": {"type": "Point", "coordinates": [5.230664, 43.486632]}}, {"type": "Feature", "properties": {"start": "Avignon Centre", "stop_name": "Saint-Chamas", "type": "Gare accessible", "transport": "TER", "nombre_trajet_moyen": 12.91, "transport_legende": "\ud83d\udeb2 \u2764\ufe0f Train TER \ud83d\ude86"}, "geometry": {"type": "Point", "coordinates": [5.040265, 43.551161]}}, {"type": "Feature", "properties": {"start": "Avignon Centre", "stop_name": "Arenc Eurom\u00e9diterran\u00e9e", "type": "Gare accessible", "transport": "TER", "nombre_trajet_moyen": 0.65, "transport_legende": "\ud83d\udeb2 \u2764\ufe0f Train TER \ud83d\ude86"}, "geometry": {"type": "Point", "coordinates": [5.36801, 43.312247]}}, {"type": "Feature", "properties": {"start": "Avignon Centre", "stop_name": "Loriol", "type": "Gare accessible", "transport": "TER", "nombre_trajet_moyen": 11.99, "transport_legende": "\ud83d\udeb2 \u2764\ufe0f Train TER \ud83d\ude86"}, "geometry": {"type": "Point", "coordinates": [4.817213, 44.754515]}}, {"type": "Feature", "properties": {"start": "Avignon Centre", "stop_name": "Donz\u00e8re", "type": "Gare accessible", "transport": "TER", "nombre_trajet_moyen": 12.23, "transport_legende": "\ud83d\udeb2 \u2764\ufe0f Train TER \ud83d\ude86"}, "geometry": {"type": "Point", "coordinates": [4.704626, 44.443365]}}, {"type": "Feature", "properties": {"start": "Avignon Centre", "stop_name": "Courth\u00e9zon", "type": "Gare accessible", "transport": "TER", "nombre_trajet_moyen": 11.01, "transport_legende": "\ud83d\udeb2 \u2764\ufe0f Train TER \ud83d\ude86"}, "geometry": {"type": "Point", "coordinates": [4.888178, 44.089999]}}, {"type": "Feature", "properties": {"start": "Avignon Centre", "stop_name": "Lyon Jean Mac\u00e9", "type": "Gare accessible", "transport": "TER", "nombre_trajet_moyen": 2.65, "transport_legende": "\ud83d\udeb2 \u2764\ufe0f Train TER \ud83d\ude86"}, "geometry": {"type": "Point", "coordinates": [4.841499, 45.74503]}}, {"type": "Feature", "properties": {"start": "Avignon Centre", "stop_name": "Lyon Perrache", "type": "Gare accessible", "transport": "TER", "nombre_trajet_moyen": 2.65, "transport_legende": "\ud83d\udeb2 \u2764\ufe0f Train TER \ud83d\ude86"}, "geometry": {"type": "Point", "coordinates": [4.825777, 45.748508]}}, {"type": "Feature", "properties": {"start": "Avignon Centre", "stop_name": "Lyon Vaise", "type": "Gare accessible", "transport": "TER", "nombre_trajet_moyen": 0.84, "transport_legende": "\ud83d\udeb2 \u2764\ufe0f Train TER \ud83d\ude86"}, "geometry": {"type": "Point", "coordinates": [4.804186, 45.77976]}}, {"type": "Feature", "properties": {"start": "Avignon Centre", "stop_name": "Saint-Germain-au-Mont-d'Or", "type": "Gare accessible", "transport": "TER", "nombre_trajet_moyen": 0.84, "transport_legende": "\ud83d\udeb2 \u2764\ufe0f Train TER \ud83d\ude86"}, "geometry": {"type": "Point", "coordinates": [4.804206, 45.888431]}}, {"type": "Feature", "properties": {"start": "Avignon Centre", "stop_name": "Anse", "type": "Gare accessible", "transport": "TER", "nombre_trajet_moyen": 0.84, "transport_legende": "\ud83d\udeb2 \u2764\ufe0f Train TER \ud83d\ude86"}, "geometry": {"type": "Point", "coordinates": [4.719824, 45.939351]}}, {"type": "Feature", "properties": {"start": "Avignon Centre", "stop_name": "Villefranche-sur-Sa\u00f4ne", "type": "Gare accessible", "transport": "TER", "nombre_trajet_moyen": 0.84, "transport_legende": "\ud83d\udeb2 \u2764\ufe0f Train TER \ud83d\ude86"}, "geometry": {"type": "Point", "coordinates": [4.720798, 45.984482]}}, {"type": "Feature", "properties": {"start": "Avignon Centre", "stop_name": "Saint-Georges-de-Reneins", "type": "Gare accessible", "transport": "TER", "nombre_trajet_moyen": 0.84, "transport_legende": "\ud83d\udeb2 \u2764\ufe0f Train TER \ud83d\ude86"}, "geometry": {"type": "Point", "coordinates": [4.718888, 46.06221]}}, {"type": "Feature", "properties": {"start": "Avignon Centre", "stop_name": "Belleville sur S\u00e2one", "type": "Gare accessible", "transport": "TER", "nombre_trajet_moyen": 0.84, "transport_legende": "\ud83d\udeb2 \u2764\ufe0f Train TER \ud83d\ude86"}, "geometry": {"type": "Point", "coordinates": [4.729011, 46.111952]}}, {"type": "Feature", "properties": {"start": "Avignon Centre", "stop_name": "Roman\u00e8che-Thorins-Maison Blanche", "type": "Gare accessible", "transport": "TER", "nombre_trajet_moyen": 0.84, "transport_legende": "\ud83d\udeb2 \u2764\ufe0f Train TER \ud83d\ude86"}, "geometry": {"type": "Point", "coordinates": [4.741973, 46.176344]}}, {"type": "Feature", "properties": {"start": "Avignon Centre", "stop_name": "Pontanevaux", "type": "Gare accessible", "transport": "TER", "nombre_trajet_moyen": 0.84, "transport_legende": "\ud83d\udeb2 \u2764\ufe0f Train TER \ud83d\ude86"}, "geometry": {"type": "Point", "coordinates": [4.772881, 46.213047]}}, {"type": "Feature", "properties": {"start": "Avignon Centre", "stop_name": "Cr\u00eaches-sur-Sa\u00f4ne", "type": "Gare accessible", "transport": "TER", "nombre_trajet_moyen": 0.84, "transport_legende": "\ud83d\udeb2 \u2764\ufe0f Train TER \ud83d\ude86"}, "geometry": {"type": "Point", "coordinates": [4.784047, 46.246154]}}, {"type": "Feature", "properties": {"start": "Avignon Centre", "stop_name": "M\u00e2con", "type": "Gare accessible", "transport": "TER", "nombre_trajet_moyen": 0.84, "transport_legende": "\ud83d\udeb2 \u2764\ufe0f Train TER \ud83d\ude86"}, "geometry": {"type": "Point", "coordinates": [4.824887, 46.302572]}}, {"type": "Feature", "properties": {"start": "Avignon Centre", "stop_name": "B\u00e9darrides", "type": "Gare accessible", "transport": "TER", "nombre_trajet_moyen": 10.08, "transport_legende": "\ud83d\udeb2 \u2764\ufe0f Train TER \ud83d\ude86"}, "geometry": {"type": "Point", "coordinates": [4.89325, 44.040843]}}]}