{"type": "FeatureCollection", "features": [{"type": "Feature", "properties": {"start": "Bailleul", "stop_name": "Bailleul", "type": "Gare s\u00e9lectionn\u00e9e", "transport": "TER", "nombre_trajet_moyen": 3.66, "transport_legende": "\ud83d\udeb2 \u2764\ufe0f Train TER \ud83d\ude86"}, "geometry": {"type": "Point", "coordinates": [2.734485, 50.729167]}}, {"type": "Feature", "properties": {"start": "Bailleul", "stop_name": "Lille Flandres", "type": "Gare accessible", "transport": "TER", "nombre_trajet_moyen": 3.66, "transport_legende": "\ud83d\udeb2 \u2764\ufe0f Train TER \ud83d\ude86"}, "geometry": {"type": "Point", "coordinates": [3.06987, 50.636577]}}, {"type": "Feature", "properties": {"start": "Bailleul", "stop_name": "Armenti\u00e8res", "type": "Gare accessible", "transport": "TER", "nombre_trajet_moyen": 3.66, "transport_legende": "\ud83d\udeb2 \u2764\ufe0f Train TER \ud83d\ude86"}, "geometry": {"type": "Point", "coordinates": [2.87768, 50.680848]}}, {"type": "Feature", "properties": {"start": "Bailleul", "stop_name": "Hazebrouck", "type": "Gare accessible", "transport": "TER", "nombre_trajet_moyen": 3.66, "transport_legende": "\ud83d\udeb2 \u2764\ufe0f Train TER \ud83d\ude86"}, "geometry": {"type": "Point", "coordinates": [2.541463, 50.724924]}}, {"type": "Feature", "properties": {"start": "Bailleul", "stop_name": "Strazeele", "type": "Gare accessible", "transport": "TER", "nombre_trajet_moyen": 1.6, "transport_legende": "\ud83d\udeb2 \u2764\ufe0f Train TER \ud83d\ude86"}, "geometry": {"type": "Point", "coordinates": [2.630928, 50.713419]}}, {"type": "Feature", "properties": {"start": "Bailleul", "stop_name": "Steenwerck", "type": "Gare accessible", "transport": "TER", "nombre_trajet_moyen": 1.8, "transport_legende": "\ud83d\udeb2 \u2764\ufe0f Train TER \ud83d\ude86"}, "geometry": {"type": "Point", "coordinates": [2.786562, 50.712787]}}, {"type": "Feature", "properties": {"start": "Bailleul", "stop_name": "Nieppe", "type": "Gare accessible", "transport": "TER", "nombre_trajet_moyen": 1.8, "transport_legende": "\ud83d\udeb2 \u2764\ufe0f Train TER \ud83d\ude86"}, "geometry": {"type": "Point", "coordinates": [2.829106, 50.696864]}}, {"type": "Feature", "properties": {"start": "Bailleul", "stop_name": "P\u00e9renchies", "type": "Gare accessible", "transport": "TER", "nombre_trajet_moyen": 1.6, "transport_legende": "\ud83d\udeb2 \u2764\ufe0f Train TER \ud83d\ude86"}, "geometry": {"type": "Point", "coordinates": [2.977239, 50.667044]}}, {"type": "Feature", "properties": {"start": "Bailleul", "stop_name": "Saint-Andr\u00e9", "type": "Gare accessible", "transport": "TER", "nombre_trajet_moyen": 0.99, "transport_legende": "\ud83d\udeb2 \u2764\ufe0f Train TER \ud83d\ude86"}, "geometry": {"type": "Point", "coordinates": [3.04766, 50.654307]}}, {"type": "Feature", "properties": {"start": "Bailleul", "stop_name": "La Madeleine", "type": "Gare accessible", "transport": "TER", "nombre_trajet_moyen": 0.99, "transport_legende": "\ud83d\udeb2 \u2764\ufe0f Train TER \ud83d\ude86"}, "geometry": {"type": "Point", "coordinates": [3.072631, 50.660628]}}, {"type": "Feature", "properties": {"start": "Bailleul", "stop_name": "Saint-Omer", "type": "Gare accessible", "transport": "TER", "nombre_trajet_moyen": 3.02, "transport_legende": "\ud83d\udeb2 \u2764\ufe0f Train TER \ud83d\ude86"}, "geometry": {"type": "Point", "coordinates": [2.266719, 50.753618]}}, {"type": "Feature", "properties": {"start": "Bailleul", "stop_name": "Calais Ville", "type": "Gare accessible", "transport": "TER", "nombre_trajet_moyen": 2.88, "transport_legende": "\ud83d\udeb2 \u2764\ufe0f Train TER \ud83d\ude86"}, "geometry": {"type": "Point", "coordinates": [1.850885, 50.953466]}}, {"type": "Feature", "properties": {"start": "Bailleul", "stop_name": "Audruicq", "type": "Gare accessible", "transport": "TER", "nombre_trajet_moyen": 2.88, "transport_legende": "\ud83d\udeb2 \u2764\ufe0f Train TER \ud83d\ude86"}, "geometry": {"type": "Point", "coordinates": [2.07633, 50.875668]}}, {"type": "Feature", "properties": {"start": "Bailleul", "stop_name": "Watten - \u00c9perlecques", "type": "Gare accessible", "transport": "TER", "nombre_trajet_moyen": 2.88, "transport_legende": "\ud83d\udeb2 \u2764\ufe0f Train TER \ud83d\ude86"}, "geometry": {"type": "Point", "coordinates": [2.207597, 50.826125]}}, {"type": "Feature", "properties": {"start": "Bailleul", "stop_name": "Les Fontinettes", "type": "Gare accessible", "transport": "TER", "nombre_trajet_moyen": 0.62, "transport_legende": "\ud83d\udeb2 \u2764\ufe0f Train TER \ud83d\ude86"}, "geometry": {"type": "Point", "coordinates": [1.849858, 50.941002]}}, {"type": "Feature", "properties": {"start": "Bailleul", "stop_name": "Dunkerque", "type": "Gare accessible", "transport": "TER", "nombre_trajet_moyen": 1.89, "transport_legende": "\ud83d\udeb2 \u2764\ufe0f Train TER \ud83d\ude86"}, "geometry": {"type": "Point", "coordinates": [2.368991, 51.03041]}}, {"type": "Feature", "properties": {"start": "Bailleul", "stop_name": "Bergues", "type": "Gare accessible", "transport": "TER", "nombre_trajet_moyen": 1.89, "transport_legende": "\ud83d\udeb2 \u2764\ufe0f Train TER \ud83d\ude86"}, "geometry": {"type": "Point", "coordinates": [2.425787, 50.968997]}}, {"type": "Feature", "properties": {"start": "Bailleul", "stop_name": "Esquelbecq", "type": "Gare accessible", "transport": "TER", "nombre_trajet_moyen": 1.89, "transport_legende": "\ud83d\udeb2 \u2764\ufe0f Train TER \ud83d\ude86"}, "geometry": {"type": "Point", "coordinates": [2.412368, 50.889751]}}, {"type": "Feature", "properties": {"start": "Bailleul", "stop_name": "Arn\u00e8ke", "type": "Gare accessible", "transport": "TER", "nombre_trajet_moyen": 1.89, "transport_legende": "\ud83d\udeb2 \u2764\ufe0f Train TER \ud83d\ude86"}, "geometry": {"type": "Point", "coordinates": [2.408468, 50.831509]}}, {"type": "Feature", "properties": {"start": "Bailleul", "stop_name": "Cassel", "type": "Gare accessible", "transport": "TER", "nombre_trajet_moyen": 1.89, "transport_legende": "\ud83d\udeb2 \u2764\ufe0f Train TER \ud83d\ude86"}, "geometry": {"type": "Point", "coordinates": [2.460361, 50.78753]}}, {"type": "Feature", "properties": {"start": "Bailleul", "stop_name": "Coudekerque-Branche", "type": "Gare accessible", "transport": "TER", "nombre_trajet_moyen": 0.58, "transport_legende": "\ud83d\udeb2 \u2764\ufe0f Train TER \ud83d\ude86"}, "geometry": {"type": "Point", "coordinates": [2.375182, 51.017916]}}]}