{"type": "FeatureCollection", "features": [{"type": "Feature", "properties": {"start": "Beau Marais", "stop_name": "Beau Marais", "type": "Gare s\u00e9lectionn\u00e9e", "transport": "TER", "transport_legende": "\ud83d\udeb2 \u2764\ufe0f Train TER \ud83d\ude86"}, "geometry": {"type": "Point", "coordinates": [1.898033, 50.94538]}}, {"type": "Feature", "properties": {"start": "Beau Marais", "stop_name": "Calais Ville", "type": "Gare accessible", "transport": "TER", "transport_legende": "\ud83d\udeb2 \u2764\ufe0f Train TER \ud83d\ude86"}, "geometry": {"type": "Point", "coordinates": [1.850885, 50.953466]}}, {"type": "Feature", "properties": {"start": "Beau Marais", "stop_name": "Les Fontinettes", "type": "Gare accessible", "transport": "TER", "transport_legende": "\ud83d\udeb2 \u2764\ufe0f Train TER \ud83d\ude86"}, "geometry": {"type": "Point", "coordinates": [1.849858, 50.941002]}}, {"type": "Feature", "properties": {"start": "Beau Marais", "stop_name": "Gravelines", "type": "Gare accessible", "transport": "TER", "transport_legende": "\ud83d\udeb2 \u2764\ufe0f Train TER \ud83d\ude86"}, "geometry": {"type": "Point", "coordinates": [2.123312, 50.978868]}}, {"type": "Feature", "properties": {"start": "Beau Marais", "stop_name": "Bourbourg", "type": "Gare accessible", "transport": "TER", "transport_legende": "\ud83d\udeb2 \u2764\ufe0f Train TER \ud83d\ude86"}, "geometry": {"type": "Point", "coordinates": [2.194259, 50.952229]}}, {"type": "Feature", "properties": {"start": "Beau Marais", "stop_name": "Grande-Synthe", "type": "Gare accessible", "transport": "TER", "transport_legende": "\ud83d\udeb2 \u2764\ufe0f Train TER \ud83d\ude86"}, "geometry": {"type": "Point", "coordinates": [2.313346, 51.002569]}}, {"type": "Feature", "properties": {"start": "Beau Marais", "stop_name": "Coudekerque-Branche", "type": "Gare accessible", "transport": "TER", "transport_legende": "\ud83d\udeb2 \u2764\ufe0f Train TER \ud83d\ude86"}, "geometry": {"type": "Point", "coordinates": [2.375182, 51.017916]}}, {"type": "Feature", "properties": {"start": "Beau Marais", "stop_name": "Dunkerque", "type": "Gare accessible", "transport": "TER", "transport_legende": "\ud83d\udeb2 \u2764\ufe0f Train TER \ud83d\ude86"}, "geometry": {"type": "Point", "coordinates": [2.368991, 51.03041]}}]}