{"type": "FeatureCollection", "features": [{"type": "Feature", "properties": {"start": "Bellignat-Mairie", "stop_name": "Bellignat-Mairie", "type": "Gare s\u00e9lectionn\u00e9e", "transport": "TER", "transport_legende": "\ud83d\udeb2 \u2764\ufe0f Train TER \ud83d\ude86"}, "geometry": {"type": "Point", "coordinates": [5.629689, 46.24246]}}, {"type": "Feature", "properties": {"start": "Bellignat-Mairie", "stop_name": "Bourg-en-Bresse Gare Routi\u00e8re", "type": "Gare accessible", "transport": "TER", "transport_legende": "\ud83d\udeb2 \u2764\ufe0f Train TER \ud83d\ude86"}, "geometry": {"type": "Point", "coordinates": [5.215381, 46.199498]}}, {"type": "Feature", "properties": {"start": "Bellignat-Mairie", "stop_name": "Nurieux Gare", "type": "Gare accessible", "transport": "TER", "transport_legende": "\ud83d\udeb2 \u2764\ufe0f Train TER \ud83d\ude86"}, "geometry": {"type": "Point", "coordinates": [5.5273, 46.186468]}}, {"type": "Feature", "properties": {"start": "Bellignat-Mairie", "stop_name": "Brion - Montr\u00e9al-la-Cluse Gare", "type": "Gare accessible", "transport": "TER", "transport_legende": "\ud83d\udeb2 \u2764\ufe0f Train TER \ud83d\ude86"}, "geometry": {"type": "Point", "coordinates": [5.558513, 46.175774]}}, {"type": "Feature", "properties": {"start": "Bellignat-Mairie", "stop_name": "Oyonnax", "type": "Gare accessible", "transport": "TER", "transport_legende": "\ud83d\udeb2 \u2764\ufe0f Train TER \ud83d\ude86"}, "geometry": {"type": "Point", "coordinates": [5.653281, 46.259671]}}]}