{"type": "FeatureCollection", "features": [{"type": "Feature", "properties": {"start": "Biarritz", "stop_name": "Biarritz", "type": "Gare s\u00e9lectionn\u00e9e", "transport": "TER", "transport_legende": "\ud83d\udeb2 \u2764\ufe0f Train TER \ud83d\ude86"}, "geometry": {"type": "Point", "coordinates": [-1.545937, 43.459387]}}, {"type": "Feature", "properties": {"start": "Biarritz", "stop_name": "Hendaye", "type": "Gare accessible", "transport": "TER", "transport_legende": "\ud83d\udeb2 \u2764\ufe0f Train TER \ud83d\ude86"}, "geometry": {"type": "Point", "coordinates": [-1.781724, 43.353132]}}, {"type": "Feature", "properties": {"start": "Biarritz", "stop_name": "Les Deux Jumeaux", "type": "Gare accessible", "transport": "TER", "transport_legende": "\ud83d\udeb2 \u2764\ufe0f Train TER \ud83d\ude86"}, "geometry": {"type": "Point", "coordinates": [-1.764527, 43.370066]}}, {"type": "Feature", "properties": {"start": "Biarritz", "stop_name": "Saint-Jean-de-Luz - Ciboure", "type": "Gare accessible", "transport": "TER", "transport_legende": "\ud83d\udeb2 \u2764\ufe0f Train TER \ud83d\ude86"}, "geometry": {"type": "Point", "coordinates": [-1.661181, 43.385862]}}, {"type": "Feature", "properties": {"start": "Biarritz", "stop_name": "Gu\u00e9thary", "type": "Gare accessible", "transport": "TER", "transport_legende": "\ud83d\udeb2 \u2764\ufe0f Train TER \ud83d\ude86"}, "geometry": {"type": "Point", "coordinates": [-1.609972, 43.425238]}}, {"type": "Feature", "properties": {"start": "Biarritz", "stop_name": "Bayonne", "type": "Gare accessible", "transport": "TER", "transport_legende": "\ud83d\udeb2 \u2764\ufe0f Train TER \ud83d\ude86"}, "geometry": {"type": "Point", "coordinates": [-1.470368, 43.496793]}}, {"type": "Feature", "properties": {"start": "Biarritz", "stop_name": "Boucau", "type": "Gare accessible", "transport": "TER", "transport_legende": "\ud83d\udeb2 \u2764\ufe0f Train TER \ud83d\ude86"}, "geometry": {"type": "Point", "coordinates": [-1.490487, 43.523447]}}, {"type": "Feature", "properties": {"start": "Biarritz", "stop_name": "Ondres", "type": "Gare accessible", "transport": "TER", "transport_legende": "\ud83d\udeb2 \u2764\ufe0f Train TER \ud83d\ude86"}, "geometry": {"type": "Point", "coordinates": [-1.457179, 43.568581]}}, {"type": "Feature", "properties": {"start": "Biarritz", "stop_name": "Labenne", "type": "Gare accessible", "transport": "TER", "transport_legende": "\ud83d\udeb2 \u2764\ufe0f Train TER \ud83d\ude86"}, "geometry": {"type": "Point", "coordinates": [-1.428953, 43.587212]}}, {"type": "Feature", "properties": {"start": "Biarritz", "stop_name": "B\u00e9nesse-Maremne", "type": "Gare accessible", "transport": "TER", "transport_legende": "\ud83d\udeb2 \u2764\ufe0f Train TER \ud83d\ude86"}, "geometry": {"type": "Point", "coordinates": [-1.369893, 43.6277]}}, {"type": "Feature", "properties": {"start": "Biarritz", "stop_name": "Saint-Vincent-de-Tyrosse", "type": "Gare accessible", "transport": "TER", "transport_legende": "\ud83d\udeb2 \u2764\ufe0f Train TER \ud83d\ude86"}, "geometry": {"type": "Point", "coordinates": [-1.306421, 43.657803]}}, {"type": "Feature", "properties": {"start": "Biarritz", "stop_name": "Saint-Geours", "type": "Gare accessible", "transport": "TER", "transport_legende": "\ud83d\udeb2 \u2764\ufe0f Train TER \ud83d\ude86"}, "geometry": {"type": "Point", "coordinates": [-1.241391, 43.671226]}}, {"type": "Feature", "properties": {"start": "Biarritz", "stop_name": "Dax", "type": "Gare accessible", "transport": "TER", "transport_legende": "\ud83d\udeb2 \u2764\ufe0f Train TER \ud83d\ude86"}, "geometry": {"type": "Point", "coordinates": [-1.050301, 43.720472]}}, {"type": "Feature", "properties": {"start": "Biarritz", "stop_name": "Morcenx", "type": "Gare accessible", "transport": "TER", "transport_legende": "\ud83d\udeb2 \u2764\ufe0f Train TER \ud83d\ude86"}, "geometry": {"type": "Point", "coordinates": [-0.90864, 44.033565]}}, {"type": "Feature", "properties": {"start": "Biarritz", "stop_name": "Labouheyre", "type": "Gare accessible", "transport": "TER", "transport_legende": "\ud83d\udeb2 \u2764\ufe0f Train TER \ud83d\ude86"}, "geometry": {"type": "Point", "coordinates": [-0.920974, 44.210613]}}, {"type": "Feature", "properties": {"start": "Biarritz", "stop_name": "Ychoux", "type": "Gare accessible", "transport": "TER", "transport_legende": "\ud83d\udeb2 \u2764\ufe0f Train TER \ud83d\ude86"}, "geometry": {"type": "Point", "coordinates": [-0.946335, 44.32927]}}, {"type": "Feature", "properties": {"start": "Biarritz", "stop_name": "Biganos Facture", "type": "Gare accessible", "transport": "TER", "transport_legende": "\ud83d\udeb2 \u2764\ufe0f Train TER \ud83d\ude86"}, "geometry": {"type": "Point", "coordinates": [-0.96621, 44.637384]}}, {"type": "Feature", "properties": {"start": "Biarritz", "stop_name": "Pessac", "type": "Gare accessible", "transport": "TER", "transport_legende": "\ud83d\udeb2 \u2764\ufe0f Train TER \ud83d\ude86"}, "geometry": {"type": "Point", "coordinates": [-0.631784, 44.804621]}}, {"type": "Feature", "properties": {"start": "Biarritz", "stop_name": "Bordeaux Saint-Jean", "type": "Gare accessible", "transport": "TER", "transport_legende": "\ud83d\udeb2 \u2764\ufe0f Train TER \ud83d\ude86"}, "geometry": {"type": "Point", "coordinates": [-0.556697, 44.825873]}}, {"type": "Feature", "properties": {"start": "Biarritz", "stop_name": "Saubusse", "type": "Gare accessible", "transport": "TER", "transport_legende": "\ud83d\udeb2 \u2764\ufe0f Train TER \ud83d\ude86"}, "geometry": {"type": "Point", "coordinates": [-1.190222, 43.660269]}}, {"type": "Feature", "properties": {"start": "Biarritz", "stop_name": "Pau", "type": "Gare accessible", "transport": "TER", "transport_legende": "\ud83d\udeb2 \u2764\ufe0f Train TER \ud83d\ude86"}, "geometry": {"type": "Point", "coordinates": [-0.369675, 43.291711]}}, {"type": "Feature", "properties": {"start": "Biarritz", "stop_name": "Artix", "type": "Gare accessible", "transport": "TER", "transport_legende": "\ud83d\udeb2 \u2764\ufe0f Train TER \ud83d\ude86"}, "geometry": {"type": "Point", "coordinates": [-0.570082, 43.393195]}}, {"type": "Feature", "properties": {"start": "Biarritz", "stop_name": "Orthez", "type": "Gare accessible", "transport": "TER", "transport_legende": "\ud83d\udeb2 \u2764\ufe0f Train TER \ud83d\ude86"}, "geometry": {"type": "Point", "coordinates": [-0.76776, 43.484242]}}, {"type": "Feature", "properties": {"start": "Biarritz", "stop_name": "Puyo\u00f4", "type": "Gare accessible", "transport": "TER", "transport_legende": "\ud83d\udeb2 \u2764\ufe0f Train TER \ud83d\ude86"}, "geometry": {"type": "Point", "coordinates": [-0.910812, 43.524682]}}, {"type": "Feature", "properties": {"start": "Biarritz", "stop_name": "Peyrehorade", "type": "Gare accessible", "transport": "TER", "transport_legende": "\ud83d\udeb2 \u2764\ufe0f Train TER \ud83d\ude86"}, "geometry": {"type": "Point", "coordinates": [-1.115794, 43.546683]}}, {"type": "Feature", "properties": {"start": "Biarritz", "stop_name": "Urt", "type": "Gare accessible", "transport": "TER", "transport_legende": "\ud83d\udeb2 \u2764\ufe0f Train TER \ud83d\ude86"}, "geometry": {"type": "Point", "coordinates": [-1.300529, 43.499213]}}, {"type": "Feature", "properties": {"start": "Biarritz", "stop_name": "Assat", "type": "Gare accessible", "transport": "TER", "transport_legende": "\ud83d\udeb2 \u2764\ufe0f Train TER \ud83d\ude86"}, "geometry": {"type": "Point", "coordinates": [-0.295018, 43.254399]}}, {"type": "Feature", "properties": {"start": "Biarritz", "stop_name": "Coarraze - Nay", "type": "Gare accessible", "transport": "TER", "transport_legende": "\ud83d\udeb2 \u2764\ufe0f Train TER \ud83d\ude86"}, "geometry": {"type": "Point", "coordinates": [-0.241699, 43.18183]}}, {"type": "Feature", "properties": {"start": "Biarritz", "stop_name": "Montaut B\u00e9tharram", "type": "Gare accessible", "transport": "TER", "transport_legende": "\ud83d\udeb2 \u2764\ufe0f Train TER \ud83d\ude86"}, "geometry": {"type": "Point", "coordinates": [-0.198247, 43.126997]}}, {"type": "Feature", "properties": {"start": "Biarritz", "stop_name": "Saint-P\u00e9-de-Bigorre", "type": "Gare accessible", "transport": "TER", "transport_legende": "\ud83d\udeb2 \u2764\ufe0f Train TER \ud83d\ude86"}, "geometry": {"type": "Point", "coordinates": [-0.161423, 43.101483]}}, {"type": "Feature", "properties": {"start": "Biarritz", "stop_name": "Lourdes", "type": "Gare accessible", "transport": "TER", "transport_legende": "\ud83d\udeb2 \u2764\ufe0f Train TER \ud83d\ude86"}, "geometry": {"type": "Point", "coordinates": [-0.042186, 43.100429]}}, {"type": "Feature", "properties": {"start": "Biarritz", "stop_name": "Tarbes", "type": "Gare accessible", "transport": "TER", "transport_legende": "\ud83d\udeb2 \u2764\ufe0f Train TER \ud83d\ude86"}, "geometry": {"type": "Point", "coordinates": [0.069442, 43.239863]}}]}