{"type": "FeatureCollection", "features": [{"type": "Feature", "properties": {"start": "Broye", "stop_name": "Broye", "type": "Gare s\u00e9lectionn\u00e9e", "transport": "TER", "transport_legende": "\ud83d\udeb2 \u2764\ufe0f Train TER \ud83d\ude86"}, "geometry": {"type": "Point", "coordinates": [4.296098, 46.862105]}}, {"type": "Feature", "properties": {"start": "Broye", "stop_name": "Montchanin", "type": "Gare accessible", "transport": "TER", "transport_legende": "\ud83d\udeb2 \u2764\ufe0f Train TER \ud83d\ude86"}, "geometry": {"type": "Point", "coordinates": [4.48147, 46.759211]}}, {"type": "Feature", "properties": {"start": "Broye", "stop_name": "Le Creusot", "type": "Gare accessible", "transport": "TER", "transport_legende": "\ud83d\udeb2 \u2764\ufe0f Train TER \ud83d\ude86"}, "geometry": {"type": "Point", "coordinates": [4.430433, 46.807842]}}, {"type": "Feature", "properties": {"start": "Broye", "stop_name": "Marmagne sous Creusot", "type": "Gare accessible", "transport": "TER", "transport_legende": "\ud83d\udeb2 \u2764\ufe0f Train TER \ud83d\ude86"}, "geometry": {"type": "Point", "coordinates": [4.360199, 46.833457]}}, {"type": "Feature", "properties": {"start": "Broye", "stop_name": "Saint-Symphorien-de-Marmagne", "type": "Gare accessible", "transport": "TER", "transport_legende": "\ud83d\udeb2 \u2764\ufe0f Train TER \ud83d\ude86"}, "geometry": {"type": "Point", "coordinates": [4.337749, 46.844236]}}, {"type": "Feature", "properties": {"start": "Broye", "stop_name": "Mesvres", "type": "Gare accessible", "transport": "TER", "transport_legende": "\ud83d\udeb2 \u2764\ufe0f Train TER \ud83d\ude86"}, "geometry": {"type": "Point", "coordinates": [4.244961, 46.862869]}}, {"type": "Feature", "properties": {"start": "Broye", "stop_name": "\u00c9tang-sur-Arroux", "type": "Gare accessible", "transport": "TER", "transport_legende": "\ud83d\udeb2 \u2764\ufe0f Train TER \ud83d\ude86"}, "geometry": {"type": "Point", "coordinates": [4.183844, 46.867917]}}]}