{"type": "FeatureCollection", "features": [{"type": "Feature", "properties": {"start": "Chamalieres Place Parking M.", "stop_name": "Chamalieres Place Parking M.", "type": "Gare s\u00e9lectionn\u00e9e", "transport": "TER", "transport_legende": "\ud83d\udeb2 \u2764\ufe0f Train TER \ud83d\ude86"}, "geometry": {"type": "Point", "coordinates": [3.983345, 45.201023]}}, {"type": "Feature", "properties": {"start": "Chamalieres Place Parking M.", "stop_name": "Le Puy-en-Velay", "type": "Gare accessible", "transport": "TER", "transport_legende": "\ud83d\udeb2 \u2764\ufe0f Train TER \ud83d\ude86"}, "geometry": {"type": "Point", "coordinates": [3.892421, 45.042866]}}, {"type": "Feature", "properties": {"start": "Chamalieres Place Parking M.", "stop_name": "Lavoute Arr\u00eat CG", "type": "Gare accessible", "transport": "TER", "transport_legende": "\ud83d\udeb2 \u2764\ufe0f Train TER \ud83d\ude86"}, "geometry": {"type": "Point", "coordinates": [3.906718, 45.118732]}}, {"type": "Feature", "properties": {"start": "Chamalieres Place Parking M.", "stop_name": "Saint-Vincent le Ch\u00e2teau", "type": "Gare accessible", "transport": "TER", "transport_legende": "\ud83d\udeb2 \u2764\ufe0f Train TER \ud83d\ude86"}, "geometry": {"type": "Point", "coordinates": [3.918576, 45.148827]}}, {"type": "Feature", "properties": {"start": "Chamalieres Place Parking M.", "stop_name": "Vorey", "type": "Gare accessible", "transport": "TER", "transport_legende": "\ud83d\udeb2 \u2764\ufe0f Train TER \ud83d\ude86"}, "geometry": {"type": "Point", "coordinates": [3.91138, 45.182925]}}, {"type": "Feature", "properties": {"start": "Chamalieres Place Parking M.", "stop_name": "Retournac", "type": "Gare accessible", "transport": "TER", "transport_legende": "\ud83d\udeb2 \u2764\ufe0f Train TER \ud83d\ude86"}, "geometry": {"type": "Point", "coordinates": [4.036062, 45.201342]}}, {"type": "Feature", "properties": {"start": "Chamalieres Place Parking M.", "stop_name": "Beauzac", "type": "Gare accessible", "transport": "TER", "transport_legende": "\ud83d\udeb2 \u2764\ufe0f Train TER \ud83d\ude86"}, "geometry": {"type": "Point", "coordinates": [4.099086, 45.258168]}}, {"type": "Feature", "properties": {"start": "Chamalieres Place Parking M.", "stop_name": "Bas - Monistrol", "type": "Gare accessible", "transport": "TER", "transport_legende": "\ud83d\udeb2 \u2764\ufe0f Train TER \ud83d\ude86"}, "geometry": {"type": "Point", "coordinates": [4.139678, 45.297683]}}, {"type": "Feature", "properties": {"start": "Chamalieres Place Parking M.", "stop_name": "Aurec", "type": "Gare accessible", "transport": "TER", "transport_legende": "\ud83d\udeb2 \u2764\ufe0f Train TER \ud83d\ude86"}, "geometry": {"type": "Point", "coordinates": [4.198432, 45.37118]}}, {"type": "Feature", "properties": {"start": "Chamalieres Place Parking M.", "stop_name": "Firminy", "type": "Gare accessible", "transport": "TER", "transport_legende": "\ud83d\udeb2 \u2764\ufe0f Train TER \ud83d\ude86"}, "geometry": {"type": "Point", "coordinates": [4.28643, 45.391656]}}, {"type": "Feature", "properties": {"start": "Chamalieres Place Parking M.", "stop_name": "St-Etienne-Ch\u00e2tcrx. G Routi\u00e8re", "type": "Gare accessible", "transport": "TER", "transport_legende": "\ud83d\udeb2 \u2764\ufe0f Train TER \ud83d\ude86"}, "geometry": {"type": "Point", "coordinates": [4.401156, 45.442658]}}]}