{"type": "FeatureCollection", "features": [{"type": "Feature", "properties": {"start": "Champagne-sur-Seine", "stop_name": "Champagne-sur-Seine", "type": "Gare s\u00e9lectionn\u00e9e", "transport": "TER", "nombre_trajet_moyen": 1.99, "transport_legende": "\ud83d\udeb2 \u2764\ufe0f Train TER \ud83d\ude86"}, "geometry": {"type": "Point", "coordinates": [2.79921, 48.406582]}}, {"type": "Feature", "properties": {"start": "Champagne-sur-Seine", "stop_name": "Laroche - Migennes", "type": "Gare accessible", "transport": "TER", "nombre_trajet_moyen": 1.99, "transport_legende": "\ud83d\udeb2 \u2764\ufe0f Train TER \ud83d\ude86"}, "geometry": {"type": "Point", "coordinates": [3.513191, 47.960998]}}, {"type": "Feature", "properties": {"start": "Champagne-sur-Seine", "stop_name": "Joigny", "type": "Gare accessible", "transport": "TER", "nombre_trajet_moyen": 1.99, "transport_legende": "\ud83d\udeb2 \u2764\ufe0f Train TER \ud83d\ude86"}, "geometry": {"type": "Point", "coordinates": [3.392997, 47.973855]}}, {"type": "Feature", "properties": {"start": "Champagne-sur-Seine", "stop_name": "Saint-Julien-du-Sault", "type": "Gare accessible", "transport": "TER", "nombre_trajet_moyen": 1.99, "transport_legende": "\ud83d\udeb2 \u2764\ufe0f Train TER \ud83d\ude86"}, "geometry": {"type": "Point", "coordinates": [3.302781, 48.026965]}}, {"type": "Feature", "properties": {"start": "Champagne-sur-Seine", "stop_name": "Villeneuve-sur-Yonne", "type": "Gare accessible", "transport": "TER", "nombre_trajet_moyen": 1.99, "transport_legende": "\ud83d\udeb2 \u2764\ufe0f Train TER \ud83d\ude86"}, "geometry": {"type": "Point", "coordinates": [3.286925, 48.085013]}}, {"type": "Feature", "properties": {"start": "Champagne-sur-Seine", "stop_name": "\u00c9tigny - V\u00e9ron", "type": "Gare accessible", "transport": "TER", "nombre_trajet_moyen": 1.99, "transport_legende": "\ud83d\udeb2 \u2764\ufe0f Train TER \ud83d\ude86"}, "geometry": {"type": "Point", "coordinates": [3.290743, 48.138276]}}, {"type": "Feature", "properties": {"start": "Champagne-sur-Seine", "stop_name": "Sens", "type": "Gare accessible", "transport": "TER", "nombre_trajet_moyen": 1.99, "transport_legende": "\ud83d\udeb2 \u2764\ufe0f Train TER \ud83d\ude86"}, "geometry": {"type": "Point", "coordinates": [3.267833, 48.197856]}}, {"type": "Feature", "properties": {"start": "Champagne-sur-Seine", "stop_name": "Pont-sur-Yonne", "type": "Gare accessible", "transport": "TER", "nombre_trajet_moyen": 1.99, "transport_legende": "\ud83d\udeb2 \u2764\ufe0f Train TER \ud83d\ude86"}, "geometry": {"type": "Point", "coordinates": [3.201463, 48.286287]}}, {"type": "Feature", "properties": {"start": "Champagne-sur-Seine", "stop_name": "Champigny", "type": "Gare accessible", "transport": "TER", "nombre_trajet_moyen": 1.99, "transport_legende": "\ud83d\udeb2 \u2764\ufe0f Train TER \ud83d\ude86"}, "geometry": {"type": "Point", "coordinates": [3.130572, 48.323742]}}, {"type": "Feature", "properties": {"start": "Champagne-sur-Seine", "stop_name": "Villeneuve-la-Guyard", "type": "Gare accessible", "transport": "TER", "nombre_trajet_moyen": 1.99, "transport_legende": "\ud83d\udeb2 \u2764\ufe0f Train TER \ud83d\ude86"}, "geometry": {"type": "Point", "coordinates": [3.071655, 48.342425]}}, {"type": "Feature", "properties": {"start": "Champagne-sur-Seine", "stop_name": "Montereau", "type": "Gare accessible", "transport": "TER", "nombre_trajet_moyen": 1.99, "transport_legende": "\ud83d\udeb2 \u2764\ufe0f Train TER \ud83d\ude86"}, "geometry": {"type": "Point", "coordinates": [2.94293, 48.379902]}}, {"type": "Feature", "properties": {"start": "Champagne-sur-Seine", "stop_name": "Paris Gare de Lyon Hall 1 - 2", "type": "Gare accessible", "transport": "TER", "nombre_trajet_moyen": 1.99, "transport_legende": "\ud83d\udeb2 \u2764\ufe0f Train TER \ud83d\ude86"}, "geometry": {"type": "Point", "coordinates": [2.373481, 48.844945]}}]}