{"type": "FeatureCollection", "features": [{"type": "Feature", "properties": {"start": "Chantenay-Saint-Imbert Bourg", "stop_name": "Chantenay-Saint-Imbert Bourg", "type": "Gare s\u00e9lectionn\u00e9e", "transport": "TER", "nombre_trajet_moyen": 1.36, "transport_legende": "\ud83d\udeb2 \u2764\ufe0f Train TER \ud83d\ude86"}, "geometry": {"type": "Point", "coordinates": [3.183146, 46.733098]}}, {"type": "Feature", "properties": {"start": "Chantenay-Saint-Imbert Bourg", "stop_name": "Nevers", "type": "Gare accessible", "transport": "TER", "nombre_trajet_moyen": 1.36, "transport_legende": "\ud83d\udeb2 \u2764\ufe0f Train TER \ud83d\ude86"}, "geometry": {"type": "Point", "coordinates": [3.150743, 46.987282]}}, {"type": "Feature", "properties": {"start": "Chantenay-Saint-Imbert Bourg", "stop_name": "Saint-Pierre-le-Mo\u00fbtier", "type": "Gare accessible", "transport": "TER", "nombre_trajet_moyen": 1.36, "transport_legende": "\ud83d\udeb2 \u2764\ufe0f Train TER \ud83d\ude86"}, "geometry": {"type": "Point", "coordinates": [3.111738, 46.793278]}}, {"type": "Feature", "properties": {"start": "Chantenay-Saint-Imbert Bourg", "stop_name": "Chantenay-Saint-Imbert", "type": "Gare accessible", "transport": "TER", "nombre_trajet_moyen": 1.36, "transport_legende": "\ud83d\udeb2 \u2764\ufe0f Train TER \ud83d\ude86"}, "geometry": {"type": "Point", "coordinates": [3.171472, 46.728556]}}, {"type": "Feature", "properties": {"start": "Chantenay-Saint-Imbert Bourg", "stop_name": "Villeneuve-sur-Allier Centre", "type": "Gare accessible", "transport": "TER", "nombre_trajet_moyen": 1.36, "transport_legende": "\ud83d\udeb2 \u2764\ufe0f Train TER \ud83d\ude86"}, "geometry": {"type": "Point", "coordinates": [3.247131, 46.660457]}}, {"type": "Feature", "properties": {"start": "Chantenay-Saint-Imbert Bourg", "stop_name": "Moulins sur Allier", "type": "Gare accessible", "transport": "TER", "nombre_trajet_moyen": 1.36, "transport_legende": "\ud83d\udeb2 \u2764\ufe0f Train TER \ud83d\ude86"}, "geometry": {"type": "Point", "coordinates": [3.338782, 46.561394]}}, {"type": "Feature", "properties": {"start": "Chantenay-Saint-Imbert Bourg", "stop_name": "Saincaize", "type": "Gare accessible", "transport": "TER", "nombre_trajet_moyen": 0.8, "transport_legende": "\ud83d\udeb2 \u2764\ufe0f Train TER \ud83d\ude86"}, "geometry": {"type": "Point", "coordinates": [3.071937, 46.931405]}}]}