{"type": "FeatureCollection", "features": [{"type": "Feature", "properties": {"start": "Charleville-M\u00e9zi\u00e8res", "stop_name": "Charleville-M\u00e9zi\u00e8res", "type": "Gare s\u00e9lectionn\u00e9e", "transport": "TER", "transport_legende": "\ud83d\udeb2 \u2764\ufe0f Train TER \ud83d\ude86"}, "geometry": {"type": "Point", "coordinates": [4.724344, 49.76763]}}, {"type": "Feature", "properties": {"start": "Charleville-M\u00e9zi\u00e8res", "stop_name": "Reims", "type": "Gare accessible", "transport": "TER", "transport_legende": "\ud83d\udeb2 \u2764\ufe0f Train TER \ud83d\ude86"}, "geometry": {"type": "Point", "coordinates": [4.021994, 49.258934]}}, {"type": "Feature", "properties": {"start": "Charleville-M\u00e9zi\u00e8res", "stop_name": "Hirson", "type": "Gare accessible", "transport": "TER", "transport_legende": "\ud83d\udeb2 \u2764\ufe0f Train TER \ud83d\ude86"}, "geometry": {"type": "Point", "coordinates": [4.084285, 49.914558]}}, {"type": "Feature", "properties": {"start": "Charleville-M\u00e9zi\u00e8res", "stop_name": "Bogny-sur-Meuse", "type": "Gare accessible", "transport": "TER", "transport_legende": "\ud83d\udeb2 \u2764\ufe0f Train TER \ud83d\ude86"}, "geometry": {"type": "Point", "coordinates": [4.763232, 49.858312]}}, {"type": "Feature", "properties": {"start": "Charleville-M\u00e9zi\u00e8res", "stop_name": "Montherm\u00e9", "type": "Gare accessible", "transport": "TER", "transport_legende": "\ud83d\udeb2 \u2764\ufe0f Train TER \ud83d\ude86"}, "geometry": {"type": "Point", "coordinates": [4.74053, 49.865621]}}, {"type": "Feature", "properties": {"start": "Charleville-M\u00e9zi\u00e8res", "stop_name": "Deville", "type": "Gare accessible", "transport": "TER", "transport_legende": "\ud83d\udeb2 \u2764\ufe0f Train TER \ud83d\ude86"}, "geometry": {"type": "Point", "coordinates": [4.707113, 49.879575]}}, {"type": "Feature", "properties": {"start": "Charleville-M\u00e9zi\u00e8res", "stop_name": "Laifour", "type": "Gare accessible", "transport": "TER", "transport_legende": "\ud83d\udeb2 \u2764\ufe0f Train TER \ud83d\ude86"}, "geometry": {"type": "Point", "coordinates": [4.692348, 49.911256]}}, {"type": "Feature", "properties": {"start": "Charleville-M\u00e9zi\u00e8res", "stop_name": "Anchamps", "type": "Gare accessible", "transport": "TER", "transport_legende": "\ud83d\udeb2 \u2764\ufe0f Train TER \ud83d\ude86"}, "geometry": {"type": "Point", "coordinates": [4.670243, 49.930745]}}, {"type": "Feature", "properties": {"start": "Charleville-M\u00e9zi\u00e8res", "stop_name": "Revin", "type": "Gare accessible", "transport": "TER", "transport_legende": "\ud83d\udeb2 \u2764\ufe0f Train TER \ud83d\ude86"}, "geometry": {"type": "Point", "coordinates": [4.642536, 49.938756]}}, {"type": "Feature", "properties": {"start": "Charleville-M\u00e9zi\u00e8res", "stop_name": "Fumay", "type": "Gare accessible", "transport": "TER", "transport_legende": "\ud83d\udeb2 \u2764\ufe0f Train TER \ud83d\ude86"}, "geometry": {"type": "Point", "coordinates": [4.6926, 49.986048]}}, {"type": "Feature", "properties": {"start": "Charleville-M\u00e9zi\u00e8res", "stop_name": "Haybes", "type": "Gare accessible", "transport": "TER", "transport_legende": "\ud83d\udeb2 \u2764\ufe0f Train TER \ud83d\ude86"}, "geometry": {"type": "Point", "coordinates": [4.704538, 50.011689]}}, {"type": "Feature", "properties": {"start": "Charleville-M\u00e9zi\u00e8res", "stop_name": "F\u00e9pin", "type": "Gare accessible", "transport": "TER", "transport_legende": "\ud83d\udeb2 \u2764\ufe0f Train TER \ud83d\ude86"}, "geometry": {"type": "Point", "coordinates": [4.726616, 50.023464]}}, {"type": "Feature", "properties": {"start": "Charleville-M\u00e9zi\u00e8res", "stop_name": "Vireux-Molhain", "type": "Gare accessible", "transport": "TER", "transport_legende": "\ud83d\udeb2 \u2764\ufe0f Train TER \ud83d\ude86"}, "geometry": {"type": "Point", "coordinates": [4.723391, 50.082797]}}, {"type": "Feature", "properties": {"start": "Charleville-M\u00e9zi\u00e8res", "stop_name": "Aubrives", "type": "Gare accessible", "transport": "TER", "transport_legende": "\ud83d\udeb2 \u2764\ufe0f Train TER \ud83d\ude86"}, "geometry": {"type": "Point", "coordinates": [4.761433, 50.104041]}}, {"type": "Feature", "properties": {"start": "Charleville-M\u00e9zi\u00e8res", "stop_name": "Givet", "type": "Gare accessible", "transport": "TER", "transport_legende": "\ud83d\udeb2 \u2764\ufe0f Train TER \ud83d\ude86"}, "geometry": {"type": "Point", "coordinates": [4.818068, 50.140283]}}, {"type": "Feature", "properties": {"start": "Charleville-M\u00e9zi\u00e8res", "stop_name": "Nouzonville", "type": "Gare accessible", "transport": "TER", "transport_legende": "\ud83d\udeb2 \u2764\ufe0f Train TER \ud83d\ude86"}, "geometry": {"type": "Point", "coordinates": [4.742816, 49.812013]}}, {"type": "Feature", "properties": {"start": "Charleville-M\u00e9zi\u00e8res", "stop_name": "Sedan", "type": "Gare accessible", "transport": "TER", "transport_legende": "\ud83d\udeb2 \u2764\ufe0f Train TER \ud83d\ude86"}, "geometry": {"type": "Point", "coordinates": [4.930373, 49.695024]}}, {"type": "Feature", "properties": {"start": "Charleville-M\u00e9zi\u00e8res", "stop_name": "Donchery", "type": "Gare accessible", "transport": "TER", "transport_legende": "\ud83d\udeb2 \u2764\ufe0f Train TER \ud83d\ude86"}, "geometry": {"type": "Point", "coordinates": [4.874722, 49.698154]}}, {"type": "Feature", "properties": {"start": "Charleville-M\u00e9zi\u00e8res", "stop_name": "Nouvion-sur-Meuse", "type": "Gare accessible", "transport": "TER", "transport_legende": "\ud83d\udeb2 \u2764\ufe0f Train TER \ud83d\ude86"}, "geometry": {"type": "Point", "coordinates": [4.794973, 49.697314]}}, {"type": "Feature", "properties": {"start": "Charleville-M\u00e9zi\u00e8res", "stop_name": "Vrigne-Meuse", "type": "Gare accessible", "transport": "TER", "transport_legende": "\ud83d\udeb2 \u2764\ufe0f Train TER \ud83d\ude86"}, "geometry": {"type": "Point", "coordinates": [4.843561, 49.700966]}}, {"type": "Feature", "properties": {"start": "Charleville-M\u00e9zi\u00e8res", "stop_name": "Lumes", "type": "Gare accessible", "transport": "TER", "transport_legende": "\ud83d\udeb2 \u2764\ufe0f Train TER \ud83d\ude86"}, "geometry": {"type": "Point", "coordinates": [4.783357, 49.732797]}}, {"type": "Feature", "properties": {"start": "Charleville-M\u00e9zi\u00e8res", "stop_name": "Mohon", "type": "Gare accessible", "transport": "TER", "transport_legende": "\ud83d\udeb2 \u2764\ufe0f Train TER \ud83d\ude86"}, "geometry": {"type": "Point", "coordinates": [4.733691, 49.752755]}}, {"type": "Feature", "properties": {"start": "Charleville-M\u00e9zi\u00e8res", "stop_name": "Poix-Terron", "type": "Gare accessible", "transport": "TER", "transport_legende": "\ud83d\udeb2 \u2764\ufe0f Train TER \ud83d\ude86"}, "geometry": {"type": "Point", "coordinates": [4.636418, 49.649987]}}, {"type": "Feature", "properties": {"start": "Charleville-M\u00e9zi\u00e8res", "stop_name": "Amagne - Lucquy", "type": "Gare accessible", "transport": "TER", "transport_legende": "\ud83d\udeb2 \u2764\ufe0f Train TER \ud83d\ude86"}, "geometry": {"type": "Point", "coordinates": [4.473898, 49.52377]}}, {"type": "Feature", "properties": {"start": "Charleville-M\u00e9zi\u00e8res", "stop_name": "Rethel", "type": "Gare accessible", "transport": "TER", "transport_legende": "\ud83d\udeb2 \u2764\ufe0f Train TER \ud83d\ude86"}, "geometry": {"type": "Point", "coordinates": [4.369566, 49.504393]}}, {"type": "Feature", "properties": {"start": "Charleville-M\u00e9zi\u00e8res", "stop_name": "Bazancourt", "type": "Gare accessible", "transport": "TER", "transport_legende": "\ud83d\udeb2 \u2764\ufe0f Train TER \ud83d\ude86"}, "geometry": {"type": "Point", "coordinates": [4.174135, 49.361095]}}, {"type": "Feature", "properties": {"start": "Charleville-M\u00e9zi\u00e8res", "stop_name": "Longwy", "type": "Gare accessible", "transport": "TER", "transport_legende": "\ud83d\udeb2 \u2764\ufe0f Train TER \ud83d\ude86"}, "geometry": {"type": "Point", "coordinates": [5.76956, 49.513004]}}, {"type": "Feature", "properties": {"start": "Charleville-M\u00e9zi\u00e8res", "stop_name": "Longuyon", "type": "Gare accessible", "transport": "TER", "transport_legende": "\ud83d\udeb2 \u2764\ufe0f Train TER \ud83d\ude86"}, "geometry": {"type": "Point", "coordinates": [5.604551, 49.444412]}}, {"type": "Feature", "properties": {"start": "Charleville-M\u00e9zi\u00e8res", "stop_name": "Montm\u00e9dy", "type": "Gare accessible", "transport": "TER", "transport_legende": "\ud83d\udeb2 \u2764\ufe0f Train TER \ud83d\ude86"}, "geometry": {"type": "Point", "coordinates": [5.371672, 49.522878]}}, {"type": "Feature", "properties": {"start": "Charleville-M\u00e9zi\u00e8res", "stop_name": "Carignan", "type": "Gare accessible", "transport": "TER", "transport_legende": "\ud83d\udeb2 \u2764\ufe0f Train TER \ud83d\ude86"}, "geometry": {"type": "Point", "coordinates": [5.168517, 49.628671]}}, {"type": "Feature", "properties": {"start": "Charleville-M\u00e9zi\u00e8res", "stop_name": "Thionville", "type": "Gare accessible", "transport": "TER", "transport_legende": "\ud83d\udeb2 \u2764\ufe0f Train TER \ud83d\ude86"}, "geometry": {"type": "Point", "coordinates": [6.168582, 49.353965]}}, {"type": "Feature", "properties": {"start": "Charleville-M\u00e9zi\u00e8res", "stop_name": "Hayange", "type": "Gare accessible", "transport": "TER", "transport_legende": "\ud83d\udeb2 \u2764\ufe0f Train TER \ud83d\ude86"}, "geometry": {"type": "Point", "coordinates": [6.073125, 49.330408]}}, {"type": "Feature", "properties": {"start": "Charleville-M\u00e9zi\u00e8res", "stop_name": "Audun-le-Roman", "type": "Gare accessible", "transport": "TER", "transport_legende": "\ud83d\udeb2 \u2764\ufe0f Train TER \ud83d\ude86"}, "geometry": {"type": "Point", "coordinates": [5.89139, 49.36682]}}, {"type": "Feature", "properties": {"start": "Charleville-M\u00e9zi\u00e8res", "stop_name": "Franchet d'Esperey", "type": "Gare accessible", "transport": "TER", "transport_legende": "\ud83d\udeb2 \u2764\ufe0f Train TER \ud83d\ude86"}, "geometry": {"type": "Point", "coordinates": [4.013869, 49.242536]}}, {"type": "Feature", "properties": {"start": "Charleville-M\u00e9zi\u00e8res", "stop_name": "Reims Maison Blanche", "type": "Gare accessible", "transport": "TER", "transport_legende": "\ud83d\udeb2 \u2764\ufe0f Train TER \ud83d\ude86"}, "geometry": {"type": "Point", "coordinates": [4.022648, 49.233406]}}, {"type": "Feature", "properties": {"start": "Charleville-M\u00e9zi\u00e8res", "stop_name": "Champagne-Ardenne TGV", "type": "Gare accessible", "transport": "TER", "transport_legende": "\ud83d\udeb2 \u2764\ufe0f Train TER \ud83d\ude86"}, "geometry": {"type": "Point", "coordinates": [3.994523, 49.214769]}}, {"type": "Feature", "properties": {"start": "Charleville-M\u00e9zi\u00e8res", "stop_name": "Joigny-sur-Meuse", "type": "Gare accessible", "transport": "TER", "transport_legende": "\ud83d\udeb2 \u2764\ufe0f Train TER \ud83d\ude86"}, "geometry": {"type": "Point", "coordinates": [4.767239, 49.833681]}}, {"type": "Feature", "properties": {"start": "Charleville-M\u00e9zi\u00e8res", "stop_name": "Anor", "type": "Gare accessible", "transport": "TER", "transport_legende": "\ud83d\udeb2 \u2764\ufe0f Train TER \ud83d\ude86"}, "geometry": {"type": "Point", "coordinates": [4.093473, 49.985022]}}, {"type": "Feature", "properties": {"start": "Charleville-M\u00e9zi\u00e8res", "stop_name": "Fourmies", "type": "Gare accessible", "transport": "TER", "transport_legende": "\ud83d\udeb2 \u2764\ufe0f Train TER \ud83d\ude86"}, "geometry": {"type": "Point", "coordinates": [4.053593, 50.015392]}}, {"type": "Feature", "properties": {"start": "Charleville-M\u00e9zi\u00e8res", "stop_name": "Sains-du-Nord", "type": "Gare accessible", "transport": "TER", "transport_legende": "\ud83d\udeb2 \u2764\ufe0f Train TER \ud83d\ude86"}, "geometry": {"type": "Point", "coordinates": [4.001668, 50.088914]}}, {"type": "Feature", "properties": {"start": "Charleville-M\u00e9zi\u00e8res", "stop_name": "Avesnes-sur-Helpe", "type": "Gare accessible", "transport": "TER", "transport_legende": "\ud83d\udeb2 \u2764\ufe0f Train TER \ud83d\ude86"}, "geometry": {"type": "Point", "coordinates": [3.932902, 50.126755]}}, {"type": "Feature", "properties": {"start": "Charleville-M\u00e9zi\u00e8res", "stop_name": "Aulnoye-Aymeries", "type": "Gare accessible", "transport": "TER", "transport_legende": "\ud83d\udeb2 \u2764\ufe0f Train TER \ud83d\ude86"}, "geometry": {"type": "Point", "coordinates": [3.843333, 50.197477]}}, {"type": "Feature", "properties": {"start": "Charleville-M\u00e9zi\u00e8res", "stop_name": "Le Quesnoy", "type": "Gare accessible", "transport": "TER", "transport_legende": "\ud83d\udeb2 \u2764\ufe0f Train TER \ud83d\ude86"}, "geometry": {"type": "Point", "coordinates": [3.645483, 50.250193]}}, {"type": "Feature", "properties": {"start": "Charleville-M\u00e9zi\u00e8res", "stop_name": "Le Poirier Universit\u00e9", "type": "Gare accessible", "transport": "TER", "transport_legende": "\ud83d\udeb2 \u2764\ufe0f Train TER \ud83d\ude86"}, "geometry": {"type": "Point", "coordinates": [3.502635, 50.330077]}}, {"type": "Feature", "properties": {"start": "Charleville-M\u00e9zi\u00e8res", "stop_name": "Valenciennes", "type": "Gare accessible", "transport": "TER", "transport_legende": "\ud83d\udeb2 \u2764\ufe0f Train TER \ud83d\ude86"}, "geometry": {"type": "Point", "coordinates": [3.517124, 50.363187]}}, {"type": "Feature", "properties": {"start": "Charleville-M\u00e9zi\u00e8res", "stop_name": "Saint-Amand-les-Eaux", "type": "Gare accessible", "transport": "TER", "transport_legende": "\ud83d\udeb2 \u2764\ufe0f Train TER \ud83d\ude86"}, "geometry": {"type": "Point", "coordinates": [3.419371, 50.443342]}}, {"type": "Feature", "properties": {"start": "Charleville-M\u00e9zi\u00e8res", "stop_name": "Orchies", "type": "Gare accessible", "transport": "TER", "transport_legende": "\ud83d\udeb2 \u2764\ufe0f Train TER \ud83d\ude86"}, "geometry": {"type": "Point", "coordinates": [3.248871, 50.477028]}}, {"type": "Feature", "properties": {"start": "Charleville-M\u00e9zi\u00e8res", "stop_name": "Templeuve", "type": "Gare accessible", "transport": "TER", "transport_legende": "\ud83d\udeb2 \u2764\ufe0f Train TER \ud83d\ude86"}, "geometry": {"type": "Point", "coordinates": [3.175668, 50.528694]}}, {"type": "Feature", "properties": {"start": "Charleville-M\u00e9zi\u00e8res", "stop_name": "Lille Flandres", "type": "Gare accessible", "transport": "TER", "transport_legende": "\ud83d\udeb2 \u2764\ufe0f Train TER \ud83d\ude86"}, "geometry": {"type": "Point", "coordinates": [3.06987, 50.636577]}}, {"type": "Feature", "properties": {"start": "Charleville-M\u00e9zi\u00e8res", "stop_name": "Lesquin", "type": "Gare accessible", "transport": "TER", "transport_legende": "\ud83d\udeb2 \u2764\ufe0f Train TER \ud83d\ude86"}, "geometry": {"type": "Point", "coordinates": [3.117714, 50.590685]}}]}