{"type": "FeatureCollection", "features": [{"type": "Feature", "properties": {"start": "Ch\u00e2lons-en-Champagne", "stop_name": "Ch\u00e2lons-en-Champagne", "type": "Gare s\u00e9lectionn\u00e9e", "transport": "TER", "nombre_trajet_moyen": 17.05, "transport_legende": "\ud83d\udeb2 \u2764\ufe0f Train TER \ud83d\ude86"}, "geometry": {"type": "Point", "coordinates": [4.348656, 48.955252]}}, {"type": "Feature", "properties": {"start": "Ch\u00e2lons-en-Champagne", "stop_name": "Verdun", "type": "Gare accessible", "transport": "TER", "nombre_trajet_moyen": 0.11, "transport_legende": "\ud83d\udeb2 \u2764\ufe0f Train TER \ud83d\ude86"}, "geometry": {"type": "Point", "coordinates": [5.379672, 49.165441]}}, {"type": "Feature", "properties": {"start": "Ch\u00e2lons-en-Champagne", "stop_name": "Clermont-en-Argonne Centre", "type": "Gare accessible", "transport": "TER", "nombre_trajet_moyen": 0.11, "transport_legende": "\ud83d\udeb2 \u2764\ufe0f Train TER \ud83d\ude86"}, "geometry": {"type": "Point", "coordinates": [5.069852, 49.105285]}}, {"type": "Feature", "properties": {"start": "Ch\u00e2lons-en-Champagne", "stop_name": "Les Islettes Centre", "type": "Gare accessible", "transport": "TER", "nombre_trajet_moyen": 0.11, "transport_legende": "\ud83d\udeb2 \u2764\ufe0f Train TER \ud83d\ude86"}, "geometry": {"type": "Point", "coordinates": [5.003103, 49.109332]}}, {"type": "Feature", "properties": {"start": "Ch\u00e2lons-en-Champagne", "stop_name": "Sainte-M\u00e9n\u00e9hould M\u00e9diath\u00e8que", "type": "Gare accessible", "transport": "TER", "nombre_trajet_moyen": 0.11, "transport_legende": "\ud83d\udeb2 \u2764\ufe0f Train TER \ud83d\ude86"}, "geometry": {"type": "Point", "coordinates": [4.898082, 49.092447]}}, {"type": "Feature", "properties": {"start": "Ch\u00e2lons-en-Champagne", "stop_name": "Suippes Camp", "type": "Gare accessible", "transport": "TER", "nombre_trajet_moyen": 0.11, "transport_legende": "\ud83d\udeb2 \u2764\ufe0f Train TER \ud83d\ude86"}, "geometry": {"type": "Point", "coordinates": [4.54473, 49.12219]}}, {"type": "Feature", "properties": {"start": "Ch\u00e2lons-en-Champagne", "stop_name": "Suippes Garage", "type": "Gare accessible", "transport": "TER", "nombre_trajet_moyen": 0.11, "transport_legende": "\ud83d\udeb2 \u2764\ufe0f Train TER \ud83d\ude86"}, "geometry": {"type": "Point", "coordinates": [4.527419, 49.129588]}}, {"type": "Feature", "properties": {"start": "Ch\u00e2lons-en-Champagne", "stop_name": "Ch\u00e2lons-en-Champagne Marne", "type": "Gare accessible", "transport": "TER", "nombre_trajet_moyen": 0.11, "transport_legende": "\ud83d\udeb2 \u2764\ufe0f Train TER \ud83d\ude86"}, "geometry": {"type": "Point", "coordinates": [4.360092, 48.957151]}}, {"type": "Feature", "properties": {"start": "Ch\u00e2lons-en-Champagne", "stop_name": "\u00c9pernay", "type": "Gare accessible", "transport": "TER", "nombre_trajet_moyen": 9.75, "transport_legende": "\ud83d\udeb2 \u2764\ufe0f Train TER \ud83d\ude86"}, "geometry": {"type": "Point", "coordinates": [3.959798, 49.046289]}}, {"type": "Feature", "properties": {"start": "Ch\u00e2lons-en-Champagne", "stop_name": "Chaumont", "type": "Gare accessible", "transport": "TER", "nombre_trajet_moyen": 5.22, "transport_legende": "\ud83d\udeb2 \u2764\ufe0f Train TER \ud83d\ude86"}, "geometry": {"type": "Point", "coordinates": [5.1346, 48.10976]}}, {"type": "Feature", "properties": {"start": "Ch\u00e2lons-en-Champagne", "stop_name": "Froncles", "type": "Gare accessible", "transport": "TER", "nombre_trajet_moyen": 4.86, "transport_legende": "\ud83d\udeb2 \u2764\ufe0f Train TER \ud83d\ude86"}, "geometry": {"type": "Point", "coordinates": [5.141939, 48.296415]}}, {"type": "Feature", "properties": {"start": "Ch\u00e2lons-en-Champagne", "stop_name": "Joinville", "type": "Gare accessible", "transport": "TER", "nombre_trajet_moyen": 4.86, "transport_legende": "\ud83d\udeb2 \u2764\ufe0f Train TER \ud83d\ude86"}, "geometry": {"type": "Point", "coordinates": [5.143259, 48.44433]}}, {"type": "Feature", "properties": {"start": "Ch\u00e2lons-en-Champagne", "stop_name": "Saint-Dizier", "type": "Gare accessible", "transport": "TER", "nombre_trajet_moyen": 8.9, "transport_legende": "\ud83d\udeb2 \u2764\ufe0f Train TER \ud83d\ude86"}, "geometry": {"type": "Point", "coordinates": [4.947855, 48.642404]}}, {"type": "Feature", "properties": {"start": "Ch\u00e2lons-en-Champagne", "stop_name": "Vitry-le-Fran\u00e7ois", "type": "Gare accessible", "transport": "TER", "nombre_trajet_moyen": 11.89, "transport_legende": "\ud83d\udeb2 \u2764\ufe0f Train TER \ud83d\ude86"}, "geometry": {"type": "Point", "coordinates": [4.587515, 48.717913]}}, {"type": "Feature", "properties": {"start": "Ch\u00e2lons-en-Champagne", "stop_name": "Donjeux", "type": "Gare accessible", "transport": "TER", "nombre_trajet_moyen": 2.9, "transport_legende": "\ud83d\udeb2 \u2764\ufe0f Train TER \ud83d\ude86"}, "geometry": {"type": "Point", "coordinates": [5.151358, 48.365945]}}, {"type": "Feature", "properties": {"start": "Ch\u00e2lons-en-Champagne", "stop_name": "Vignory", "type": "Gare accessible", "transport": "TER", "nombre_trajet_moyen": 2.9, "transport_legende": "\ud83d\udeb2 \u2764\ufe0f Train TER \ud83d\ude86"}, "geometry": {"type": "Point", "coordinates": [5.124249, 48.270681]}}, {"type": "Feature", "properties": {"start": "Ch\u00e2lons-en-Champagne", "stop_name": "Bologne", "type": "Gare accessible", "transport": "TER", "nombre_trajet_moyen": 2.9, "transport_legende": "\ud83d\udeb2 \u2764\ufe0f Train TER \ud83d\ude86"}, "geometry": {"type": "Point", "coordinates": [5.134467, 48.198677]}}, {"type": "Feature", "properties": {"start": "Ch\u00e2lons-en-Champagne", "stop_name": "Langres", "type": "Gare accessible", "transport": "TER", "nombre_trajet_moyen": 3.12, "transport_legende": "\ud83d\udeb2 \u2764\ufe0f Train TER \ud83d\ude86"}, "geometry": {"type": "Point", "coordinates": [5.344406, 47.876947]}}, {"type": "Feature", "properties": {"start": "Ch\u00e2lons-en-Champagne", "stop_name": "Culmont - Chalindrey", "type": "Gare accessible", "transport": "TER", "nombre_trajet_moyen": 3.12, "transport_legende": "\ud83d\udeb2 \u2764\ufe0f Train TER \ud83d\ude86"}, "geometry": {"type": "Point", "coordinates": [5.443219, 47.810202]}}, {"type": "Feature", "properties": {"start": "Ch\u00e2lons-en-Champagne", "stop_name": "Reims", "type": "Gare accessible", "transport": "TER", "nombre_trajet_moyen": 7.23, "transport_legende": "\ud83d\udeb2 \u2764\ufe0f Train TER \ud83d\ude86"}, "geometry": {"type": "Point", "coordinates": [4.021994, 49.258934]}}, {"type": "Feature", "properties": {"start": "Ch\u00e2lons-en-Champagne", "stop_name": "Prunay", "type": "Gare accessible", "transport": "TER", "nombre_trajet_moyen": 3.08, "transport_legende": "\ud83d\udeb2 \u2764\ufe0f Train TER \ud83d\ude86"}, "geometry": {"type": "Point", "coordinates": [4.183629, 49.198839]}}, {"type": "Feature", "properties": {"start": "Ch\u00e2lons-en-Champagne", "stop_name": "Val-de-Vesle", "type": "Gare accessible", "transport": "TER", "nombre_trajet_moyen": 3.08, "transport_legende": "\ud83d\udeb2 \u2764\ufe0f Train TER \ud83d\ude86"}, "geometry": {"type": "Point", "coordinates": [4.22221, 49.17792]}}, {"type": "Feature", "properties": {"start": "Ch\u00e2lons-en-Champagne", "stop_name": "Sept-Saulx", "type": "Gare accessible", "transport": "TER", "nombre_trajet_moyen": 3.08, "transport_legende": "\ud83d\udeb2 \u2764\ufe0f Train TER \ud83d\ude86"}, "geometry": {"type": "Point", "coordinates": [4.256974, 49.151133]}}, {"type": "Feature", "properties": {"start": "Ch\u00e2lons-en-Champagne", "stop_name": "Mourmelon-le-Petit", "type": "Gare accessible", "transport": "TER", "nombre_trajet_moyen": 6.77, "transport_legende": "\ud83d\udeb2 \u2764\ufe0f Train TER \ud83d\ude86"}, "geometry": {"type": "Point", "coordinates": [4.318098, 49.131308]}}, {"type": "Feature", "properties": {"start": "Ch\u00e2lons-en-Champagne", "stop_name": "Dormans", "type": "Gare accessible", "transport": "TER", "nombre_trajet_moyen": 9.13, "transport_legende": "\ud83d\udeb2 \u2764\ufe0f Train TER \ud83d\ude86"}, "geometry": {"type": "Point", "coordinates": [3.641835, 49.07908]}}, {"type": "Feature", "properties": {"start": "Ch\u00e2lons-en-Champagne", "stop_name": "Ch\u00e2teau-Thierry", "type": "Gare accessible", "transport": "TER", "nombre_trajet_moyen": 9.13, "transport_legende": "\ud83d\udeb2 \u2764\ufe0f Train TER \ud83d\ude86"}, "geometry": {"type": "Point", "coordinates": [3.409302, 49.03814]}}, {"type": "Feature", "properties": {"start": "Ch\u00e2lons-en-Champagne", "stop_name": "Bar-le-Duc", "type": "Gare accessible", "transport": "TER", "nombre_trajet_moyen": 5.45, "transport_legende": "\ud83d\udeb2 \u2764\ufe0f Train TER \ud83d\ude86"}, "geometry": {"type": "Point", "coordinates": [5.167053, 48.773598]}}, {"type": "Feature", "properties": {"start": "Ch\u00e2lons-en-Champagne", "stop_name": "Troyes", "type": "Gare accessible", "transport": "TER", "nombre_trajet_moyen": 0.93, "transport_legende": "\ud83d\udeb2 \u2764\ufe0f Train TER \ud83d\ude86"}, "geometry": {"type": "Point", "coordinates": [4.065281, 48.296069]}}, {"type": "Feature", "properties": {"start": "Ch\u00e2lons-en-Champagne", "stop_name": "Revigny", "type": "Gare accessible", "transport": "TER", "nombre_trajet_moyen": 2.23, "transport_legende": "\ud83d\udeb2 \u2764\ufe0f Train TER \ud83d\ude86"}, "geometry": {"type": "Point", "coordinates": [4.985513, 48.824193]}}, {"type": "Feature", "properties": {"start": "Ch\u00e2lons-en-Champagne", "stop_name": "Metz", "type": "Gare accessible", "transport": "TER", "nombre_trajet_moyen": 1.32, "transport_legende": "\ud83d\udeb2 \u2764\ufe0f Train TER \ud83d\ude86"}, "geometry": {"type": "Point", "coordinates": [6.177052, 49.109466]}}, {"type": "Feature", "properties": {"start": "Ch\u00e2lons-en-Champagne", "stop_name": "Onville", "type": "Gare accessible", "transport": "TER", "nombre_trajet_moyen": 1.32, "transport_legende": "\ud83d\udeb2 \u2764\ufe0f Train TER \ud83d\ude86"}, "geometry": {"type": "Point", "coordinates": [5.979092, 49.013667]}}, {"type": "Feature", "properties": {"start": "Ch\u00e2lons-en-Champagne", "stop_name": "L\u00e9rouville", "type": "Gare accessible", "transport": "TER", "nombre_trajet_moyen": 1.73, "transport_legende": "\ud83d\udeb2 \u2764\ufe0f Train TER \ud83d\ude86"}, "geometry": {"type": "Point", "coordinates": [5.538437, 48.796902]}}, {"type": "Feature", "properties": {"start": "Ch\u00e2lons-en-Champagne", "stop_name": "Lun\u00e9ville", "type": "Gare accessible", "transport": "TER", "nombre_trajet_moyen": 2.88, "transport_legende": "\ud83d\udeb2 \u2764\ufe0f Train TER \ud83d\ude86"}, "geometry": {"type": "Point", "coordinates": [6.496997, 48.58799]}}, {"type": "Feature", "properties": {"start": "Ch\u00e2lons-en-Champagne", "stop_name": "Mont-sur-Meurthe", "type": "Gare accessible", "transport": "TER", "nombre_trajet_moyen": 0.69, "transport_legende": "\ud83d\udeb2 \u2764\ufe0f Train TER \ud83d\ude86"}, "geometry": {"type": "Point", "coordinates": [6.449774, 48.559964]}}, {"type": "Feature", "properties": {"start": "Ch\u00e2lons-en-Champagne", "stop_name": "Blainville - Damelevi\u00e8res", "type": "Gare accessible", "transport": "TER", "nombre_trajet_moyen": 0.69, "transport_legende": "\ud83d\udeb2 \u2764\ufe0f Train TER \ud83d\ude86"}, "geometry": {"type": "Point", "coordinates": [6.386948, 48.564799]}}, {"type": "Feature", "properties": {"start": "Ch\u00e2lons-en-Champagne", "stop_name": "Rosi\u00e8res-aux-Salines", "type": "Gare accessible", "transport": "TER", "nombre_trajet_moyen": 0.69, "transport_legende": "\ud83d\udeb2 \u2764\ufe0f Train TER \ud83d\ude86"}, "geometry": {"type": "Point", "coordinates": [6.350631, 48.605441]}}, {"type": "Feature", "properties": {"start": "Ch\u00e2lons-en-Champagne", "stop_name": "Dombasle-sur-Meurthe", "type": "Gare accessible", "transport": "TER", "nombre_trajet_moyen": 0.69, "transport_legende": "\ud83d\udeb2 \u2764\ufe0f Train TER \ud83d\ude86"}, "geometry": {"type": "Point", "coordinates": [6.343566, 48.623332]}}, {"type": "Feature", "properties": {"start": "Ch\u00e2lons-en-Champagne", "stop_name": "Varang\u00e9ville - Saint-Nicolas", "type": "Gare accessible", "transport": "TER", "nombre_trajet_moyen": 0.69, "transport_legende": "\ud83d\udeb2 \u2764\ufe0f Train TER \ud83d\ude86"}, "geometry": {"type": "Point", "coordinates": [6.313142, 48.635215]}}, {"type": "Feature", "properties": {"start": "Ch\u00e2lons-en-Champagne", "stop_name": "Laneuveville-devant-Nancy", "type": "Gare accessible", "transport": "TER", "nombre_trajet_moyen": 0.69, "transport_legende": "\ud83d\udeb2 \u2764\ufe0f Train TER \ud83d\ude86"}, "geometry": {"type": "Point", "coordinates": [6.227977, 48.65568]}}, {"type": "Feature", "properties": {"start": "Ch\u00e2lons-en-Champagne", "stop_name": "Jarville-la-Malgrange", "type": "Gare accessible", "transport": "TER", "nombre_trajet_moyen": 0.69, "transport_legende": "\ud83d\udeb2 \u2764\ufe0f Train TER \ud83d\ude86"}, "geometry": {"type": "Point", "coordinates": [6.202401, 48.669712]}}, {"type": "Feature", "properties": {"start": "Ch\u00e2lons-en-Champagne", "stop_name": "Nancy", "type": "Gare accessible", "transport": "TER", "nombre_trajet_moyen": 3.97, "transport_legende": "\ud83d\udeb2 \u2764\ufe0f Train TER \ud83d\ude86"}, "geometry": {"type": "Point", "coordinates": [6.174579, 48.689857]}}, {"type": "Feature", "properties": {"start": "Ch\u00e2lons-en-Champagne", "stop_name": "Frouard", "type": "Gare accessible", "transport": "TER", "nombre_trajet_moyen": 1.63, "transport_legende": "\ud83d\udeb2 \u2764\ufe0f Train TER \ud83d\ude86"}, "geometry": {"type": "Point", "coordinates": [6.143927, 48.755428]}}, {"type": "Feature", "properties": {"start": "Ch\u00e2lons-en-Champagne", "stop_name": "Liverdun", "type": "Gare accessible", "transport": "TER", "nombre_trajet_moyen": 1.63, "transport_legende": "\ud83d\udeb2 \u2764\ufe0f Train TER \ud83d\ude86"}, "geometry": {"type": "Point", "coordinates": [6.061669, 48.749387]}}, {"type": "Feature", "properties": {"start": "Ch\u00e2lons-en-Champagne", "stop_name": "Toul", "type": "Gare accessible", "transport": "TER", "nombre_trajet_moyen": 3.97, "transport_legende": "\ud83d\udeb2 \u2764\ufe0f Train TER \ud83d\ude86"}, "geometry": {"type": "Point", "coordinates": [5.880499, 48.679011]}}, {"type": "Feature", "properties": {"start": "Ch\u00e2lons-en-Champagne", "stop_name": "Commercy", "type": "Gare accessible", "transport": "TER", "nombre_trajet_moyen": 3.97, "transport_legende": "\ud83d\udeb2 \u2764\ufe0f Train TER \ud83d\ude86"}, "geometry": {"type": "Point", "coordinates": [5.58861, 48.765749]}}, {"type": "Feature", "properties": {"start": "Ch\u00e2lons-en-Champagne", "stop_name": "Nan\u00e7ois - Tronville", "type": "Gare accessible", "transport": "TER", "nombre_trajet_moyen": 0.41, "transport_legende": "\ud83d\udeb2 \u2764\ufe0f Train TER \ud83d\ude86"}, "geometry": {"type": "Point", "coordinates": [5.29114, 48.718022]}}, {"type": "Feature", "properties": {"start": "Ch\u00e2lons-en-Champagne", "stop_name": "Pagny-sur-Meuse", "type": "Gare accessible", "transport": "TER", "nombre_trajet_moyen": 0.41, "transport_legende": "\ud83d\udeb2 \u2764\ufe0f Train TER \ud83d\ude86"}, "geometry": {"type": "Point", "coordinates": [5.733632, 48.696582]}}, {"type": "Feature", "properties": {"start": "Ch\u00e2lons-en-Champagne", "stop_name": "Foug", "type": "Gare accessible", "transport": "TER", "nombre_trajet_moyen": 0.41, "transport_legende": "\ud83d\udeb2 \u2764\ufe0f Train TER \ud83d\ude86"}, "geometry": {"type": "Point", "coordinates": [5.791265, 48.679264]}}, {"type": "Feature", "properties": {"start": "Ch\u00e2lons-en-Champagne", "stop_name": "Fontenoy-sur-Moselle", "type": "Gare accessible", "transport": "TER", "nombre_trajet_moyen": 0.41, "transport_legende": "\ud83d\udeb2 \u2764\ufe0f Train TER \ud83d\ude86"}, "geometry": {"type": "Point", "coordinates": [5.980173, 48.711419]}}, {"type": "Feature", "properties": {"start": "Ch\u00e2lons-en-Champagne", "stop_name": "Champigneulles", "type": "Gare accessible", "transport": "TER", "nombre_trajet_moyen": 0.16, "transport_legende": "\ud83d\udeb2 \u2764\ufe0f Train TER \ud83d\ude86"}, "geometry": {"type": "Point", "coordinates": [6.168952, 48.735025]}}, {"type": "Feature", "properties": {"start": "Ch\u00e2lons-en-Champagne", "stop_name": "Paris Est", "type": "Gare accessible", "transport": "TER", "nombre_trajet_moyen": 9.29, "transport_legende": "\ud83d\udeb2 \u2764\ufe0f Train TER \ud83d\ude86"}, "geometry": {"type": "Point", "coordinates": [2.358424, 48.876742]}}, {"type": "Feature", "properties": {"start": "Ch\u00e2lons-en-Champagne", "stop_name": "La Fert\u00e9-sous-Jouarre", "type": "Gare accessible", "transport": "TER", "nombre_trajet_moyen": 1.38, "transport_legende": "\ud83d\udeb2 \u2764\ufe0f Train TER \ud83d\ude86"}, "geometry": {"type": "Point", "coordinates": [3.125466, 48.95078]}}, {"type": "Feature", "properties": {"start": "Ch\u00e2lons-en-Champagne", "stop_name": "Sarrebourg", "type": "Gare accessible", "transport": "TER", "nombre_trajet_moyen": 2.29, "transport_legende": "\ud83d\udeb2 \u2764\ufe0f Train TER \ud83d\ude86"}, "geometry": {"type": "Point", "coordinates": [7.05285, 48.73808]}}, {"type": "Feature", "properties": {"start": "Ch\u00e2lons-en-Champagne", "stop_name": "Saverne", "type": "Gare accessible", "transport": "TER", "nombre_trajet_moyen": 1.91, "transport_legende": "\ud83d\udeb2 \u2764\ufe0f Train TER \ud83d\ude86"}, "geometry": {"type": "Point", "coordinates": [7.362055, 48.744483]}}, {"type": "Feature", "properties": {"start": "Ch\u00e2lons-en-Champagne", "stop_name": "Strasbourg", "type": "Gare accessible", "transport": "TER", "nombre_trajet_moyen": 1.91, "transport_legende": "\ud83d\udeb2 \u2764\ufe0f Train TER \ud83d\ude86"}, "geometry": {"type": "Point", "coordinates": [7.734793, 48.584532]}}, {"type": "Feature", "properties": {"start": "Ch\u00e2lons-en-Champagne", "stop_name": "Belfort-Ville", "type": "Gare accessible", "transport": "TER", "nombre_trajet_moyen": 0.38, "transport_legende": "\ud83d\udeb2 \u2764\ufe0f Train TER \ud83d\ude86"}, "geometry": {"type": "Point", "coordinates": [6.854053, 47.633278]}}, {"type": "Feature", "properties": {"start": "Ch\u00e2lons-en-Champagne", "stop_name": "Lure", "type": "Gare accessible", "transport": "TER", "nombre_trajet_moyen": 0.38, "transport_legende": "\ud83d\udeb2 \u2764\ufe0f Train TER \ud83d\ude86"}, "geometry": {"type": "Point", "coordinates": [6.492563, 47.683274]}}, {"type": "Feature", "properties": {"start": "Ch\u00e2lons-en-Champagne", "stop_name": "Vesoul", "type": "Gare accessible", "transport": "TER", "nombre_trajet_moyen": 0.38, "transport_legende": "\ud83d\udeb2 \u2764\ufe0f Train TER \ud83d\ude86"}, "geometry": {"type": "Point", "coordinates": [6.151821, 47.61781]}}, {"type": "Feature", "properties": {"start": "Ch\u00e2lons-en-Champagne", "stop_name": "Mulhouse", "type": "Gare accessible", "transport": "TER", "nombre_trajet_moyen": 0.35, "transport_legende": "\ud83d\udeb2 \u2764\ufe0f Train TER \ud83d\ude86"}, "geometry": {"type": "Point", "coordinates": [7.34316, 47.742691]}}, {"type": "Feature", "properties": {"start": "Ch\u00e2lons-en-Champagne", "stop_name": "Altkirch", "type": "Gare accessible", "transport": "TER", "nombre_trajet_moyen": 0.35, "transport_legende": "\ud83d\udeb2 \u2764\ufe0f Train TER \ud83d\ude86"}, "geometry": {"type": "Point", "coordinates": [7.23905, 47.627017]}}, {"type": "Feature", "properties": {"start": "Ch\u00e2lons-en-Champagne", "stop_name": "Chevillon", "type": "Gare accessible", "transport": "TER", "nombre_trajet_moyen": 2.9, "transport_legende": "\ud83d\udeb2 \u2764\ufe0f Train TER \ud83d\ude86"}, "geometry": {"type": "Point", "coordinates": [5.113277, 48.523946]}}, {"type": "Feature", "properties": {"start": "Ch\u00e2lons-en-Champagne", "stop_name": "Is-sur-Tille", "type": "Gare accessible", "transport": "TER", "nombre_trajet_moyen": 0.73, "transport_legende": "\ud83d\udeb2 \u2764\ufe0f Train TER \ud83d\ude86"}, "geometry": {"type": "Point", "coordinates": [5.129481, 47.520454]}}, {"type": "Feature", "properties": {"start": "Ch\u00e2lons-en-Champagne", "stop_name": "Dijon", "type": "Gare accessible", "transport": "TER", "nombre_trajet_moyen": 0.73, "transport_legende": "\ud83d\udeb2 \u2764\ufe0f Train TER \ud83d\ude86"}, "geometry": {"type": "Point", "coordinates": [5.027256, 47.323411]}}]}