{"type": "FeatureCollection", "features": [{"type": "Feature", "properties": {"start": "Ch\u00e2teau-Thierry", "stop_name": "Ch\u00e2teau-Thierry", "type": "Gare s\u00e9lectionn\u00e9e", "transport": "TER", "transport_legende": "\ud83d\udeb2 \u2764\ufe0f Train TER \ud83d\ude86"}, "geometry": {"type": "Point", "coordinates": [3.409302, 49.03814]}}, {"type": "Feature", "properties": {"start": "Ch\u00e2teau-Thierry", "stop_name": "Ch\u00e2lons-en-Champagne", "type": "Gare accessible", "transport": "TER", "transport_legende": "\ud83d\udeb2 \u2764\ufe0f Train TER \ud83d\ude86"}, "geometry": {"type": "Point", "coordinates": [4.348656, 48.955252]}}, {"type": "Feature", "properties": {"start": "Ch\u00e2teau-Thierry", "stop_name": "\u00c9pernay", "type": "Gare accessible", "transport": "TER", "transport_legende": "\ud83d\udeb2 \u2764\ufe0f Train TER \ud83d\ude86"}, "geometry": {"type": "Point", "coordinates": [3.959798, 49.046289]}}, {"type": "Feature", "properties": {"start": "Ch\u00e2teau-Thierry", "stop_name": "Dormans", "type": "Gare accessible", "transport": "TER", "transport_legende": "\ud83d\udeb2 \u2764\ufe0f Train TER \ud83d\ude86"}, "geometry": {"type": "Point", "coordinates": [3.641835, 49.07908]}}, {"type": "Feature", "properties": {"start": "Ch\u00e2teau-Thierry", "stop_name": "Ay-Champagne", "type": "Gare accessible", "transport": "TER", "transport_legende": "\ud83d\udeb2 \u2764\ufe0f Train TER \ud83d\ude86"}, "geometry": {"type": "Point", "coordinates": [4.00169, 49.048797]}}, {"type": "Feature", "properties": {"start": "Ch\u00e2teau-Thierry", "stop_name": "Avenay", "type": "Gare accessible", "transport": "TER", "transport_legende": "\ud83d\udeb2 \u2764\ufe0f Train TER \ud83d\ude86"}, "geometry": {"type": "Point", "coordinates": [4.043689, 49.064783]}}, {"type": "Feature", "properties": {"start": "Ch\u00e2teau-Thierry", "stop_name": "Rilly-la-Montagne", "type": "Gare accessible", "transport": "TER", "transport_legende": "\ud83d\udeb2 \u2764\ufe0f Train TER \ud83d\ude86"}, "geometry": {"type": "Point", "coordinates": [4.040812, 49.166504]}}, {"type": "Feature", "properties": {"start": "Ch\u00e2teau-Thierry", "stop_name": "Reims Maison Blanche", "type": "Gare accessible", "transport": "TER", "transport_legende": "\ud83d\udeb2 \u2764\ufe0f Train TER \ud83d\ude86"}, "geometry": {"type": "Point", "coordinates": [4.022648, 49.233406]}}, {"type": "Feature", "properties": {"start": "Ch\u00e2teau-Thierry", "stop_name": "Franchet d'Esperey", "type": "Gare accessible", "transport": "TER", "transport_legende": "\ud83d\udeb2 \u2764\ufe0f Train TER \ud83d\ude86"}, "geometry": {"type": "Point", "coordinates": [4.013869, 49.242536]}}, {"type": "Feature", "properties": {"start": "Ch\u00e2teau-Thierry", "stop_name": "Reims", "type": "Gare accessible", "transport": "TER", "transport_legende": "\ud83d\udeb2 \u2764\ufe0f Train TER \ud83d\ude86"}, "geometry": {"type": "Point", "coordinates": [4.021994, 49.258934]}}, {"type": "Feature", "properties": {"start": "Ch\u00e2teau-Thierry", "stop_name": "Paris Est", "type": "Gare accessible", "transport": "TER", "transport_legende": "\ud83d\udeb2 \u2764\ufe0f Train TER \ud83d\ude86"}, "geometry": {"type": "Point", "coordinates": [2.358424, 48.876742]}}, {"type": "Feature", "properties": {"start": "Ch\u00e2teau-Thierry", "stop_name": "Vitry-le-Fran\u00e7ois", "type": "Gare accessible", "transport": "TER", "transport_legende": "\ud83d\udeb2 \u2764\ufe0f Train TER \ud83d\ude86"}, "geometry": {"type": "Point", "coordinates": [4.587515, 48.717913]}}, {"type": "Feature", "properties": {"start": "Ch\u00e2teau-Thierry", "stop_name": "Bar-le-Duc", "type": "Gare accessible", "transport": "TER", "transport_legende": "\ud83d\udeb2 \u2764\ufe0f Train TER \ud83d\ude86"}, "geometry": {"type": "Point", "coordinates": [5.167053, 48.773598]}}, {"type": "Feature", "properties": {"start": "Ch\u00e2teau-Thierry", "stop_name": "La Fert\u00e9-sous-Jouarre", "type": "Gare accessible", "transport": "TER", "transport_legende": "\ud83d\udeb2 \u2764\ufe0f Train TER \ud83d\ude86"}, "geometry": {"type": "Point", "coordinates": [3.125466, 48.95078]}}, {"type": "Feature", "properties": {"start": "Ch\u00e2teau-Thierry", "stop_name": "Saint-Dizier", "type": "Gare accessible", "transport": "TER", "transport_legende": "\ud83d\udeb2 \u2764\ufe0f Train TER \ud83d\ude86"}, "geometry": {"type": "Point", "coordinates": [4.947855, 48.642404]}}, {"type": "Feature", "properties": {"start": "Ch\u00e2teau-Thierry", "stop_name": "Commercy", "type": "Gare accessible", "transport": "TER", "transport_legende": "\ud83d\udeb2 \u2764\ufe0f Train TER \ud83d\ude86"}, "geometry": {"type": "Point", "coordinates": [5.58861, 48.765749]}}, {"type": "Feature", "properties": {"start": "Ch\u00e2teau-Thierry", "stop_name": "Toul", "type": "Gare accessible", "transport": "TER", "transport_legende": "\ud83d\udeb2 \u2764\ufe0f Train TER \ud83d\ude86"}, "geometry": {"type": "Point", "coordinates": [5.880499, 48.679011]}}, {"type": "Feature", "properties": {"start": "Ch\u00e2teau-Thierry", "stop_name": "Nancy", "type": "Gare accessible", "transport": "TER", "transport_legende": "\ud83d\udeb2 \u2764\ufe0f Train TER \ud83d\ude86"}, "geometry": {"type": "Point", "coordinates": [6.174579, 48.689857]}}, {"type": "Feature", "properties": {"start": "Ch\u00e2teau-Thierry", "stop_name": "Lun\u00e9ville", "type": "Gare accessible", "transport": "TER", "transport_legende": "\ud83d\udeb2 \u2764\ufe0f Train TER \ud83d\ude86"}, "geometry": {"type": "Point", "coordinates": [6.496997, 48.58799]}}, {"type": "Feature", "properties": {"start": "Ch\u00e2teau-Thierry", "stop_name": "Sarrebourg", "type": "Gare accessible", "transport": "TER", "transport_legende": "\ud83d\udeb2 \u2764\ufe0f Train TER \ud83d\ude86"}, "geometry": {"type": "Point", "coordinates": [7.05285, 48.73808]}}, {"type": "Feature", "properties": {"start": "Ch\u00e2teau-Thierry", "stop_name": "Saverne", "type": "Gare accessible", "transport": "TER", "transport_legende": "\ud83d\udeb2 \u2764\ufe0f Train TER \ud83d\ude86"}, "geometry": {"type": "Point", "coordinates": [7.362055, 48.744483]}}, {"type": "Feature", "properties": {"start": "Ch\u00e2teau-Thierry", "stop_name": "Strasbourg", "type": "Gare accessible", "transport": "TER", "transport_legende": "\ud83d\udeb2 \u2764\ufe0f Train TER \ud83d\ude86"}, "geometry": {"type": "Point", "coordinates": [7.734793, 48.584532]}}]}