{"type": "FeatureCollection", "features": [{"type": "Feature", "properties": {"start": "Courcay - Tauxigny", "stop_name": "Courcay - Tauxigny", "type": "Gare s\u00e9lectionn\u00e9e", "transport": "TER", "nombre_trajet_moyen": 1.98, "transport_legende": "\ud83d\udeb2 \u2764\ufe0f Train TER \ud83d\ude86"}, "geometry": {"type": "Point", "coordinates": [0.867603, 47.237613]}}, {"type": "Feature", "properties": {"start": "Courcay - Tauxigny", "stop_name": "Loches", "type": "Gare accessible", "transport": "TER", "nombre_trajet_moyen": 1.98, "transport_legende": "\ud83d\udeb2 \u2764\ufe0f Train TER \ud83d\ude86"}, "geometry": {"type": "Point", "coordinates": [1.000467, 47.130464]}}, {"type": "Feature", "properties": {"start": "Courcay - Tauxigny", "stop_name": "Chambourg", "type": "Gare accessible", "transport": "TER", "nombre_trajet_moyen": 1.98, "transport_legende": "\ud83d\udeb2 \u2764\ufe0f Train TER \ud83d\ude86"}, "geometry": {"type": "Point", "coordinates": [0.964949, 47.182215]}}, {"type": "Feature", "properties": {"start": "Courcay - Tauxigny", "stop_name": "Reignac", "type": "Gare accessible", "transport": "TER", "nombre_trajet_moyen": 1.98, "transport_legende": "\ud83d\udeb2 \u2764\ufe0f Train TER \ud83d\ude86"}, "geometry": {"type": "Point", "coordinates": [0.901533, 47.21787]}}, {"type": "Feature", "properties": {"start": "Courcay - Tauxigny", "stop_name": "Cormery", "type": "Gare accessible", "transport": "TER", "nombre_trajet_moyen": 1.98, "transport_legende": "\ud83d\udeb2 \u2764\ufe0f Train TER \ud83d\ude86"}, "geometry": {"type": "Point", "coordinates": [0.834953, 47.26263]}}, {"type": "Feature", "properties": {"start": "Courcay - Tauxigny", "stop_name": "Esvres-sur-Indre", "type": "Gare accessible", "transport": "TER", "nombre_trajet_moyen": 1.98, "transport_legende": "\ud83d\udeb2 \u2764\ufe0f Train TER \ud83d\ude86"}, "geometry": {"type": "Point", "coordinates": [0.781977, 47.284535]}}, {"type": "Feature", "properties": {"start": "Courcay - Tauxigny", "stop_name": "Veign\u00e9", "type": "Gare accessible", "transport": "TER", "nombre_trajet_moyen": 1.98, "transport_legende": "\ud83d\udeb2 \u2764\ufe0f Train TER \ud83d\ude86"}, "geometry": {"type": "Point", "coordinates": [0.73488, 47.291227]}}, {"type": "Feature", "properties": {"start": "Courcay - Tauxigny", "stop_name": "Montbazon", "type": "Gare accessible", "transport": "TER", "nombre_trajet_moyen": 1.98, "transport_legende": "\ud83d\udeb2 \u2764\ufe0f Train TER \ud83d\ude86"}, "geometry": {"type": "Point", "coordinates": [0.721005, 47.291629]}}, {"type": "Feature", "properties": {"start": "Courcay - Tauxigny", "stop_name": "La Douzill\u00e8re", "type": "Gare accessible", "transport": "TER", "nombre_trajet_moyen": 1.98, "transport_legende": "\ud83d\udeb2 \u2764\ufe0f Train TER \ud83d\ude86"}, "geometry": {"type": "Point", "coordinates": [0.652962, 47.338792]}}, {"type": "Feature", "properties": {"start": "Courcay - Tauxigny", "stop_name": "Jou\u00e9-l\u00e8s-Tours", "type": "Gare accessible", "transport": "TER", "nombre_trajet_moyen": 1.98, "transport_legende": "\ud83d\udeb2 \u2764\ufe0f Train TER \ud83d\ude86"}, "geometry": {"type": "Point", "coordinates": [0.667559, 47.354174]}}, {"type": "Feature", "properties": {"start": "Courcay - Tauxigny", "stop_name": "Tours", "type": "Gare accessible", "transport": "TER", "nombre_trajet_moyen": 1.98, "transport_legende": "\ud83d\udeb2 \u2764\ufe0f Train TER \ud83d\ude86"}, "geometry": {"type": "Point", "coordinates": [0.692831, 47.389866]}}]}