{"type": "FeatureCollection", "features": [{"type": "Feature", "properties": {"start": "Crest", "stop_name": "Crest", "type": "Gare s\u00e9lectionn\u00e9e", "transport": "TER", "nombre_trajet_moyen": 7.87, "transport_legende": "\ud83d\udeb2 \u2764\ufe0f Train TER \ud83d\ude86"}, "geometry": {"type": "Point", "coordinates": [5.016106, 44.730196]}}, {"type": "Feature", "properties": {"start": "Crest", "stop_name": "Gap", "type": "Gare accessible", "transport": "TER", "nombre_trajet_moyen": 6.27, "transport_legende": "\ud83d\udeb2 \u2764\ufe0f Train TER \ud83d\ude86"}, "geometry": {"type": "Point", "coordinates": [6.085669, 44.563714]}}, {"type": "Feature", "properties": {"start": "Crest", "stop_name": "Veynes D\u00e9voluy", "type": "Gare accessible", "transport": "TER", "nombre_trajet_moyen": 6.27, "transport_legende": "\ud83d\udeb2 \u2764\ufe0f Train TER \ud83d\ude86"}, "geometry": {"type": "Point", "coordinates": [5.815807, 44.532019]}}, {"type": "Feature", "properties": {"start": "Crest", "stop_name": "Luc-en-Diois", "type": "Gare accessible", "transport": "TER", "nombre_trajet_moyen": 6.27, "transport_legende": "\ud83d\udeb2 \u2764\ufe0f Train TER \ud83d\ude86"}, "geometry": {"type": "Point", "coordinates": [5.454618, 44.613697]}}, {"type": "Feature", "properties": {"start": "Crest", "stop_name": "Die", "type": "Gare accessible", "transport": "TER", "nombre_trajet_moyen": 7.87, "transport_legende": "\ud83d\udeb2 \u2764\ufe0f Train TER \ud83d\ude86"}, "geometry": {"type": "Point", "coordinates": [5.363219, 44.758238]}}, {"type": "Feature", "properties": {"start": "Crest", "stop_name": "Saillans", "type": "Gare accessible", "transport": "TER", "nombre_trajet_moyen": 7.54, "transport_legende": "\ud83d\udeb2 \u2764\ufe0f Train TER \ud83d\ude86"}, "geometry": {"type": "Point", "coordinates": [5.19413, 44.694416]}}, {"type": "Feature", "properties": {"start": "Crest", "stop_name": "Livron", "type": "Gare accessible", "transport": "TER", "nombre_trajet_moyen": 7.24, "transport_legende": "\ud83d\udeb2 \u2764\ufe0f Train TER \ud83d\ude86"}, "geometry": {"type": "Point", "coordinates": [4.830559, 44.779617]}}, {"type": "Feature", "properties": {"start": "Crest", "stop_name": "Valence Ville", "type": "Gare accessible", "transport": "TER", "nombre_trajet_moyen": 7.87, "transport_legende": "\ud83d\udeb2 \u2764\ufe0f Train TER \ud83d\ude86"}, "geometry": {"type": "Point", "coordinates": [4.893288, 44.928081]}}, {"type": "Feature", "properties": {"start": "Crest", "stop_name": "Valence TGV Rh\u00f4ne-Alpes Sud", "type": "Gare accessible", "transport": "TER", "nombre_trajet_moyen": 7.87, "transport_legende": "\ud83d\udeb2 \u2764\ufe0f Train TER \ud83d\ude86"}, "geometry": {"type": "Point", "coordinates": [4.978652, 44.991907]}}, {"type": "Feature", "properties": {"start": "Crest", "stop_name": "Romans - Bourg-de-P\u00e9age", "type": "Gare accessible", "transport": "TER", "nombre_trajet_moyen": 7.87, "transport_legende": "\ud83d\udeb2 \u2764\ufe0f Train TER \ud83d\ude86"}, "geometry": {"type": "Point", "coordinates": [5.049574, 45.048862]}}, {"type": "Feature", "properties": {"start": "Crest", "stop_name": "Chorges", "type": "Gare accessible", "transport": "TER", "nombre_trajet_moyen": 4.52, "transport_legende": "\ud83d\udeb2 \u2764\ufe0f Train TER \ud83d\ude86"}, "geometry": {"type": "Point", "coordinates": [6.271889, 44.545842]}}, {"type": "Feature", "properties": {"start": "Crest", "stop_name": "Embrun", "type": "Gare accessible", "transport": "TER", "nombre_trajet_moyen": 4.52, "transport_legende": "\ud83d\udeb2 \u2764\ufe0f Train TER \ud83d\ude86"}, "geometry": {"type": "Point", "coordinates": [6.496753, 44.567012]}}, {"type": "Feature", "properties": {"start": "Crest", "stop_name": "Mont-Dauphin - Guillestre", "type": "Gare accessible", "transport": "TER", "nombre_trajet_moyen": 4.52, "transport_legende": "\ud83d\udeb2 \u2764\ufe0f Train TER \ud83d\ude86"}, "geometry": {"type": "Point", "coordinates": [6.61561, 44.674625]}}, {"type": "Feature", "properties": {"start": "Crest", "stop_name": "L'Argenti\u00e8re les \u00c9crins", "type": "Gare accessible", "transport": "TER", "nombre_trajet_moyen": 4.52, "transport_legende": "\ud83d\udeb2 \u2764\ufe0f Train TER \ud83d\ude86"}, "geometry": {"type": "Point", "coordinates": [6.556408, 44.791013]}}, {"type": "Feature", "properties": {"start": "Crest", "stop_name": "Brian\u00e7on", "type": "Gare accessible", "transport": "TER", "nombre_trajet_moyen": 4.52, "transport_legende": "\ud83d\udeb2 \u2764\ufe0f Train TER \ud83d\ude86"}, "geometry": {"type": "Point", "coordinates": [6.632966, 44.889842]}}]}