{"type": "FeatureCollection", "features": [{"type": "Feature", "properties": {"start": "Douai", "stop_name": "Douai", "type": "Gare s\u00e9lectionn\u00e9e", "transport": "TER", "nombre_trajet_moyen": 15.19, "transport_legende": "\ud83d\udeb2 \u2764\ufe0f Train TER \ud83d\ude86"}, "geometry": {"type": "Point", "coordinates": [3.089958, 50.371673]}}, {"type": "Feature", "properties": {"start": "Douai", "stop_name": "Lille Flandres", "type": "Gare accessible", "transport": "TER", "nombre_trajet_moyen": 10.66, "transport_legende": "\ud83d\udeb2 \u2764\ufe0f Train TER \ud83d\ude86"}, "geometry": {"type": "Point", "coordinates": [3.06987, 50.636577]}}, {"type": "Feature", "properties": {"start": "Douai", "stop_name": "Arras", "type": "Gare accessible", "transport": "TER", "nombre_trajet_moyen": 7.15, "transport_legende": "\ud83d\udeb2 \u2764\ufe0f Train TER \ud83d\ude86"}, "geometry": {"type": "Point", "coordinates": [2.781314, 50.286971]}}, {"type": "Feature", "properties": {"start": "Douai", "stop_name": "Longueau", "type": "Gare accessible", "transport": "TER", "nombre_trajet_moyen": 0.25, "transport_legende": "\ud83d\udeb2 \u2764\ufe0f Train TER \ud83d\ude86"}, "geometry": {"type": "Point", "coordinates": [2.352233, 49.863407]}}, {"type": "Feature", "properties": {"start": "Douai", "stop_name": "Creil", "type": "Gare accessible", "transport": "TER", "nombre_trajet_moyen": 0.25, "transport_legende": "\ud83d\udeb2 \u2764\ufe0f Train TER \ud83d\ude86"}, "geometry": {"type": "Point", "coordinates": [2.469293, 49.263775]}}, {"type": "Feature", "properties": {"start": "Douai", "stop_name": "Paris Gare du Nord", "type": "Gare accessible", "transport": "TER", "nombre_trajet_moyen": 0.25, "transport_legende": "\ud83d\udeb2 \u2764\ufe0f Train TER \ud83d\ude86"}, "geometry": {"type": "Point", "coordinates": [2.354851, 48.880136]}}, {"type": "Feature", "properties": {"start": "Douai", "stop_name": "Biache-Saint-Vaast", "type": "Gare accessible", "transport": "TER", "nombre_trajet_moyen": 3.18, "transport_legende": "\ud83d\udeb2 \u2764\ufe0f Train TER \ud83d\ude86"}, "geometry": {"type": "Point", "coordinates": [2.941718, 50.316257]}}, {"type": "Feature", "properties": {"start": "Douai", "stop_name": "Vitry-en-Artois", "type": "Gare accessible", "transport": "TER", "nombre_trajet_moyen": 3.18, "transport_legende": "\ud83d\udeb2 \u2764\ufe0f Train TER \ud83d\ude86"}, "geometry": {"type": "Point", "coordinates": [2.980559, 50.32712]}}, {"type": "Feature", "properties": {"start": "Douai", "stop_name": "Brebi\u00e8res Sud", "type": "Gare accessible", "transport": "TER", "nombre_trajet_moyen": 3.18, "transport_legende": "\ud83d\udeb2 \u2764\ufe0f Train TER \ud83d\ude86"}, "geometry": {"type": "Point", "coordinates": [3.013977, 50.336155]}}, {"type": "Feature", "properties": {"start": "Douai", "stop_name": "Sin-le-Noble", "type": "Gare accessible", "transport": "TER", "nombre_trajet_moyen": 3.8, "transport_legende": "\ud83d\udeb2 \u2764\ufe0f Train TER \ud83d\ude86"}, "geometry": {"type": "Point", "coordinates": [3.112559, 50.356683]}}, {"type": "Feature", "properties": {"start": "Douai", "stop_name": "Cantin", "type": "Gare accessible", "transport": "TER", "nombre_trajet_moyen": 3.8, "transport_legende": "\ud83d\udeb2 \u2764\ufe0f Train TER \ud83d\ude86"}, "geometry": {"type": "Point", "coordinates": [3.122145, 50.312554]}}, {"type": "Feature", "properties": {"start": "Douai", "stop_name": "Arleux", "type": "Gare accessible", "transport": "TER", "nombre_trajet_moyen": 3.8, "transport_legende": "\ud83d\udeb2 \u2764\ufe0f Train TER \ud83d\ude86"}, "geometry": {"type": "Point", "coordinates": [3.120522, 50.286347]}}, {"type": "Feature", "properties": {"start": "Douai", "stop_name": "Aubigny-au-Bac", "type": "Gare accessible", "transport": "TER", "nombre_trajet_moyen": 3.8, "transport_legende": "\ud83d\udeb2 \u2764\ufe0f Train TER \ud83d\ude86"}, "geometry": {"type": "Point", "coordinates": [3.158781, 50.268551]}}, {"type": "Feature", "properties": {"start": "Douai", "stop_name": "Cambrai", "type": "Gare accessible", "transport": "TER", "nombre_trajet_moyen": 6.77, "transport_legende": "\ud83d\udeb2 \u2764\ufe0f Train TER \ud83d\ude86"}, "geometry": {"type": "Point", "coordinates": [3.241197, 50.176582]}}, {"type": "Feature", "properties": {"start": "Douai", "stop_name": "Roeux", "type": "Gare accessible", "transport": "TER", "nombre_trajet_moyen": 2.52, "transport_legende": "\ud83d\udeb2 \u2764\ufe0f Train TER \ud83d\ude86"}, "geometry": {"type": "Point", "coordinates": [2.894364, 50.30342]}}, {"type": "Feature", "properties": {"start": "Douai", "stop_name": "Corbehem", "type": "Gare accessible", "transport": "TER", "nombre_trajet_moyen": 2.52, "transport_legende": "\ud83d\udeb2 \u2764\ufe0f Train TER \ud83d\ude86"}, "geometry": {"type": "Point", "coordinates": [3.040005, 50.342992]}}, {"type": "Feature", "properties": {"start": "Douai", "stop_name": "Seclin", "type": "Gare accessible", "transport": "TER", "nombre_trajet_moyen": 5.03, "transport_legende": "\ud83d\udeb2 \u2764\ufe0f Train TER \ud83d\ude86"}, "geometry": {"type": "Point", "coordinates": [3.034965, 50.548604]}}, {"type": "Feature", "properties": {"start": "Douai", "stop_name": "Libercourt", "type": "Gare accessible", "transport": "TER", "nombre_trajet_moyen": 5.03, "transport_legende": "\ud83d\udeb2 \u2764\ufe0f Train TER \ud83d\ude86"}, "geometry": {"type": "Point", "coordinates": [3.008642, 50.480202]}}, {"type": "Feature", "properties": {"start": "Douai", "stop_name": "Valenciennes", "type": "Gare accessible", "transport": "TER", "nombre_trajet_moyen": 2.92, "transport_legende": "\ud83d\udeb2 \u2764\ufe0f Train TER \ud83d\ude86"}, "geometry": {"type": "Point", "coordinates": [3.517124, 50.363187]}}, {"type": "Feature", "properties": {"start": "Douai", "stop_name": "Beuvrages", "type": "Gare accessible", "transport": "TER", "nombre_trajet_moyen": 2.05, "transport_legende": "\ud83d\udeb2 \u2764\ufe0f Train TER \ud83d\ude86"}, "geometry": {"type": "Point", "coordinates": [3.506007, 50.38944]}}, {"type": "Feature", "properties": {"start": "Douai", "stop_name": "Raismes", "type": "Gare accessible", "transport": "TER", "nombre_trajet_moyen": 2.44, "transport_legende": "\ud83d\udeb2 \u2764\ufe0f Train TER \ud83d\ude86"}, "geometry": {"type": "Point", "coordinates": [3.478839, 50.39029]}}, {"type": "Feature", "properties": {"start": "Douai", "stop_name": "Wallers", "type": "Gare accessible", "transport": "TER", "nombre_trajet_moyen": 2.44, "transport_legende": "\ud83d\udeb2 \u2764\ufe0f Train TER \ud83d\ude86"}, "geometry": {"type": "Point", "coordinates": [3.393922, 50.3845]}}, {"type": "Feature", "properties": {"start": "Douai", "stop_name": "Somain", "type": "Gare accessible", "transport": "TER", "nombre_trajet_moyen": 5.57, "transport_legende": "\ud83d\udeb2 \u2764\ufe0f Train TER \ud83d\ude86"}, "geometry": {"type": "Point", "coordinates": [3.277319, 50.355699]}}, {"type": "Feature", "properties": {"start": "Douai", "stop_name": "Montigny-en-Ostrevent", "type": "Gare accessible", "transport": "TER", "nombre_trajet_moyen": 5.57, "transport_legende": "\ud83d\udeb2 \u2764\ufe0f Train TER \ud83d\ude86"}, "geometry": {"type": "Point", "coordinates": [3.188369, 50.36151]}}, {"type": "Feature", "properties": {"start": "Douai", "stop_name": "Ronchin", "type": "Gare accessible", "transport": "TER", "nombre_trajet_moyen": 4.9, "transport_legende": "\ud83d\udeb2 \u2764\ufe0f Train TER \ud83d\ude86"}, "geometry": {"type": "Point", "coordinates": [3.078334, 50.604539]}}, {"type": "Feature", "properties": {"start": "Douai", "stop_name": "Wattignies - Templemars", "type": "Gare accessible", "transport": "TER", "nombre_trajet_moyen": 4.9, "transport_legende": "\ud83d\udeb2 \u2764\ufe0f Train TER \ud83d\ude86"}, "geometry": {"type": "Point", "coordinates": [3.051984, 50.579309]}}, {"type": "Feature", "properties": {"start": "Douai", "stop_name": "Phalempin", "type": "Gare accessible", "transport": "TER", "nombre_trajet_moyen": 4.9, "transport_legende": "\ud83d\udeb2 \u2764\ufe0f Train TER \ud83d\ude86"}, "geometry": {"type": "Point", "coordinates": [3.019899, 50.515367]}}, {"type": "Feature", "properties": {"start": "Douai", "stop_name": "Ostricourt", "type": "Gare accessible", "transport": "TER", "nombre_trajet_moyen": 5.32, "transport_legende": "\ud83d\udeb2 \u2764\ufe0f Train TER \ud83d\ude86"}, "geometry": {"type": "Point", "coordinates": [3.032414, 50.445501]}}, {"type": "Feature", "properties": {"start": "Douai", "stop_name": "Leforest", "type": "Gare accessible", "transport": "TER", "nombre_trajet_moyen": 4.9, "transport_legende": "\ud83d\udeb2 \u2764\ufe0f Train TER \ud83d\ude86"}, "geometry": {"type": "Point", "coordinates": [3.059792, 50.427785]}}, {"type": "Feature", "properties": {"start": "Douai", "stop_name": "Pont de la De\u00fble", "type": "Gare accessible", "transport": "TER", "nombre_trajet_moyen": 4.9, "transport_legende": "\ud83d\udeb2 \u2764\ufe0f Train TER \ud83d\ude86"}, "geometry": {"type": "Point", "coordinates": [3.085101, 50.398139]}}, {"type": "Feature", "properties": {"start": "Douai", "stop_name": "Brun\u00e9mont", "type": "Gare accessible", "transport": "TER", "nombre_trajet_moyen": 2.54, "transport_legende": "\ud83d\udeb2 \u2764\ufe0f Train TER \ud83d\ude86"}, "geometry": {"type": "Point", "coordinates": [3.146038, 50.278221]}}, {"type": "Feature", "properties": {"start": "Douai", "stop_name": "Dourges", "type": "Gare accessible", "transport": "TER", "nombre_trajet_moyen": 1.53, "transport_legende": "\ud83d\udeb2 \u2764\ufe0f Train TER \ud83d\ude86"}, "geometry": {"type": "Point", "coordinates": [2.987013, 50.431922]}}, {"type": "Feature", "properties": {"start": "Douai", "stop_name": "H\u00e9nin-Beaumont", "type": "Gare accessible", "transport": "TER", "nombre_trajet_moyen": 1.53, "transport_legende": "\ud83d\udeb2 \u2764\ufe0f Train TER \ud83d\ude86"}, "geometry": {"type": "Point", "coordinates": [2.952082, 50.417084]}}, {"type": "Feature", "properties": {"start": "Douai", "stop_name": "Billy-Montigny", "type": "Gare accessible", "transport": "TER", "nombre_trajet_moyen": 1.53, "transport_legende": "\ud83d\udeb2 \u2764\ufe0f Train TER \ud83d\ude86"}, "geometry": {"type": "Point", "coordinates": [2.91187, 50.415551]}}, {"type": "Feature", "properties": {"start": "Douai", "stop_name": "Coron de M\u00e9ricourt", "type": "Gare accessible", "transport": "TER", "nombre_trajet_moyen": 1.53, "transport_legende": "\ud83d\udeb2 \u2764\ufe0f Train TER \ud83d\ude86"}, "geometry": {"type": "Point", "coordinates": [2.886156, 50.414934]}}, {"type": "Feature", "properties": {"start": "Douai", "stop_name": "Pont de Sallaumines", "type": "Gare accessible", "transport": "TER", "nombre_trajet_moyen": 1.53, "transport_legende": "\ud83d\udeb2 \u2764\ufe0f Train TER \ud83d\ude86"}, "geometry": {"type": "Point", "coordinates": [2.863086, 50.415772]}}, {"type": "Feature", "properties": {"start": "Douai", "stop_name": "Lens", "type": "Gare accessible", "transport": "TER", "nombre_trajet_moyen": 1.53, "transport_legende": "\ud83d\udeb2 \u2764\ufe0f Train TER \ud83d\ude86"}, "geometry": {"type": "Point", "coordinates": [2.828301, 50.426866]}}, {"type": "Feature", "properties": {"start": "Douai", "stop_name": "Caudry", "type": "Gare accessible", "transport": "TER", "nombre_trajet_moyen": 3.43, "transport_legende": "\ud83d\udeb2 \u2764\ufe0f Train TER \ud83d\ude86"}, "geometry": {"type": "Point", "coordinates": [3.40971, 50.111473]}}, {"type": "Feature", "properties": {"start": "Douai", "stop_name": "Busigny", "type": "Gare accessible", "transport": "TER", "nombre_trajet_moyen": 3.43, "transport_legende": "\ud83d\udeb2 \u2764\ufe0f Train TER \ud83d\ude86"}, "geometry": {"type": "Point", "coordinates": [3.446436, 50.039547]}}, {"type": "Feature", "properties": {"start": "Douai", "stop_name": "Saint-Quentin", "type": "Gare accessible", "transport": "TER", "nombre_trajet_moyen": 3.43, "transport_legende": "\ud83d\udeb2 \u2764\ufe0f Train TER \ud83d\ude86"}, "geometry": {"type": "Point", "coordinates": [3.296958, 49.840025]}}, {"type": "Feature", "properties": {"start": "Douai", "stop_name": "Bohain", "type": "Gare accessible", "transport": "TER", "nombre_trajet_moyen": 1.16, "transport_legende": "\ud83d\udeb2 \u2764\ufe0f Train TER \ud83d\ude86"}, "geometry": {"type": "Point", "coordinates": [3.443168, 49.988418]}}, {"type": "Feature", "properties": {"start": "Douai", "stop_name": "Fresnoy-le-Grand", "type": "Gare accessible", "transport": "TER", "nombre_trajet_moyen": 1.16, "transport_legende": "\ud83d\udeb2 \u2764\ufe0f Train TER \ud83d\ude86"}, "geometry": {"type": "Point", "coordinates": [3.432208, 49.949908]}}, {"type": "Feature", "properties": {"start": "Douai", "stop_name": "Maurois", "type": "Gare accessible", "transport": "TER", "nombre_trajet_moyen": 0.69, "transport_legende": "\ud83d\udeb2 \u2764\ufe0f Train TER \ud83d\ude86"}, "geometry": {"type": "Point", "coordinates": [3.455903, 50.068059]}}, {"type": "Feature", "properties": {"start": "Douai", "stop_name": "Bertry", "type": "Gare accessible", "transport": "TER", "nombre_trajet_moyen": 0.69, "transport_legende": "\ud83d\udeb2 \u2764\ufe0f Train TER \ud83d\ude86"}, "geometry": {"type": "Point", "coordinates": [3.448857, 50.091134]}}, {"type": "Feature", "properties": {"start": "Douai", "stop_name": "Catteni\u00e8res", "type": "Gare accessible", "transport": "TER", "nombre_trajet_moyen": 0.69, "transport_legende": "\ud83d\udeb2 \u2764\ufe0f Train TER \ud83d\ude86"}, "geometry": {"type": "Point", "coordinates": [3.333718, 50.128347]}}, {"type": "Feature", "properties": {"start": "Douai", "stop_name": "Wambaix", "type": "Gare accessible", "transport": "TER", "nombre_trajet_moyen": 0.69, "transport_legende": "\ud83d\udeb2 \u2764\ufe0f Train TER \ud83d\ude86"}, "geometry": {"type": "Point", "coordinates": [3.311485, 50.133856]}}, {"type": "Feature", "properties": {"start": "Douai", "stop_name": "Achiet", "type": "Gare accessible", "transport": "TER", "nombre_trajet_moyen": 2.74, "transport_legende": "\ud83d\udeb2 \u2764\ufe0f Train TER \ud83d\ude86"}, "geometry": {"type": "Point", "coordinates": [2.780112, 50.131919]}}, {"type": "Feature", "properties": {"start": "Douai", "stop_name": "Albert", "type": "Gare accessible", "transport": "TER", "nombre_trajet_moyen": 4.55, "transport_legende": "\ud83d\udeb2 \u2764\ufe0f Train TER \ud83d\ude86"}, "geometry": {"type": "Point", "coordinates": [2.644481, 50.005395]}}, {"type": "Feature", "properties": {"start": "Douai", "stop_name": "Amiens", "type": "Gare accessible", "transport": "TER", "nombre_trajet_moyen": 4.55, "transport_legende": "\ud83d\udeb2 \u2764\ufe0f Train TER \ud83d\ude86"}, "geometry": {"type": "Point", "coordinates": [2.308277, 49.890584]}}, {"type": "Feature", "properties": {"start": "Douai", "stop_name": "Corbie", "type": "Gare accessible", "transport": "TER", "nombre_trajet_moyen": 2.96, "transport_legende": "\ud83d\udeb2 \u2764\ufe0f Train TER \ud83d\ude86"}, "geometry": {"type": "Point", "coordinates": [2.499953, 49.91163]}}, {"type": "Feature", "properties": {"start": "Douai", "stop_name": "Saint-Roch (Somme)", "type": "Gare accessible", "transport": "TER", "nombre_trajet_moyen": 1.7, "transport_legende": "\ud83d\udeb2 \u2764\ufe0f Train TER \ud83d\ude86"}, "geometry": {"type": "Point", "coordinates": [2.28377, 49.893454]}}, {"type": "Feature", "properties": {"start": "Douai", "stop_name": "Poix-de-Picardie", "type": "Gare accessible", "transport": "TER", "nombre_trajet_moyen": 1.7, "transport_legende": "\ud83d\udeb2 \u2764\ufe0f Train TER \ud83d\ude86"}, "geometry": {"type": "Point", "coordinates": [1.989899, 49.777788]}}, {"type": "Feature", "properties": {"start": "Douai", "stop_name": "Abancourt", "type": "Gare accessible", "transport": "TER", "nombre_trajet_moyen": 1.7, "transport_legende": "\ud83d\udeb2 \u2764\ufe0f Train TER \ud83d\ude86"}, "geometry": {"type": "Point", "coordinates": [1.774297, 49.685621]}}, {"type": "Feature", "properties": {"start": "Douai", "stop_name": "Serqueux", "type": "Gare accessible", "transport": "TER", "nombre_trajet_moyen": 1.7, "transport_legende": "\ud83d\udeb2 \u2764\ufe0f Train TER \ud83d\ude86"}, "geometry": {"type": "Point", "coordinates": [1.539403, 49.631551]}}, {"type": "Feature", "properties": {"start": "Douai", "stop_name": "Mont\u00e9rolier - Buchy", "type": "Gare accessible", "transport": "TER", "nombre_trajet_moyen": 1.7, "transport_legende": "\ud83d\udeb2 \u2764\ufe0f Train TER \ud83d\ude86"}, "geometry": {"type": "Point", "coordinates": [1.334721, 49.603166]}}, {"type": "Feature", "properties": {"start": "Douai", "stop_name": "Morgny", "type": "Gare accessible", "transport": "TER", "nombre_trajet_moyen": 1.58, "transport_legende": "\ud83d\udeb2 \u2764\ufe0f Train TER \ud83d\ude86"}, "geometry": {"type": "Point", "coordinates": [1.247359, 49.522874]}}, {"type": "Feature", "properties": {"start": "Douai", "stop_name": "Rouen Rive Droite", "type": "Gare accessible", "transport": "TER", "nombre_trajet_moyen": 1.7, "transport_legende": "\ud83d\udeb2 \u2764\ufe0f Train TER \ud83d\ude86"}, "geometry": {"type": "Point", "coordinates": [1.094103, 49.448663]}}]}