{"type": "FeatureCollection", "features": [{"type": "Feature", "properties": {"start": "Firminy", "stop_name": "Firminy", "type": "Gare s\u00e9lectionn\u00e9e", "transport": "TER", "nombre_trajet_moyen": 11.73, "transport_legende": "\ud83d\udeb2 \u2764\ufe0f Train TER \ud83d\ude86"}, "geometry": {"type": "Point", "coordinates": [4.28643, 45.391656]}}, {"type": "Feature", "properties": {"start": "Firminy", "stop_name": "Le Puy-en-Velay", "type": "Gare accessible", "transport": "TER", "nombre_trajet_moyen": 5.98, "transport_legende": "\ud83d\udeb2 \u2764\ufe0f Train TER \ud83d\ude86"}, "geometry": {"type": "Point", "coordinates": [3.892421, 45.042866]}}, {"type": "Feature", "properties": {"start": "Firminy", "stop_name": "Lavo\u00fbte-sur-Loire", "type": "Gare accessible", "transport": "TER", "nombre_trajet_moyen": 3.95, "transport_legende": "\ud83d\udeb2 \u2764\ufe0f Train TER \ud83d\ude86"}, "geometry": {"type": "Point", "coordinates": [3.90541, 45.12145]}}, {"type": "Feature", "properties": {"start": "Firminy", "stop_name": "Saint-Vincent le Ch\u00e2teau", "type": "Gare accessible", "transport": "TER", "nombre_trajet_moyen": 4.05, "transport_legende": "\ud83d\udeb2 \u2764\ufe0f Train TER \ud83d\ude86"}, "geometry": {"type": "Point", "coordinates": [3.918576, 45.148827]}}, {"type": "Feature", "properties": {"start": "Firminy", "stop_name": "Vorey", "type": "Gare accessible", "transport": "TER", "nombre_trajet_moyen": 5.98, "transport_legende": "\ud83d\udeb2 \u2764\ufe0f Train TER \ud83d\ude86"}, "geometry": {"type": "Point", "coordinates": [3.91138, 45.182925]}}, {"type": "Feature", "properties": {"start": "Firminy", "stop_name": "Chamali\u00e8res-sur-Loire", "type": "Gare accessible", "transport": "TER", "nombre_trajet_moyen": 3.95, "transport_legende": "\ud83d\udeb2 \u2764\ufe0f Train TER \ud83d\ude86"}, "geometry": {"type": "Point", "coordinates": [3.991894, 45.20591]}}, {"type": "Feature", "properties": {"start": "Firminy", "stop_name": "Retournac", "type": "Gare accessible", "transport": "TER", "nombre_trajet_moyen": 5.98, "transport_legende": "\ud83d\udeb2 \u2764\ufe0f Train TER \ud83d\ude86"}, "geometry": {"type": "Point", "coordinates": [4.036062, 45.201342]}}, {"type": "Feature", "properties": {"start": "Firminy", "stop_name": "Beauzac", "type": "Gare accessible", "transport": "TER", "nombre_trajet_moyen": 0.95, "transport_legende": "\ud83d\udeb2 \u2764\ufe0f Train TER \ud83d\ude86"}, "geometry": {"type": "Point", "coordinates": [4.099086, 45.258168]}}, {"type": "Feature", "properties": {"start": "Firminy", "stop_name": "Bas - Monistrol", "type": "Gare accessible", "transport": "TER", "nombre_trajet_moyen": 6.24, "transport_legende": "\ud83d\udeb2 \u2764\ufe0f Train TER \ud83d\ude86"}, "geometry": {"type": "Point", "coordinates": [4.139678, 45.297683]}}, {"type": "Feature", "properties": {"start": "Firminy", "stop_name": "Aurec", "type": "Gare accessible", "transport": "TER", "nombre_trajet_moyen": 6.24, "transport_legende": "\ud83d\udeb2 \u2764\ufe0f Train TER \ud83d\ude86"}, "geometry": {"type": "Point", "coordinates": [4.198432, 45.37118]}}, {"type": "Feature", "properties": {"start": "Firminy", "stop_name": "St-Etienne-Ch\u00e2tcrx. G Routi\u00e8re", "type": "Gare accessible", "transport": "TER", "nombre_trajet_moyen": 0.95, "transport_legende": "\ud83d\udeb2 \u2764\ufe0f Train TER \ud83d\ude86"}, "geometry": {"type": "Point", "coordinates": [4.401156, 45.442658]}}, {"type": "Feature", "properties": {"start": "Firminy", "stop_name": "Lavoute Arr\u00eat CG", "type": "Gare accessible", "transport": "TER", "nombre_trajet_moyen": 0.13, "transport_legende": "\ud83d\udeb2 \u2764\ufe0f Train TER \ud83d\ude86"}, "geometry": {"type": "Point", "coordinates": [3.906718, 45.118732]}}, {"type": "Feature", "properties": {"start": "Firminy", "stop_name": "Chamalieres Place Parking M.", "type": "Gare accessible", "transport": "TER", "nombre_trajet_moyen": 0.13, "transport_legende": "\ud83d\udeb2 \u2764\ufe0f Train TER \ud83d\ude86"}, "geometry": {"type": "Point", "coordinates": [3.983345, 45.201023]}}, {"type": "Feature", "properties": {"start": "Firminy", "stop_name": "Saint-\u00c9tienne Ch\u00e2teaucreux", "type": "Gare accessible", "transport": "TER", "nombre_trajet_moyen": 11.62, "transport_legende": "\ud83d\udeb2 \u2764\ufe0f Train TER \ud83d\ude86"}, "geometry": {"type": "Point", "coordinates": [4.399722, 45.443366]}}, {"type": "Feature", "properties": {"start": "Firminy", "stop_name": "Saint-\u00c9tienne Carnot", "type": "Gare accessible", "transport": "TER", "nombre_trajet_moyen": 11.62, "transport_legende": "\ud83d\udeb2 \u2764\ufe0f Train TER \ud83d\ude86"}, "geometry": {"type": "Point", "coordinates": [4.385317, 45.446976]}}, {"type": "Feature", "properties": {"start": "Firminy", "stop_name": "Saint-\u00c9tienne Le Clapier", "type": "Gare accessible", "transport": "TER", "nombre_trajet_moyen": 8.49, "transport_legende": "\ud83d\udeb2 \u2764\ufe0f Train TER \ud83d\ude86"}, "geometry": {"type": "Point", "coordinates": [4.378384, 45.437125]}}, {"type": "Feature", "properties": {"start": "Firminy", "stop_name": "Saint-\u00c9tienne Bellevue", "type": "Gare accessible", "transport": "TER", "nombre_trajet_moyen": 11.62, "transport_legende": "\ud83d\udeb2 \u2764\ufe0f Train TER \ud83d\ude86"}, "geometry": {"type": "Point", "coordinates": [4.392683, 45.417198]}}, {"type": "Feature", "properties": {"start": "Firminy", "stop_name": "La Ricamarie", "type": "Gare accessible", "transport": "TER", "nombre_trajet_moyen": 8.49, "transport_legende": "\ud83d\udeb2 \u2764\ufe0f Train TER \ud83d\ude86"}, "geometry": {"type": "Point", "coordinates": [4.360686, 45.404152]}}, {"type": "Feature", "properties": {"start": "Firminy", "stop_name": "Le Chambon-Feugerolles", "type": "Gare accessible", "transport": "TER", "nombre_trajet_moyen": 8.49, "transport_legende": "\ud83d\udeb2 \u2764\ufe0f Train TER \ud83d\ude86"}, "geometry": {"type": "Point", "coordinates": [4.322484, 45.394777]}}, {"type": "Feature", "properties": {"start": "Firminy", "stop_name": "Lyon Perrache", "type": "Gare accessible", "transport": "TER", "nombre_trajet_moyen": 5.51, "transport_legende": "\ud83d\udeb2 \u2764\ufe0f Train TER \ud83d\ude86"}, "geometry": {"type": "Point", "coordinates": [4.825777, 45.748508]}}, {"type": "Feature", "properties": {"start": "Firminy", "stop_name": "Oullins", "type": "Gare accessible", "transport": "TER", "nombre_trajet_moyen": 5.51, "transport_legende": "\ud83d\udeb2 \u2764\ufe0f Train TER \ud83d\ude86"}, "geometry": {"type": "Point", "coordinates": [4.813503, 45.7166]}}, {"type": "Feature", "properties": {"start": "Firminy", "stop_name": "Pierre-B\u00e9nite", "type": "Gare accessible", "transport": "TER", "nombre_trajet_moyen": 5.51, "transport_legende": "\ud83d\udeb2 \u2764\ufe0f Train TER \ud83d\ude86"}, "geometry": {"type": "Point", "coordinates": [4.824506, 45.706677]}}, {"type": "Feature", "properties": {"start": "Firminy", "stop_name": "Irigny - Yvours", "type": "Gare accessible", "transport": "TER", "nombre_trajet_moyen": 5.51, "transport_legende": "\ud83d\udeb2 \u2764\ufe0f Train TER \ud83d\ude86"}, "geometry": {"type": "Point", "coordinates": [4.832305, 45.690023]}}, {"type": "Feature", "properties": {"start": "Firminy", "stop_name": "Vernaison", "type": "Gare accessible", "transport": "TER", "nombre_trajet_moyen": 5.51, "transport_legende": "\ud83d\udeb2 \u2764\ufe0f Train TER \ud83d\ude86"}, "geometry": {"type": "Point", "coordinates": [4.81328, 45.645663]}}, {"type": "Feature", "properties": {"start": "Firminy", "stop_name": "Grigny le Sablon", "type": "Gare accessible", "transport": "TER", "nombre_trajet_moyen": 5.51, "transport_legende": "\ud83d\udeb2 \u2764\ufe0f Train TER \ud83d\ude86"}, "geometry": {"type": "Point", "coordinates": [4.795878, 45.607139]}}, {"type": "Feature", "properties": {"start": "Firminy", "stop_name": "Givors Canal", "type": "Gare accessible", "transport": "TER", "nombre_trajet_moyen": 5.51, "transport_legende": "\ud83d\udeb2 \u2764\ufe0f Train TER \ud83d\ude86"}, "geometry": {"type": "Point", "coordinates": [4.772522, 45.595742]}}, {"type": "Feature", "properties": {"start": "Firminy", "stop_name": "Givors Ville", "type": "Gare accessible", "transport": "TER", "nombre_trajet_moyen": 5.51, "transport_legende": "\ud83d\udeb2 \u2764\ufe0f Train TER \ud83d\ude86"}, "geometry": {"type": "Point", "coordinates": [4.766086, 45.584948]}}, {"type": "Feature", "properties": {"start": "Firminy", "stop_name": "Rive-de-Gier", "type": "Gare accessible", "transport": "TER", "nombre_trajet_moyen": 5.51, "transport_legende": "\ud83d\udeb2 \u2764\ufe0f Train TER \ud83d\ude86"}, "geometry": {"type": "Point", "coordinates": [4.606648, 45.524324]}}, {"type": "Feature", "properties": {"start": "Firminy", "stop_name": "Saint-Chamond", "type": "Gare accessible", "transport": "TER", "nombre_trajet_moyen": 5.51, "transport_legende": "\ud83d\udeb2 \u2764\ufe0f Train TER \ud83d\ude86"}, "geometry": {"type": "Point", "coordinates": [4.516971, 45.472557]}}, {"type": "Feature", "properties": {"start": "Firminy", "stop_name": "Pont de Lignon", "type": "Gare accessible", "transport": "TER", "nombre_trajet_moyen": 3.95, "transport_legende": "\ud83d\udeb2 \u2764\ufe0f Train TER \ud83d\ude86"}, "geometry": {"type": "Point", "coordinates": [4.137082, 45.259769]}}, {"type": "Feature", "properties": {"start": "Firminy", "stop_name": "Fraisses - Unieux", "type": "Gare accessible", "transport": "TER", "nombre_trajet_moyen": 1.77, "transport_legende": "\ud83d\udeb2 \u2764\ufe0f Train TER \ud83d\ude86"}, "geometry": {"type": "Point", "coordinates": [4.261037, 45.394823]}}]}