{"type": "FeatureCollection", "features": [{"type": "Feature", "properties": {"start": "Fleurville - Pont-de-Vaux", "stop_name": "Fleurville - Pont-de-Vaux", "type": "Gare s\u00e9lectionn\u00e9e", "transport": "TER", "transport_legende": "\ud83d\udeb2 \u2764\ufe0f Train TER \ud83d\ude86"}, "geometry": {"type": "Point", "coordinates": [4.884195, 46.450874]}}, {"type": "Feature", "properties": {"start": "Fleurville - Pont-de-Vaux", "stop_name": "Dijon", "type": "Gare accessible", "transport": "TER", "transport_legende": "\ud83d\udeb2 \u2764\ufe0f Train TER \ud83d\ude86"}, "geometry": {"type": "Point", "coordinates": [5.027256, 47.323411]}}, {"type": "Feature", "properties": {"start": "Fleurville - Pont-de-Vaux", "stop_name": "Gevrey-Chambertin", "type": "Gare accessible", "transport": "TER", "transport_legende": "\ud83d\udeb2 \u2764\ufe0f Train TER \ud83d\ude86"}, "geometry": {"type": "Point", "coordinates": [4.998905, 47.227601]}}, {"type": "Feature", "properties": {"start": "Fleurville - Pont-de-Vaux", "stop_name": "Vougeot - Gilly-l\u00e8s-C\u00eeteaux", "type": "Gare accessible", "transport": "TER", "transport_legende": "\ud83d\udeb2 \u2764\ufe0f Train TER \ud83d\ude86"}, "geometry": {"type": "Point", "coordinates": [4.971514, 47.175695]}}, {"type": "Feature", "properties": {"start": "Fleurville - Pont-de-Vaux", "stop_name": "Nuits-Saint-Georges", "type": "Gare accessible", "transport": "TER", "transport_legende": "\ud83d\udeb2 \u2764\ufe0f Train TER \ud83d\ude86"}, "geometry": {"type": "Point", "coordinates": [4.956277, 47.130662]}}, {"type": "Feature", "properties": {"start": "Fleurville - Pont-de-Vaux", "stop_name": "Corgoloin", "type": "Gare accessible", "transport": "TER", "transport_legende": "\ud83d\udeb2 \u2764\ufe0f Train TER \ud83d\ude86"}, "geometry": {"type": "Point", "coordinates": [4.916854, 47.084209]}}, {"type": "Feature", "properties": {"start": "Fleurville - Pont-de-Vaux", "stop_name": "Beaune", "type": "Gare accessible", "transport": "TER", "transport_legende": "\ud83d\udeb2 \u2764\ufe0f Train TER \ud83d\ude86"}, "geometry": {"type": "Point", "coordinates": [4.848423, 47.023014]}}, {"type": "Feature", "properties": {"start": "Fleurville - Pont-de-Vaux", "stop_name": "Meursault", "type": "Gare accessible", "transport": "TER", "transport_legende": "\ud83d\udeb2 \u2764\ufe0f Train TER \ud83d\ude86"}, "geometry": {"type": "Point", "coordinates": [4.795452, 46.969165]}}, {"type": "Feature", "properties": {"start": "Fleurville - Pont-de-Vaux", "stop_name": "Chagny", "type": "Gare accessible", "transport": "TER", "transport_legende": "\ud83d\udeb2 \u2764\ufe0f Train TER \ud83d\ude86"}, "geometry": {"type": "Point", "coordinates": [4.749613, 46.907424]}}, {"type": "Feature", "properties": {"start": "Fleurville - Pont-de-Vaux", "stop_name": "Rully", "type": "Gare accessible", "transport": "TER", "transport_legende": "\ud83d\udeb2 \u2764\ufe0f Train TER \ud83d\ude86"}, "geometry": {"type": "Point", "coordinates": [4.760736, 46.880287]}}, {"type": "Feature", "properties": {"start": "Fleurville - Pont-de-Vaux", "stop_name": "Fontaines - Mercurey", "type": "Gare accessible", "transport": "TER", "transport_legende": "\ud83d\udeb2 \u2764\ufe0f Train TER \ud83d\ude86"}, "geometry": {"type": "Point", "coordinates": [4.775005, 46.851258]}}, {"type": "Feature", "properties": {"start": "Fleurville - Pont-de-Vaux", "stop_name": "Chalon-sur-Sa\u00f4ne", "type": "Gare accessible", "transport": "TER", "transport_legende": "\ud83d\udeb2 \u2764\ufe0f Train TER \ud83d\ude86"}, "geometry": {"type": "Point", "coordinates": [4.843479, 46.781622]}}, {"type": "Feature", "properties": {"start": "Fleurville - Pont-de-Vaux", "stop_name": "Sennecey-le-Grand", "type": "Gare accessible", "transport": "TER", "transport_legende": "\ud83d\udeb2 \u2764\ufe0f Train TER \ud83d\ude86"}, "geometry": {"type": "Point", "coordinates": [4.874277, 46.64066]}}, {"type": "Feature", "properties": {"start": "Fleurville - Pont-de-Vaux", "stop_name": "Tournus", "type": "Gare accessible", "transport": "TER", "transport_legende": "\ud83d\udeb2 \u2764\ufe0f Train TER \ud83d\ude86"}, "geometry": {"type": "Point", "coordinates": [4.906562, 46.566724]}}, {"type": "Feature", "properties": {"start": "Fleurville - Pont-de-Vaux", "stop_name": "Senozan", "type": "Gare accessible", "transport": "TER", "transport_legende": "\ud83d\udeb2 \u2764\ufe0f Train TER \ud83d\ude86"}, "geometry": {"type": "Point", "coordinates": [4.871063, 46.392145]}}, {"type": "Feature", "properties": {"start": "Fleurville - Pont-de-Vaux", "stop_name": "M\u00e2con", "type": "Gare accessible", "transport": "TER", "transport_legende": "\ud83d\udeb2 \u2764\ufe0f Train TER \ud83d\ude86"}, "geometry": {"type": "Point", "coordinates": [4.824887, 46.302572]}}]}