{"type": "FeatureCollection", "features": [{"type": "Feature", "properties": {"start": "Grenoble Universit\u00e9s - Gi\u00e8res", "stop_name": "Grenoble Universit\u00e9s - Gi\u00e8res", "type": "Gare s\u00e9lectionn\u00e9e", "transport": "TER", "nombre_trajet_moyen": 27.13, "transport_legende": "\ud83d\udeb2 \u2764\ufe0f Train TER \ud83d\ude86"}, "geometry": {"type": "Point", "coordinates": [5.784731, 45.184971]}}, {"type": "Feature", "properties": {"start": "Grenoble Universit\u00e9s - Gi\u00e8res", "stop_name": "Chamb\u00e9ry - Challes-les-Eaux", "type": "Gare accessible", "transport": "TER", "nombre_trajet_moyen": 24.02, "transport_legende": "\ud83d\udeb2 \u2764\ufe0f Train TER \ud83d\ude86"}, "geometry": {"type": "Point", "coordinates": [5.919547, 45.571302]}}, {"type": "Feature", "properties": {"start": "Grenoble Universit\u00e9s - Gi\u00e8res", "stop_name": "Montm\u00e9lian", "type": "Gare accessible", "transport": "TER", "nombre_trajet_moyen": 18.09, "transport_legende": "\ud83d\udeb2 \u2764\ufe0f Train TER \ud83d\ude86"}, "geometry": {"type": "Point", "coordinates": [6.043175, 45.503082]}}, {"type": "Feature", "properties": {"start": "Grenoble Universit\u00e9s - Gi\u00e8res", "stop_name": "Pontcharra sur Br\u00e9da", "type": "Gare accessible", "transport": "TER", "nombre_trajet_moyen": 18.09, "transport_legende": "\ud83d\udeb2 \u2764\ufe0f Train TER \ud83d\ude86"}, "geometry": {"type": "Point", "coordinates": [6.007859, 45.434091]}}, {"type": "Feature", "properties": {"start": "Grenoble Universit\u00e9s - Gi\u00e8res", "stop_name": "Grenoble", "type": "Gare accessible", "transport": "TER", "nombre_trajet_moyen": 27.13, "transport_legende": "\ud83d\udeb2 \u2764\ufe0f Train TER \ud83d\ude86"}, "geometry": {"type": "Point", "coordinates": [5.714366, 45.192693]}}, {"type": "Feature", "properties": {"start": "Grenoble Universit\u00e9s - Gi\u00e8res", "stop_name": "Moirans", "type": "Gare accessible", "transport": "TER", "nombre_trajet_moyen": 18.09, "transport_legende": "\ud83d\udeb2 \u2764\ufe0f Train TER \ud83d\ude86"}, "geometry": {"type": "Point", "coordinates": [5.581934, 45.32216]}}, {"type": "Feature", "properties": {"start": "Grenoble Universit\u00e9s - Gi\u00e8res", "stop_name": "Tullins Fures", "type": "Gare accessible", "transport": "TER", "nombre_trajet_moyen": 14.45, "transport_legende": "\ud83d\udeb2 \u2764\ufe0f Train TER \ud83d\ude86"}, "geometry": {"type": "Point", "coordinates": [5.492174, 45.300905]}}, {"type": "Feature", "properties": {"start": "Grenoble Universit\u00e9s - Gi\u00e8res", "stop_name": "Saint-Marcellin", "type": "Gare accessible", "transport": "TER", "nombre_trajet_moyen": 17.54, "transport_legende": "\ud83d\udeb2 \u2764\ufe0f Train TER \ud83d\ude86"}, "geometry": {"type": "Point", "coordinates": [5.323654, 45.150885]}}, {"type": "Feature", "properties": {"start": "Grenoble Universit\u00e9s - Gi\u00e8res", "stop_name": "Saint-Hilaire - Saint-Nazaire", "type": "Gare accessible", "transport": "TER", "nombre_trajet_moyen": 11.76, "transport_legende": "\ud83d\udeb2 \u2764\ufe0f Train TER \ud83d\ude86"}, "geometry": {"type": "Point", "coordinates": [5.243845, 45.071342]}}, {"type": "Feature", "properties": {"start": "Grenoble Universit\u00e9s - Gi\u00e8res", "stop_name": "Romans - Bourg-de-P\u00e9age", "type": "Gare accessible", "transport": "TER", "nombre_trajet_moyen": 14.46, "transport_legende": "\ud83d\udeb2 \u2764\ufe0f Train TER \ud83d\ude86"}, "geometry": {"type": "Point", "coordinates": [5.049574, 45.048862]}}, {"type": "Feature", "properties": {"start": "Grenoble Universit\u00e9s - Gi\u00e8res", "stop_name": "Valence TGV Rh\u00f4ne-Alpes Sud", "type": "Gare accessible", "transport": "TER", "nombre_trajet_moyen": 14.46, "transport_legende": "\ud83d\udeb2 \u2764\ufe0f Train TER \ud83d\ude86"}, "geometry": {"type": "Point", "coordinates": [4.978652, 44.991907]}}, {"type": "Feature", "properties": {"start": "Grenoble Universit\u00e9s - Gi\u00e8res", "stop_name": "Valence Ville", "type": "Gare accessible", "transport": "TER", "nombre_trajet_moyen": 14.46, "transport_legende": "\ud83d\udeb2 \u2764\ufe0f Train TER \ud83d\ude86"}, "geometry": {"type": "Point", "coordinates": [4.893288, 44.928081]}}, {"type": "Feature", "properties": {"start": "Grenoble Universit\u00e9s - Gi\u00e8res", "stop_name": "Vinay", "type": "Gare accessible", "transport": "TER", "nombre_trajet_moyen": 5.66, "transport_legende": "\ud83d\udeb2 \u2764\ufe0f Train TER \ud83d\ude86"}, "geometry": {"type": "Point", "coordinates": [5.410091, 45.207966]}}, {"type": "Feature", "properties": {"start": "Grenoble Universit\u00e9s - Gi\u00e8res", "stop_name": "Annecy", "type": "Gare accessible", "transport": "TER", "nombre_trajet_moyen": 12.26, "transport_legende": "\ud83d\udeb2 \u2764\ufe0f Train TER \ud83d\ude86"}, "geometry": {"type": "Point", "coordinates": [6.121826, 45.902047]}}, {"type": "Feature", "properties": {"start": "Grenoble Universit\u00e9s - Gi\u00e8res", "stop_name": "Rumilly", "type": "Gare accessible", "transport": "TER", "nombre_trajet_moyen": 12.26, "transport_legende": "\ud83d\udeb2 \u2764\ufe0f Train TER \ud83d\ude86"}, "geometry": {"type": "Point", "coordinates": [5.947949, 45.863053]}}, {"type": "Feature", "properties": {"start": "Grenoble Universit\u00e9s - Gi\u00e8res", "stop_name": "Albens", "type": "Gare accessible", "transport": "TER", "nombre_trajet_moyen": 12.26, "transport_legende": "\ud83d\udeb2 \u2764\ufe0f Train TER \ud83d\ude86"}, "geometry": {"type": "Point", "coordinates": [5.948342, 45.785946]}}, {"type": "Feature", "properties": {"start": "Grenoble Universit\u00e9s - Gi\u00e8res", "stop_name": "Gr\u00e9sy-sur-Aix", "type": "Gare accessible", "transport": "TER", "nombre_trajet_moyen": 12.26, "transport_legende": "\ud83d\udeb2 \u2764\ufe0f Train TER \ud83d\ude86"}, "geometry": {"type": "Point", "coordinates": [5.922146, 45.724527]}}, {"type": "Feature", "properties": {"start": "Grenoble Universit\u00e9s - Gi\u00e8res", "stop_name": "Aix-les-Bains le Revard", "type": "Gare accessible", "transport": "TER", "nombre_trajet_moyen": 18.68, "transport_legende": "\ud83d\udeb2 \u2764\ufe0f Train TER \ud83d\ude86"}, "geometry": {"type": "Point", "coordinates": [5.909371, 45.688161]}}, {"type": "Feature", "properties": {"start": "Grenoble Universit\u00e9s - Gi\u00e8res", "stop_name": "Livron", "type": "Gare accessible", "transport": "TER", "nombre_trajet_moyen": 0.1, "transport_legende": "\ud83d\udeb2 \u2764\ufe0f Train TER \ud83d\ude86"}, "geometry": {"type": "Point", "coordinates": [4.830559, 44.779617]}}, {"type": "Feature", "properties": {"start": "Grenoble Universit\u00e9s - Gi\u00e8res", "stop_name": "Mont\u00e9limar", "type": "Gare accessible", "transport": "TER", "nombre_trajet_moyen": 0.21, "transport_legende": "\ud83d\udeb2 \u2764\ufe0f Train TER \ud83d\ude86"}, "geometry": {"type": "Point", "coordinates": [4.744726, 44.558936]}}, {"type": "Feature", "properties": {"start": "Grenoble Universit\u00e9s - Gi\u00e8res", "stop_name": "Pierrelatte", "type": "Gare accessible", "transport": "TER", "nombre_trajet_moyen": 0.21, "transport_legende": "\ud83d\udeb2 \u2764\ufe0f Train TER \ud83d\ude86"}, "geometry": {"type": "Point", "coordinates": [4.703798, 44.374634]}}, {"type": "Feature", "properties": {"start": "Grenoble Universit\u00e9s - Gi\u00e8res", "stop_name": "Boll\u00e8ne la Croisi\u00e8re", "type": "Gare accessible", "transport": "TER", "nombre_trajet_moyen": 0.21, "transport_legende": "\ud83d\udeb2 \u2764\ufe0f Train TER \ud83d\ude86"}, "geometry": {"type": "Point", "coordinates": [4.708055, 44.27154]}}, {"type": "Feature", "properties": {"start": "Grenoble Universit\u00e9s - Gi\u00e8res", "stop_name": "Orange", "type": "Gare accessible", "transport": "TER", "nombre_trajet_moyen": 0.21, "transport_legende": "\ud83d\udeb2 \u2764\ufe0f Train TER \ud83d\ude86"}, "geometry": {"type": "Point", "coordinates": [4.820058, 44.137485]}}, {"type": "Feature", "properties": {"start": "Grenoble Universit\u00e9s - Gi\u00e8res", "stop_name": "Avignon Centre", "type": "Gare accessible", "transport": "TER", "nombre_trajet_moyen": 0.21, "transport_legende": "\ud83d\udeb2 \u2764\ufe0f Train TER \ud83d\ude86"}, "geometry": {"type": "Point", "coordinates": [4.805269, 43.941923]}}, {"type": "Feature", "properties": {"start": "Grenoble Universit\u00e9s - Gi\u00e8res", "stop_name": "Goncelin", "type": "Gare accessible", "transport": "TER", "nombre_trajet_moyen": 6.34, "transport_legende": "\ud83d\udeb2 \u2764\ufe0f Train TER \ud83d\ude86"}, "geometry": {"type": "Point", "coordinates": [5.974103, 45.341962]}}, {"type": "Feature", "properties": {"start": "Grenoble Universit\u00e9s - Gi\u00e8res", "stop_name": "Brignoud", "type": "Gare accessible", "transport": "TER", "nombre_trajet_moyen": 6.34, "transport_legende": "\ud83d\udeb2 \u2764\ufe0f Train TER \ud83d\ude86"}, "geometry": {"type": "Point", "coordinates": [5.90145, 45.262494]}}, {"type": "Feature", "properties": {"start": "Grenoble Universit\u00e9s - Gi\u00e8res", "stop_name": "Lancey", "type": "Gare accessible", "transport": "TER", "nombre_trajet_moyen": 6.34, "transport_legende": "\ud83d\udeb2 \u2764\ufe0f Train TER \ud83d\ude86"}, "geometry": {"type": "Point", "coordinates": [5.880963, 45.234497]}}, {"type": "Feature", "properties": {"start": "Grenoble Universit\u00e9s - Gi\u00e8res", "stop_name": "\u00c9chirolles", "type": "Gare accessible", "transport": "TER", "nombre_trajet_moyen": 10.22, "transport_legende": "\ud83d\udeb2 \u2764\ufe0f Train TER \ud83d\ude86"}, "geometry": {"type": "Point", "coordinates": [5.718943, 45.153022]}}, {"type": "Feature", "properties": {"start": "Grenoble Universit\u00e9s - Gi\u00e8res", "stop_name": "Poli\u00e9nas", "type": "Gare accessible", "transport": "TER", "nombre_trajet_moyen": 5.56, "transport_legende": "\ud83d\udeb2 \u2764\ufe0f Train TER \ud83d\ude86"}, "geometry": {"type": "Point", "coordinates": [5.473585, 45.256006]}}, {"type": "Feature", "properties": {"start": "Grenoble Universit\u00e9s - Gi\u00e8res", "stop_name": "Moirans la Galifette", "type": "Gare accessible", "transport": "TER", "nombre_trajet_moyen": 5.56, "transport_legende": "\ud83d\udeb2 \u2764\ufe0f Train TER \ud83d\ude86"}, "geometry": {"type": "Point", "coordinates": [5.564929, 45.323995]}}, {"type": "Feature", "properties": {"start": "Grenoble Universit\u00e9s - Gi\u00e8res", "stop_name": "Saint-\u00c9gr\u00e8ve Saint-Robert", "type": "Gare accessible", "transport": "TER", "nombre_trajet_moyen": 5.56, "transport_legende": "\ud83d\udeb2 \u2764\ufe0f Train TER \ud83d\ude86"}, "geometry": {"type": "Point", "coordinates": [5.671263, 45.235719]}}, {"type": "Feature", "properties": {"start": "Grenoble Universit\u00e9s - Gi\u00e8res", "stop_name": "Saint-Andr\u00e9-le-Gaz", "type": "Gare accessible", "transport": "TER", "nombre_trajet_moyen": 5.81, "transport_legende": "\ud83d\udeb2 \u2764\ufe0f Train TER \ud83d\ude86"}, "geometry": {"type": "Point", "coordinates": [5.524254, 45.544529]}}, {"type": "Feature", "properties": {"start": "Grenoble Universit\u00e9s - Gi\u00e8res", "stop_name": "Virieu sur Bourbre", "type": "Gare accessible", "transport": "TER", "nombre_trajet_moyen": 5.81, "transport_legende": "\ud83d\udeb2 \u2764\ufe0f Train TER \ud83d\ude86"}, "geometry": {"type": "Point", "coordinates": [5.47213, 45.491758]}}, {"type": "Feature", "properties": {"start": "Grenoble Universit\u00e9s - Gi\u00e8res", "stop_name": "Ch\u00e2bons", "type": "Gare accessible", "transport": "TER", "nombre_trajet_moyen": 5.81, "transport_legende": "\ud83d\udeb2 \u2764\ufe0f Train TER \ud83d\ude86"}, "geometry": {"type": "Point", "coordinates": [5.428099, 45.438407]}}, {"type": "Feature", "properties": {"start": "Grenoble Universit\u00e9s - Gi\u00e8res", "stop_name": "Le Grand-Lemps", "type": "Gare accessible", "transport": "TER", "nombre_trajet_moyen": 5.81, "transport_legende": "\ud83d\udeb2 \u2764\ufe0f Train TER \ud83d\ude86"}, "geometry": {"type": "Point", "coordinates": [5.42314, 45.396676]}}, {"type": "Feature", "properties": {"start": "Grenoble Universit\u00e9s - Gi\u00e8res", "stop_name": "Rives", "type": "Gare accessible", "transport": "TER", "nombre_trajet_moyen": 6.59, "transport_legende": "\ud83d\udeb2 \u2764\ufe0f Train TER \ud83d\ude86"}, "geometry": {"type": "Point", "coordinates": [5.491895, 45.357594]}}, {"type": "Feature", "properties": {"start": "Grenoble Universit\u00e9s - Gi\u00e8res", "stop_name": "R\u00e9aumont - Saint-Cassien", "type": "Gare accessible", "transport": "TER", "nombre_trajet_moyen": 6.59, "transport_legende": "\ud83d\udeb2 \u2764\ufe0f Train TER \ud83d\ude86"}, "geometry": {"type": "Point", "coordinates": [5.534859, 45.368821]}}, {"type": "Feature", "properties": {"start": "Grenoble Universit\u00e9s - Gi\u00e8res", "stop_name": "Voiron", "type": "Gare accessible", "transport": "TER", "nombre_trajet_moyen": 6.59, "transport_legende": "\ud83d\udeb2 \u2764\ufe0f Train TER \ud83d\ude86"}, "geometry": {"type": "Point", "coordinates": [5.594959, 45.364034]}}, {"type": "Feature", "properties": {"start": "Grenoble Universit\u00e9s - Gi\u00e8res", "stop_name": "Voreppe", "type": "Gare accessible", "transport": "TER", "nombre_trajet_moyen": 6.59, "transport_legende": "\ud83d\udeb2 \u2764\ufe0f Train TER \ud83d\ude86"}, "geometry": {"type": "Point", "coordinates": [5.632119, 45.290415]}}, {"type": "Feature", "properties": {"start": "Grenoble Universit\u00e9s - Gi\u00e8res", "stop_name": "Culoz", "type": "Gare accessible", "transport": "TER", "nombre_trajet_moyen": 2.67, "transport_legende": "\ud83d\udeb2 \u2764\ufe0f Train TER \ud83d\ude86"}, "geometry": {"type": "Point", "coordinates": [5.778728, 45.843278]}}, {"type": "Feature", "properties": {"start": "Grenoble Universit\u00e9s - Gi\u00e8res", "stop_name": "Seyssel - Corbonod", "type": "Gare accessible", "transport": "TER", "nombre_trajet_moyen": 2.97, "transport_legende": "\ud83d\udeb2 \u2764\ufe0f Train TER \ud83d\ude86"}, "geometry": {"type": "Point", "coordinates": [5.831503, 45.963074]}}, {"type": "Feature", "properties": {"start": "Grenoble Universit\u00e9s - Gi\u00e8res", "stop_name": "Bellegarde", "type": "Gare accessible", "transport": "TER", "nombre_trajet_moyen": 7.74, "transport_legende": "\ud83d\udeb2 \u2764\ufe0f Train TER \ud83d\ude86"}, "geometry": {"type": "Point", "coordinates": [5.823483, 46.109425]}}, {"type": "Feature", "properties": {"start": "Grenoble Universit\u00e9s - Gi\u00e8res", "stop_name": "Gen\u00e8ve", "type": "Gare accessible", "transport": "TER", "nombre_trajet_moyen": 7.47, "transport_legende": "\ud83d\udeb2 \u2764\ufe0f Train TER \ud83d\ude86"}, "geometry": {"type": "Point", "coordinates": [6.14244, 46.21022]}}]}