{"type": "FeatureCollection", "features": [{"type": "Feature", "properties": {"start": "G\u00e9nelard", "stop_name": "G\u00e9nelard", "type": "Gare s\u00e9lectionn\u00e9e", "transport": "TER", "nombre_trajet_moyen": 7.02, "transport_legende": "\ud83d\udeb2 \u2764\ufe0f Train TER \ud83d\ude86"}, "geometry": {"type": "Point", "coordinates": [4.237965, 46.58122]}}, {"type": "Feature", "properties": {"start": "G\u00e9nelard", "stop_name": "Paray-le-Monial", "type": "Gare accessible", "transport": "TER", "nombre_trajet_moyen": 7.02, "transport_legende": "\ud83d\udeb2 \u2764\ufe0f Train TER \ud83d\ude86"}, "geometry": {"type": "Point", "coordinates": [4.113666, 46.447294]}}, {"type": "Feature", "properties": {"start": "G\u00e9nelard", "stop_name": "Ciry-le-Noble", "type": "Gare accessible", "transport": "TER", "nombre_trajet_moyen": 7.02, "transport_legende": "\ud83d\udeb2 \u2764\ufe0f Train TER \ud83d\ude86"}, "geometry": {"type": "Point", "coordinates": [4.299518, 46.604191]}}, {"type": "Feature", "properties": {"start": "G\u00e9nelard", "stop_name": "Galuzot", "type": "Gare accessible", "transport": "TER", "nombre_trajet_moyen": 7.02, "transport_legende": "\ud83d\udeb2 \u2764\ufe0f Train TER \ud83d\ude86"}, "geometry": {"type": "Point", "coordinates": [4.329962, 46.642236]}}, {"type": "Feature", "properties": {"start": "G\u00e9nelard", "stop_name": "Montceau-les-Mines", "type": "Gare accessible", "transport": "TER", "nombre_trajet_moyen": 7.02, "transport_legende": "\ud83d\udeb2 \u2764\ufe0f Train TER \ud83d\ude86"}, "geometry": {"type": "Point", "coordinates": [4.361026, 46.670664]}}, {"type": "Feature", "properties": {"start": "G\u00e9nelard", "stop_name": "Blanzy", "type": "Gare accessible", "transport": "TER", "nombre_trajet_moyen": 7.02, "transport_legende": "\ud83d\udeb2 \u2764\ufe0f Train TER \ud83d\ude86"}, "geometry": {"type": "Point", "coordinates": [4.391358, 46.694064]}}, {"type": "Feature", "properties": {"start": "G\u00e9nelard", "stop_name": "Montchanin", "type": "Gare accessible", "transport": "TER", "nombre_trajet_moyen": 7.02, "transport_legende": "\ud83d\udeb2 \u2764\ufe0f Train TER \ud83d\ude86"}, "geometry": {"type": "Point", "coordinates": [4.48147, 46.759211]}}, {"type": "Feature", "properties": {"start": "G\u00e9nelard", "stop_name": "Moulins sur Allier", "type": "Gare accessible", "transport": "TER", "nombre_trajet_moyen": 1.45, "transport_legende": "\ud83d\udeb2 \u2764\ufe0f Train TER \ud83d\ude86"}, "geometry": {"type": "Point", "coordinates": [3.338782, 46.561394]}}, {"type": "Feature", "properties": {"start": "G\u00e9nelard", "stop_name": "Dompierre Sept Fons", "type": "Gare accessible", "transport": "TER", "nombre_trajet_moyen": 1.45, "transport_legende": "\ud83d\udeb2 \u2764\ufe0f Train TER \ud83d\ude86"}, "geometry": {"type": "Point", "coordinates": [3.674911, 46.526302]}}, {"type": "Feature", "properties": {"start": "G\u00e9nelard", "stop_name": "Gilly-sur-Loire", "type": "Gare accessible", "transport": "TER", "nombre_trajet_moyen": 1.45, "transport_legende": "\ud83d\udeb2 \u2764\ufe0f Train TER \ud83d\ude86"}, "geometry": {"type": "Point", "coordinates": [3.782111, 46.536992]}}, {"type": "Feature", "properties": {"start": "G\u00e9nelard", "stop_name": "Saint-Agnan", "type": "Gare accessible", "transport": "TER", "nombre_trajet_moyen": 1.45, "transport_legende": "\ud83d\udeb2 \u2764\ufe0f Train TER \ud83d\ude86"}, "geometry": {"type": "Point", "coordinates": [3.878938, 46.502031]}}, {"type": "Feature", "properties": {"start": "G\u00e9nelard", "stop_name": "Digoin", "type": "Gare accessible", "transport": "TER", "nombre_trajet_moyen": 1.45, "transport_legende": "\ud83d\udeb2 \u2764\ufe0f Train TER \ud83d\ude86"}, "geometry": {"type": "Point", "coordinates": [3.987678, 46.485191]}}, {"type": "Feature", "properties": {"start": "G\u00e9nelard", "stop_name": "Beaune", "type": "Gare accessible", "transport": "TER", "nombre_trajet_moyen": 1.2, "transport_legende": "\ud83d\udeb2 \u2764\ufe0f Train TER \ud83d\ude86"}, "geometry": {"type": "Point", "coordinates": [4.848423, 47.023014]}}, {"type": "Feature", "properties": {"start": "G\u00e9nelard", "stop_name": "Dijon", "type": "Gare accessible", "transport": "TER", "nombre_trajet_moyen": 1.2, "transport_legende": "\ud83d\udeb2 \u2764\ufe0f Train TER \ud83d\ude86"}, "geometry": {"type": "Point", "coordinates": [5.027256, 47.323411]}}, {"type": "Feature", "properties": {"start": "G\u00e9nelard", "stop_name": "Clermont-Ferrand", "type": "Gare accessible", "transport": "TER", "nombre_trajet_moyen": 1.34, "transport_legende": "\ud83d\udeb2 \u2764\ufe0f Train TER \ud83d\ude86"}, "geometry": {"type": "Point", "coordinates": [3.100543, 45.778945]}}, {"type": "Feature", "properties": {"start": "G\u00e9nelard", "stop_name": "Riom - Ch\u00e2tel-Guyon", "type": "Gare accessible", "transport": "TER", "nombre_trajet_moyen": 1.34, "transport_legende": "\ud83d\udeb2 \u2764\ufe0f Train TER \ud83d\ude86"}, "geometry": {"type": "Point", "coordinates": [3.120498, 45.889965]}}, {"type": "Feature", "properties": {"start": "G\u00e9nelard", "stop_name": "Vichy", "type": "Gare accessible", "transport": "TER", "nombre_trajet_moyen": 1.34, "transport_legende": "\ud83d\udeb2 \u2764\ufe0f Train TER \ud83d\ude86"}, "geometry": {"type": "Point", "coordinates": [3.430476, 46.126991]}}, {"type": "Feature", "properties": {"start": "G\u00e9nelard", "stop_name": "Saint-Germain-des-Foss\u00e9s", "type": "Gare accessible", "transport": "TER", "nombre_trajet_moyen": 1.34, "transport_legende": "\ud83d\udeb2 \u2764\ufe0f Train TER \ud83d\ude86"}, "geometry": {"type": "Point", "coordinates": [3.430574, 46.209239]}}, {"type": "Feature", "properties": {"start": "G\u00e9nelard", "stop_name": "Varennes-sur-Allier", "type": "Gare accessible", "transport": "TER", "nombre_trajet_moyen": 1.34, "transport_legende": "\ud83d\udeb2 \u2764\ufe0f Train TER \ud83d\ude86"}, "geometry": {"type": "Point", "coordinates": [3.394239, 46.3155]}}, {"type": "Feature", "properties": {"start": "G\u00e9nelard", "stop_name": "Bessay", "type": "Gare accessible", "transport": "TER", "nombre_trajet_moyen": 1.34, "transport_legende": "\ud83d\udeb2 \u2764\ufe0f Train TER \ud83d\ude86"}, "geometry": {"type": "Point", "coordinates": [3.360642, 46.442973]}}, {"type": "Feature", "properties": {"start": "G\u00e9nelard", "stop_name": "Gerzat", "type": "Gare accessible", "transport": "TER", "nombre_trajet_moyen": 0.62, "transport_legende": "\ud83d\udeb2 \u2764\ufe0f Train TER \ud83d\ude86"}, "geometry": {"type": "Point", "coordinates": [3.143236, 45.833488]}}]}