{"type": "FeatureCollection", "features": [{"type": "Feature", "properties": {"start": "Ille-sur-T\u00eat", "stop_name": "Ille-sur-T\u00eat", "type": "Gare s\u00e9lectionn\u00e9e", "transport": "TER", "transport_legende": "\ud83d\udeb2 \u2764\ufe0f Train TER \ud83d\ude86"}, "geometry": {"type": "Point", "coordinates": [2.624286, 42.66824]}}, {"type": "Feature", "properties": {"start": "Ille-sur-T\u00eat", "stop_name": "Prades - Molitg-les-Bains", "type": "Gare accessible", "transport": "TER", "transport_legende": "\ud83d\udeb2 \u2764\ufe0f Train TER \ud83d\ude86"}, "geometry": {"type": "Point", "coordinates": [2.429486, 42.617085]}}, {"type": "Feature", "properties": {"start": "Ille-sur-T\u00eat", "stop_name": "Marquixanes", "type": "Gare accessible", "transport": "TER", "transport_legende": "\ud83d\udeb2 \u2764\ufe0f Train TER \ud83d\ude86"}, "geometry": {"type": "Point", "coordinates": [2.486215, 42.643067]}}, {"type": "Feature", "properties": {"start": "Ille-sur-T\u00eat", "stop_name": "Vin\u00e7a", "type": "Gare accessible", "transport": "TER", "transport_legende": "\ud83d\udeb2 \u2764\ufe0f Train TER \ud83d\ude86"}, "geometry": {"type": "Point", "coordinates": [2.527832, 42.648252]}}, {"type": "Feature", "properties": {"start": "Ille-sur-T\u00eat", "stop_name": "Millas", "type": "Gare accessible", "transport": "TER", "transport_legende": "\ud83d\udeb2 \u2764\ufe0f Train TER \ud83d\ude86"}, "geometry": {"type": "Point", "coordinates": [2.69375, 42.688896]}}, {"type": "Feature", "properties": {"start": "Ille-sur-T\u00eat", "stop_name": "Saint-F\u00e9liu-d'Avall", "type": "Gare accessible", "transport": "TER", "transport_legende": "\ud83d\udeb2 \u2764\ufe0f Train TER \ud83d\ude86"}, "geometry": {"type": "Point", "coordinates": [2.737806, 42.677277]}}, {"type": "Feature", "properties": {"start": "Ille-sur-T\u00eat", "stop_name": "Le Soler", "type": "Gare accessible", "transport": "TER", "transport_legende": "\ud83d\udeb2 \u2764\ufe0f Train TER \ud83d\ude86"}, "geometry": {"type": "Point", "coordinates": [2.795227, 42.678989]}}, {"type": "Feature", "properties": {"start": "Ille-sur-T\u00eat", "stop_name": "Perpignan", "type": "Gare accessible", "transport": "TER", "transport_legende": "\ud83d\udeb2 \u2764\ufe0f Train TER \ud83d\ude86"}, "geometry": {"type": "Point", "coordinates": [2.879355, 42.696096]}}, {"type": "Feature", "properties": {"start": "Ille-sur-T\u00eat", "stop_name": "Villefranche - Vernet-les-Bains", "type": "Gare accessible", "transport": "TER", "transport_legende": "\ud83d\udeb2 \u2764\ufe0f Train TER \ud83d\ude86"}, "geometry": {"type": "Point", "coordinates": [2.370354, 42.5917]}}, {"type": "Feature", "properties": {"start": "Ille-sur-T\u00eat", "stop_name": "Ria", "type": "Gare accessible", "transport": "TER", "transport_legende": "\ud83d\udeb2 \u2764\ufe0f Train TER \ud83d\ude86"}, "geometry": {"type": "Point", "coordinates": [2.390749, 42.603408]}}]}