{"type": "FeatureCollection", "features": [{"type": "Feature", "properties": {"start": "Issoire Lyc\u00e9e Murat", "stop_name": "Issoire Lyc\u00e9e Murat", "type": "Gare s\u00e9lectionn\u00e9e", "transport": "TER", "transport_legende": "\ud83d\udeb2 \u2764\ufe0f Train TER \ud83d\ude86"}, "geometry": {"type": "Point", "coordinates": [3.249955, 45.55041]}}, {"type": "Feature", "properties": {"start": "Issoire Lyc\u00e9e Murat", "stop_name": "Vic-le-Comte", "type": "Gare accessible", "transport": "TER", "transport_legende": "\ud83d\udeb2 \u2764\ufe0f Train TER \ud83d\ude86"}, "geometry": {"type": "Point", "coordinates": [3.207042, 45.664941]}}, {"type": "Feature", "properties": {"start": "Issoire Lyc\u00e9e Murat", "stop_name": "Parent - Coudes - Champeix", "type": "Gare accessible", "transport": "TER", "transport_legende": "\ud83d\udeb2 \u2764\ufe0f Train TER \ud83d\ude86"}, "geometry": {"type": "Point", "coordinates": [3.216771, 45.614416]}}, {"type": "Feature", "properties": {"start": "Issoire Lyc\u00e9e Murat", "stop_name": "Issoire", "type": "Gare accessible", "transport": "TER", "transport_legende": "\ud83d\udeb2 \u2764\ufe0f Train TER \ud83d\ude86"}, "geometry": {"type": "Point", "coordinates": [3.25404, 45.543949]}}, {"type": "Feature", "properties": {"start": "Issoire Lyc\u00e9e Murat", "stop_name": "Issoire Lyc\u00e9e Deville", "type": "Gare accessible", "transport": "TER", "transport_legende": "\ud83d\udeb2 \u2764\ufe0f Train TER \ud83d\ude86"}, "geometry": {"type": "Point", "coordinates": [3.258023, 45.539947]}}]}