{"type": "FeatureCollection", "features": [{"type": "Feature", "properties": {"start": "La Tour-de-Salvagny", "stop_name": "La Tour-de-Salvagny", "type": "Gare s\u00e9lectionn\u00e9e", "transport": "TER", "transport_legende": "\ud83d\udeb2 \u2764\ufe0f Train TER \ud83d\ude86"}, "geometry": {"type": "Point", "coordinates": [4.716492, 45.799882]}}, {"type": "Feature", "properties": {"start": "La Tour-de-Salvagny", "stop_name": "Lyon Saint-Paul", "type": "Gare accessible", "transport": "TER", "transport_legende": "\ud83d\udeb2 \u2764\ufe0f Train TER \ud83d\ude86"}, "geometry": {"type": "Point", "coordinates": [4.826954, 45.766077]}}, {"type": "Feature", "properties": {"start": "La Tour-de-Salvagny", "stop_name": "Lyon Gorge de Loup", "type": "Gare accessible", "transport": "TER", "transport_legende": "\ud83d\udeb2 \u2764\ufe0f Train TER \ud83d\ude86"}, "geometry": {"type": "Point", "coordinates": [4.804697, 45.766095]}}, {"type": "Feature", "properties": {"start": "La Tour-de-Salvagny", "stop_name": "\u00c9cully la Demi-Lune", "type": "Gare accessible", "transport": "TER", "transport_legende": "\ud83d\udeb2 \u2764\ufe0f Train TER \ud83d\ude86"}, "geometry": {"type": "Point", "coordinates": [4.779522, 45.76573]}}, {"type": "Feature", "properties": {"start": "La Tour-de-Salvagny", "stop_name": "Tassin", "type": "Gare accessible", "transport": "TER", "transport_legende": "\ud83d\udeb2 \u2764\ufe0f Train TER \ud83d\ude86"}, "geometry": {"type": "Point", "coordinates": [4.758585, 45.761541]}}, {"type": "Feature", "properties": {"start": "La Tour-de-Salvagny", "stop_name": "Le M\u00e9ridien La Ferri\u00e8re", "type": "Gare accessible", "transport": "TER", "transport_legende": "\ud83d\udeb2 \u2764\ufe0f Train TER \ud83d\ude86"}, "geometry": {"type": "Point", "coordinates": [4.748443, 45.768499]}}, {"type": "Feature", "properties": {"start": "La Tour-de-Salvagny", "stop_name": "Charbonni\u00e8res-les-Bains", "type": "Gare accessible", "transport": "TER", "transport_legende": "\ud83d\udeb2 \u2764\ufe0f Train TER \ud83d\ude86"}, "geometry": {"type": "Point", "coordinates": [4.735875, 45.782173]}}, {"type": "Feature", "properties": {"start": "La Tour-de-Salvagny", "stop_name": "Casino Lacroix Laval", "type": "Gare accessible", "transport": "TER", "transport_legende": "\ud83d\udeb2 \u2764\ufe0f Train TER \ud83d\ude86"}, "geometry": {"type": "Point", "coordinates": [4.730912, 45.787899]}}, {"type": "Feature", "properties": {"start": "La Tour-de-Salvagny", "stop_name": "Lentilly Charpenay", "type": "Gare accessible", "transport": "TER", "transport_legende": "\ud83d\udeb2 \u2764\ufe0f Train TER \ud83d\ude86"}, "geometry": {"type": "Point", "coordinates": [4.682375, 45.816519]}}, {"type": "Feature", "properties": {"start": "La Tour-de-Salvagny", "stop_name": "Lentilly", "type": "Gare accessible", "transport": "TER", "transport_legende": "\ud83d\udeb2 \u2764\ufe0f Train TER \ud83d\ude86"}, "geometry": {"type": "Point", "coordinates": [4.667049, 45.821684]}}, {"type": "Feature", "properties": {"start": "La Tour-de-Salvagny", "stop_name": "Fleurieux-sur-l'Arbresle", "type": "Gare accessible", "transport": "TER", "transport_legende": "\ud83d\udeb2 \u2764\ufe0f Train TER \ud83d\ude86"}, "geometry": {"type": "Point", "coordinates": [4.660381, 45.844994]}}, {"type": "Feature", "properties": {"start": "La Tour-de-Salvagny", "stop_name": "L'Arbresle", "type": "Gare accessible", "transport": "TER", "transport_legende": "\ud83d\udeb2 \u2764\ufe0f Train TER \ud83d\ude86"}, "geometry": {"type": "Point", "coordinates": [4.618262, 45.833285]}}, {"type": "Feature", "properties": {"start": "La Tour-de-Salvagny", "stop_name": "Sain-Bel", "type": "Gare accessible", "transport": "TER", "transport_legende": "\ud83d\udeb2 \u2764\ufe0f Train TER \ud83d\ude86"}, "geometry": {"type": "Point", "coordinates": [4.601249, 45.811093]}}]}