{"type": "FeatureCollection", "features": [{"type": "Feature", "properties": {"start": "Langres", "stop_name": "Langres", "type": "Gare s\u00e9lectionn\u00e9e", "transport": "TER", "nombre_trajet_moyen": 11.77, "transport_legende": "\ud83d\udeb2 \u2764\ufe0f Train TER \ud83d\ude86"}, "geometry": {"type": "Point", "coordinates": [5.344406, 47.876947]}}, {"type": "Feature", "properties": {"start": "Langres", "stop_name": "Ch\u00e2lons-en-Champagne", "type": "Gare accessible", "transport": "TER", "nombre_trajet_moyen": 3.12, "transport_legende": "\ud83d\udeb2 \u2764\ufe0f Train TER \ud83d\ude86"}, "geometry": {"type": "Point", "coordinates": [4.348656, 48.955252]}}, {"type": "Feature", "properties": {"start": "Langres", "stop_name": "Vitry-le-Fran\u00e7ois", "type": "Gare accessible", "transport": "TER", "nombre_trajet_moyen": 2.75, "transport_legende": "\ud83d\udeb2 \u2764\ufe0f Train TER \ud83d\ude86"}, "geometry": {"type": "Point", "coordinates": [4.587515, 48.717913]}}, {"type": "Feature", "properties": {"start": "Langres", "stop_name": "Saint-Dizier", "type": "Gare accessible", "transport": "TER", "nombre_trajet_moyen": 3.19, "transport_legende": "\ud83d\udeb2 \u2764\ufe0f Train TER \ud83d\ude86"}, "geometry": {"type": "Point", "coordinates": [4.947855, 48.642404]}}, {"type": "Feature", "properties": {"start": "Langres", "stop_name": "Joinville", "type": "Gare accessible", "transport": "TER", "nombre_trajet_moyen": 3.19, "transport_legende": "\ud83d\udeb2 \u2764\ufe0f Train TER \ud83d\ude86"}, "geometry": {"type": "Point", "coordinates": [5.143259, 48.44433]}}, {"type": "Feature", "properties": {"start": "Langres", "stop_name": "Froncles", "type": "Gare accessible", "transport": "TER", "nombre_trajet_moyen": 3.19, "transport_legende": "\ud83d\udeb2 \u2764\ufe0f Train TER \ud83d\ude86"}, "geometry": {"type": "Point", "coordinates": [5.141939, 48.296415]}}, {"type": "Feature", "properties": {"start": "Langres", "stop_name": "Chaumont", "type": "Gare accessible", "transport": "TER", "nombre_trajet_moyen": 11.77, "transport_legende": "\ud83d\udeb2 \u2764\ufe0f Train TER \ud83d\ude86"}, "geometry": {"type": "Point", "coordinates": [5.1346, 48.10976]}}, {"type": "Feature", "properties": {"start": "Langres", "stop_name": "Culmont - Chalindrey", "type": "Gare accessible", "transport": "TER", "nombre_trajet_moyen": 11.77, "transport_legende": "\ud83d\udeb2 \u2764\ufe0f Train TER \ud83d\ude86"}, "geometry": {"type": "Point", "coordinates": [5.443219, 47.810202]}}, {"type": "Feature", "properties": {"start": "Langres", "stop_name": "Dijon", "type": "Gare accessible", "transport": "TER", "nombre_trajet_moyen": 2.24, "transport_legende": "\ud83d\udeb2 \u2764\ufe0f Train TER \ud83d\ude86"}, "geometry": {"type": "Point", "coordinates": [5.027256, 47.323411]}}, {"type": "Feature", "properties": {"start": "Langres", "stop_name": "Dijon Porte Neuve", "type": "Gare accessible", "transport": "TER", "nombre_trajet_moyen": 0.96, "transport_legende": "\ud83d\udeb2 \u2764\ufe0f Train TER \ud83d\ude86"}, "geometry": {"type": "Point", "coordinates": [5.054905, 47.3228]}}, {"type": "Feature", "properties": {"start": "Langres", "stop_name": "Is-sur-Tille", "type": "Gare accessible", "transport": "TER", "nombre_trajet_moyen": 1.97, "transport_legende": "\ud83d\udeb2 \u2764\ufe0f Train TER \ud83d\ude86"}, "geometry": {"type": "Point", "coordinates": [5.129481, 47.520454]}}, {"type": "Feature", "properties": {"start": "Langres", "stop_name": "Troyes", "type": "Gare accessible", "transport": "TER", "nombre_trajet_moyen": 9.76, "transport_legende": "\ud83d\udeb2 \u2764\ufe0f Train TER \ud83d\ude86"}, "geometry": {"type": "Point", "coordinates": [4.065281, 48.296069]}}, {"type": "Feature", "properties": {"start": "Langres", "stop_name": "Vendeuvre", "type": "Gare accessible", "transport": "TER", "nombre_trajet_moyen": 9.76, "transport_legende": "\ud83d\udeb2 \u2764\ufe0f Train TER \ud83d\ude86"}, "geometry": {"type": "Point", "coordinates": [4.467214, 48.240069]}}, {"type": "Feature", "properties": {"start": "Langres", "stop_name": "Bar-sur-Aube", "type": "Gare accessible", "transport": "TER", "nombre_trajet_moyen": 9.76, "transport_legende": "\ud83d\udeb2 \u2764\ufe0f Train TER \ud83d\ude86"}, "geometry": {"type": "Point", "coordinates": [4.706872, 48.238559]}}, {"type": "Feature", "properties": {"start": "Langres", "stop_name": "Vittel", "type": "Gare accessible", "transport": "TER", "nombre_trajet_moyen": 0.1, "transport_legende": "\ud83d\udeb2 \u2764\ufe0f Train TER \ud83d\ude86"}, "geometry": {"type": "Point", "coordinates": [5.942295, 48.202426]}}, {"type": "Feature", "properties": {"start": "Langres", "stop_name": "Paris Est", "type": "Gare accessible", "transport": "TER", "nombre_trajet_moyen": 8.92, "transport_legende": "\ud83d\udeb2 \u2764\ufe0f Train TER \ud83d\ude86"}, "geometry": {"type": "Point", "coordinates": [2.358424, 48.876742]}}, {"type": "Feature", "properties": {"start": "Langres", "stop_name": "Nogent-sur-Seine", "type": "Gare accessible", "transport": "TER", "nombre_trajet_moyen": 8.54, "transport_legende": "\ud83d\udeb2 \u2764\ufe0f Train TER \ud83d\ude86"}, "geometry": {"type": "Point", "coordinates": [3.493773, 48.497855]}}, {"type": "Feature", "properties": {"start": "Langres", "stop_name": "Romilly-sur-Seine", "type": "Gare accessible", "transport": "TER", "nombre_trajet_moyen": 8.54, "transport_legende": "\ud83d\udeb2 \u2764\ufe0f Train TER \ud83d\ude86"}, "geometry": {"type": "Point", "coordinates": [3.728887, 48.514433]}}, {"type": "Feature", "properties": {"start": "Langres", "stop_name": "Longueville", "type": "Gare accessible", "transport": "TER", "nombre_trajet_moyen": 1.11, "transport_legende": "\ud83d\udeb2 \u2764\ufe0f Train TER \ud83d\ude86"}, "geometry": {"type": "Point", "coordinates": [3.249822, 48.513703]}}, {"type": "Feature", "properties": {"start": "Langres", "stop_name": "Vesoul", "type": "Gare accessible", "transport": "TER", "nombre_trajet_moyen": 5.76, "transport_legende": "\ud83d\udeb2 \u2764\ufe0f Train TER \ud83d\ude86"}, "geometry": {"type": "Point", "coordinates": [6.151821, 47.61781]}}, {"type": "Feature", "properties": {"start": "Langres", "stop_name": "Belfort-Ville", "type": "Gare accessible", "transport": "TER", "nombre_trajet_moyen": 5.4, "transport_legende": "\ud83d\udeb2 \u2764\ufe0f Train TER \ud83d\ude86"}, "geometry": {"type": "Point", "coordinates": [6.854053, 47.633278]}}, {"type": "Feature", "properties": {"start": "Langres", "stop_name": "Lure", "type": "Gare accessible", "transport": "TER", "nombre_trajet_moyen": 5.4, "transport_legende": "\ud83d\udeb2 \u2764\ufe0f Train TER \ud83d\ude86"}, "geometry": {"type": "Point", "coordinates": [6.492563, 47.683274]}}, {"type": "Feature", "properties": {"start": "Langres", "stop_name": "Mulhouse", "type": "Gare accessible", "transport": "TER", "nombre_trajet_moyen": 4.42, "transport_legende": "\ud83d\udeb2 \u2764\ufe0f Train TER \ud83d\ude86"}, "geometry": {"type": "Point", "coordinates": [7.34316, 47.742691]}}, {"type": "Feature", "properties": {"start": "Langres", "stop_name": "Altkirch", "type": "Gare accessible", "transport": "TER", "nombre_trajet_moyen": 4.42, "transport_legende": "\ud83d\udeb2 \u2764\ufe0f Train TER \ud83d\ude86"}, "geometry": {"type": "Point", "coordinates": [7.23905, 47.627017]}}, {"type": "Feature", "properties": {"start": "Langres", "stop_name": "Mourmelon-le-Petit", "type": "Gare accessible", "transport": "TER", "nombre_trajet_moyen": 2.18, "transport_legende": "\ud83d\udeb2 \u2764\ufe0f Train TER \ud83d\ude86"}, "geometry": {"type": "Point", "coordinates": [4.318098, 49.131308]}}, {"type": "Feature", "properties": {"start": "Langres", "stop_name": "Sept-Saulx", "type": "Gare accessible", "transport": "TER", "nombre_trajet_moyen": 0.91, "transport_legende": "\ud83d\udeb2 \u2764\ufe0f Train TER \ud83d\ude86"}, "geometry": {"type": "Point", "coordinates": [4.256974, 49.151133]}}, {"type": "Feature", "properties": {"start": "Langres", "stop_name": "Val-de-Vesle", "type": "Gare accessible", "transport": "TER", "nombre_trajet_moyen": 0.91, "transport_legende": "\ud83d\udeb2 \u2764\ufe0f Train TER \ud83d\ude86"}, "geometry": {"type": "Point", "coordinates": [4.22221, 49.17792]}}, {"type": "Feature", "properties": {"start": "Langres", "stop_name": "Prunay", "type": "Gare accessible", "transport": "TER", "nombre_trajet_moyen": 0.91, "transport_legende": "\ud83d\udeb2 \u2764\ufe0f Train TER \ud83d\ude86"}, "geometry": {"type": "Point", "coordinates": [4.183629, 49.198839]}}, {"type": "Feature", "properties": {"start": "Langres", "stop_name": "Reims", "type": "Gare accessible", "transport": "TER", "nombre_trajet_moyen": 2.32, "transport_legende": "\ud83d\udeb2 \u2764\ufe0f Train TER \ud83d\ude86"}, "geometry": {"type": "Point", "coordinates": [4.021994, 49.258934]}}, {"type": "Feature", "properties": {"start": "Langres", "stop_name": "Bologne", "type": "Gare accessible", "transport": "TER", "nombre_trajet_moyen": 1.47, "transport_legende": "\ud83d\udeb2 \u2764\ufe0f Train TER \ud83d\ude86"}, "geometry": {"type": "Point", "coordinates": [5.134467, 48.198677]}}, {"type": "Feature", "properties": {"start": "Langres", "stop_name": "Vignory", "type": "Gare accessible", "transport": "TER", "nombre_trajet_moyen": 1.47, "transport_legende": "\ud83d\udeb2 \u2764\ufe0f Train TER \ud83d\ude86"}, "geometry": {"type": "Point", "coordinates": [5.124249, 48.270681]}}, {"type": "Feature", "properties": {"start": "Langres", "stop_name": "Donjeux", "type": "Gare accessible", "transport": "TER", "nombre_trajet_moyen": 1.47, "transport_legende": "\ud83d\udeb2 \u2764\ufe0f Train TER \ud83d\ude86"}, "geometry": {"type": "Point", "coordinates": [5.151358, 48.365945]}}, {"type": "Feature", "properties": {"start": "Langres", "stop_name": "Chevillon", "type": "Gare accessible", "transport": "TER", "nombre_trajet_moyen": 1.47, "transport_legende": "\ud83d\udeb2 \u2764\ufe0f Train TER \ud83d\ude86"}, "geometry": {"type": "Point", "coordinates": [5.113277, 48.523946]}}]}