{"type": "FeatureCollection", "features": [{"type": "Feature", "properties": {"start": "Le Bugue", "stop_name": "Le Bugue", "type": "Gare s\u00e9lectionn\u00e9e", "transport": "TER", "transport_legende": "\ud83d\udeb2 \u2764\ufe0f Train TER \ud83d\ude86"}, "geometry": {"type": "Point", "coordinates": [0.943004, 44.905726]}}, {"type": "Feature", "properties": {"start": "Le Bugue", "stop_name": "Le Buisson", "type": "Gare accessible", "transport": "TER", "transport_legende": "\ud83d\udeb2 \u2764\ufe0f Train TER \ud83d\ude86"}, "geometry": {"type": "Point", "coordinates": [0.90818, 44.847245]}}, {"type": "Feature", "properties": {"start": "Le Bugue", "stop_name": "Les Eyzies", "type": "Gare accessible", "transport": "TER", "transport_legende": "\ud83d\udeb2 \u2764\ufe0f Train TER \ud83d\ude86"}, "geometry": {"type": "Point", "coordinates": [1.008296, 44.941315]}}, {"type": "Feature", "properties": {"start": "Le Bugue", "stop_name": "P\u00e9rigueux", "type": "Gare accessible", "transport": "TER", "transport_legende": "\ud83d\udeb2 \u2764\ufe0f Train TER \ud83d\ude86"}, "geometry": {"type": "Point", "coordinates": [0.707879, 45.187408]}}, {"type": "Feature", "properties": {"start": "Le Bugue", "stop_name": "Monsempron-Libos", "type": "Gare accessible", "transport": "TER", "transport_legende": "\ud83d\udeb2 \u2764\ufe0f Train TER \ud83d\ude86"}, "geometry": {"type": "Point", "coordinates": [0.94142, 44.486391]}}, {"type": "Feature", "properties": {"start": "Le Bugue", "stop_name": "Sauveterre-la-L\u00e9mance", "type": "Gare accessible", "transport": "TER", "transport_legende": "\ud83d\udeb2 \u2764\ufe0f Train TER \ud83d\ude86"}, "geometry": {"type": "Point", "coordinates": [1.011767, 44.589405]}}, {"type": "Feature", "properties": {"start": "Le Bugue", "stop_name": "Villefranche-du-P\u00e9rigord", "type": "Gare accessible", "transport": "TER", "transport_legende": "\ud83d\udeb2 \u2764\ufe0f Train TER \ud83d\ude86"}, "geometry": {"type": "Point", "coordinates": [1.049302, 44.627019]}}, {"type": "Feature", "properties": {"start": "Le Bugue", "stop_name": "Belv\u00e8s", "type": "Gare accessible", "transport": "TER", "transport_legende": "\ud83d\udeb2 \u2764\ufe0f Train TER \ud83d\ude86"}, "geometry": {"type": "Point", "coordinates": [1.012071, 44.777341]}}, {"type": "Feature", "properties": {"start": "Le Bugue", "stop_name": "Siorac-en-P\u00e9rigord", "type": "Gare accessible", "transport": "TER", "transport_legende": "\ud83d\udeb2 \u2764\ufe0f Train TER \ud83d\ude86"}, "geometry": {"type": "Point", "coordinates": [0.984188, 44.819788]}}, {"type": "Feature", "properties": {"start": "Le Bugue", "stop_name": "Penne", "type": "Gare accessible", "transport": "TER", "transport_legende": "\ud83d\udeb2 \u2764\ufe0f Train TER \ud83d\ude86"}, "geometry": {"type": "Point", "coordinates": [0.803115, 44.379825]}}, {"type": "Feature", "properties": {"start": "Le Bugue", "stop_name": "Agen", "type": "Gare accessible", "transport": "TER", "transport_legende": "\ud83d\udeb2 \u2764\ufe0f Train TER \ud83d\ude86"}, "geometry": {"type": "Point", "coordinates": [0.620867, 44.207967]}}, {"type": "Feature", "properties": {"start": "Le Bugue", "stop_name": "Les Versannes", "type": "Gare accessible", "transport": "TER", "transport_legende": "\ud83d\udeb2 \u2764\ufe0f Train TER \ud83d\ude86"}, "geometry": {"type": "Point", "coordinates": [0.8573, 45.088825]}}, {"type": "Feature", "properties": {"start": "Le Bugue", "stop_name": "Niversac", "type": "Gare accessible", "transport": "TER", "transport_legende": "\ud83d\udeb2 \u2764\ufe0f Train TER \ud83d\ude86"}, "geometry": {"type": "Point", "coordinates": [0.80827, 45.138259]}}, {"type": "Feature", "properties": {"start": "Le Bugue", "stop_name": "Boulazac Isle Manoire", "type": "Gare accessible", "transport": "TER", "transport_legende": "\ud83d\udeb2 \u2764\ufe0f Train TER \ud83d\ude86"}, "geometry": {"type": "Point", "coordinates": [0.772787, 45.172052]}}, {"type": "Feature", "properties": {"start": "Le Bugue", "stop_name": "Laroque", "type": "Gare accessible", "transport": "TER", "transport_legende": "\ud83d\udeb2 \u2764\ufe0f Train TER \ud83d\ude86"}, "geometry": {"type": "Point", "coordinates": [0.749793, 44.287521]}}, {"type": "Feature", "properties": {"start": "Le Bugue", "stop_name": "Sarlat", "type": "Gare accessible", "transport": "TER", "transport_legende": "\ud83d\udeb2 \u2764\ufe0f Train TER \ud83d\ude86"}, "geometry": {"type": "Point", "coordinates": [1.220469, 44.877114]}}, {"type": "Feature", "properties": {"start": "Le Bugue", "stop_name": "Saint-Cyprien", "type": "Gare accessible", "transport": "TER", "transport_legende": "\ud83d\udeb2 \u2764\ufe0f Train TER \ud83d\ude86"}, "geometry": {"type": "Point", "coordinates": [1.043574, 44.863407]}}]}