{"type": "FeatureCollection", "features": [{"type": "Feature", "properties": {"start": "Le Poirier Universit\u00e9", "stop_name": "Le Poirier Universit\u00e9", "type": "Gare s\u00e9lectionn\u00e9e", "transport": "TER", "nombre_trajet_moyen": 5.1, "transport_legende": "\ud83d\udeb2 \u2764\ufe0f Train TER \ud83d\ude86"}, "geometry": {"type": "Point", "coordinates": [3.502635, 50.330077]}}, {"type": "Feature", "properties": {"start": "Le Poirier Universit\u00e9", "stop_name": "Aulnoye-Aymeries", "type": "Gare accessible", "transport": "TER", "nombre_trajet_moyen": 5.1, "transport_legende": "\ud83d\udeb2 \u2764\ufe0f Train TER \ud83d\ude86"}, "geometry": {"type": "Point", "coordinates": [3.843333, 50.197477]}}, {"type": "Feature", "properties": {"start": "Le Poirier Universit\u00e9", "stop_name": "Berlaimont", "type": "Gare accessible", "transport": "TER", "nombre_trajet_moyen": 2.76, "transport_legende": "\ud83d\udeb2 \u2764\ufe0f Train TER \ud83d\ude86"}, "geometry": {"type": "Point", "coordinates": [3.810429, 50.198044]}}, {"type": "Feature", "properties": {"start": "Le Poirier Universit\u00e9", "stop_name": "Le Quesnoy", "type": "Gare accessible", "transport": "TER", "nombre_trajet_moyen": 5.1, "transport_legende": "\ud83d\udeb2 \u2764\ufe0f Train TER \ud83d\ude86"}, "geometry": {"type": "Point", "coordinates": [3.645483, 50.250193]}}, {"type": "Feature", "properties": {"start": "Le Poirier Universit\u00e9", "stop_name": "Valenciennes", "type": "Gare accessible", "transport": "TER", "nombre_trajet_moyen": 5.1, "transport_legende": "\ud83d\udeb2 \u2764\ufe0f Train TER \ud83d\ude86"}, "geometry": {"type": "Point", "coordinates": [3.517124, 50.363187]}}, {"type": "Feature", "properties": {"start": "Le Poirier Universit\u00e9", "stop_name": "Avesnes-sur-Helpe", "type": "Gare accessible", "transport": "TER", "nombre_trajet_moyen": 2.24, "transport_legende": "\ud83d\udeb2 \u2764\ufe0f Train TER \ud83d\ude86"}, "geometry": {"type": "Point", "coordinates": [3.932902, 50.126755]}}, {"type": "Feature", "properties": {"start": "Le Poirier Universit\u00e9", "stop_name": "Sains-du-Nord", "type": "Gare accessible", "transport": "TER", "nombre_trajet_moyen": 2.24, "transport_legende": "\ud83d\udeb2 \u2764\ufe0f Train TER \ud83d\ude86"}, "geometry": {"type": "Point", "coordinates": [4.001668, 50.088914]}}, {"type": "Feature", "properties": {"start": "Le Poirier Universit\u00e9", "stop_name": "Fourmies", "type": "Gare accessible", "transport": "TER", "nombre_trajet_moyen": 2.24, "transport_legende": "\ud83d\udeb2 \u2764\ufe0f Train TER \ud83d\ude86"}, "geometry": {"type": "Point", "coordinates": [4.053593, 50.015392]}}, {"type": "Feature", "properties": {"start": "Le Poirier Universit\u00e9", "stop_name": "Anor", "type": "Gare accessible", "transport": "TER", "nombre_trajet_moyen": 2.24, "transport_legende": "\ud83d\udeb2 \u2764\ufe0f Train TER \ud83d\ude86"}, "geometry": {"type": "Point", "coordinates": [4.093473, 49.985022]}}, {"type": "Feature", "properties": {"start": "Le Poirier Universit\u00e9", "stop_name": "Hirson", "type": "Gare accessible", "transport": "TER", "nombre_trajet_moyen": 2.24, "transport_legende": "\ud83d\udeb2 \u2764\ufe0f Train TER \ud83d\ude86"}, "geometry": {"type": "Point", "coordinates": [4.084285, 49.914558]}}, {"type": "Feature", "properties": {"start": "Le Poirier Universit\u00e9", "stop_name": "Maubeuge", "type": "Gare accessible", "transport": "TER", "nombre_trajet_moyen": 2.56, "transport_legende": "\ud83d\udeb2 \u2764\ufe0f Train TER \ud83d\ude86"}, "geometry": {"type": "Point", "coordinates": [3.966765, 50.272952]}}, {"type": "Feature", "properties": {"start": "Le Poirier Universit\u00e9", "stop_name": "Hautmont", "type": "Gare accessible", "transport": "TER", "nombre_trajet_moyen": 2.37, "transport_legende": "\ud83d\udeb2 \u2764\ufe0f Train TER \ud83d\ude86"}, "geometry": {"type": "Point", "coordinates": [3.915207, 50.253993]}}, {"type": "Feature", "properties": {"start": "Le Poirier Universit\u00e9", "stop_name": "Jeumont", "type": "Gare accessible", "transport": "TER", "nombre_trajet_moyen": 2.37, "transport_legende": "\ud83d\udeb2 \u2764\ufe0f Train TER \ud83d\ude86"}, "geometry": {"type": "Point", "coordinates": [4.08722, 50.296149]}}, {"type": "Feature", "properties": {"start": "Le Poirier Universit\u00e9", "stop_name": "Recquignies", "type": "Gare accessible", "transport": "TER", "nombre_trajet_moyen": 0.69, "transport_legende": "\ud83d\udeb2 \u2764\ufe0f Train TER \ud83d\ude86"}, "geometry": {"type": "Point", "coordinates": [4.043803, 50.284146]}}, {"type": "Feature", "properties": {"start": "Le Poirier Universit\u00e9", "stop_name": "Les Bons P\u00e8res", "type": "Gare accessible", "transport": "TER", "nombre_trajet_moyen": 0.69, "transport_legende": "\ud83d\udeb2 \u2764\ufe0f Train TER \ud83d\ude86"}, "geometry": {"type": "Point", "coordinates": [4.011109, 50.279963]}}, {"type": "Feature", "properties": {"start": "Le Poirier Universit\u00e9", "stop_name": "Louvroil", "type": "Gare accessible", "transport": "TER", "nombre_trajet_moyen": 0.69, "transport_legende": "\ud83d\udeb2 \u2764\ufe0f Train TER \ud83d\ude86"}, "geometry": {"type": "Point", "coordinates": [3.953691, 50.268537]}}, {"type": "Feature", "properties": {"start": "Le Poirier Universit\u00e9", "stop_name": "Sous le Bois", "type": "Gare accessible", "transport": "TER", "nombre_trajet_moyen": 0.69, "transport_legende": "\ud83d\udeb2 \u2764\ufe0f Train TER \ud83d\ude86"}, "geometry": {"type": "Point", "coordinates": [3.939508, 50.265748]}}, {"type": "Feature", "properties": {"start": "Le Poirier Universit\u00e9", "stop_name": "Hirson \u00c9coles", "type": "Gare accessible", "transport": "TER", "nombre_trajet_moyen": 0.69, "transport_legende": "\ud83d\udeb2 \u2764\ufe0f Train TER \ud83d\ude86"}, "geometry": {"type": "Point", "coordinates": [4.086152, 49.928848]}}, {"type": "Feature", "properties": {"start": "Le Poirier Universit\u00e9", "stop_name": "Avesnelles", "type": "Gare accessible", "transport": "TER", "nombre_trajet_moyen": 0.69, "transport_legende": "\ud83d\udeb2 \u2764\ufe0f Train TER \ud83d\ude86"}, "geometry": {"type": "Point", "coordinates": [3.948638, 50.118497]}}, {"type": "Feature", "properties": {"start": "Le Poirier Universit\u00e9", "stop_name": "Saint-Hilaire", "type": "Gare accessible", "transport": "TER", "nombre_trajet_moyen": 0.69, "transport_legende": "\ud83d\udeb2 \u2764\ufe0f Train TER \ud83d\ude86"}, "geometry": {"type": "Point", "coordinates": [3.913485, 50.132082]}}, {"type": "Feature", "properties": {"start": "Le Poirier Universit\u00e9", "stop_name": "Dompierre", "type": "Gare accessible", "transport": "TER", "nombre_trajet_moyen": 0.69, "transport_legende": "\ud83d\udeb2 \u2764\ufe0f Train TER \ud83d\ude86"}, "geometry": {"type": "Point", "coordinates": [3.871082, 50.145955]}}, {"type": "Feature", "properties": {"start": "Le Poirier Universit\u00e9", "stop_name": "Leval", "type": "Gare accessible", "transport": "TER", "nombre_trajet_moyen": 0.69, "transport_legende": "\ud83d\udeb2 \u2764\ufe0f Train TER \ud83d\ude86"}, "geometry": {"type": "Point", "coordinates": [3.836629, 50.184614]}}, {"type": "Feature", "properties": {"start": "Le Poirier Universit\u00e9", "stop_name": "Saint-Amand-les-Eaux", "type": "Gare accessible", "transport": "TER", "nombre_trajet_moyen": 3.51, "transport_legende": "\ud83d\udeb2 \u2764\ufe0f Train TER \ud83d\ude86"}, "geometry": {"type": "Point", "coordinates": [3.419371, 50.443342]}}, {"type": "Feature", "properties": {"start": "Le Poirier Universit\u00e9", "stop_name": "Rosult", "type": "Gare accessible", "transport": "TER", "nombre_trajet_moyen": 0.7, "transport_legende": "\ud83d\udeb2 \u2764\ufe0f Train TER \ud83d\ude86"}, "geometry": {"type": "Point", "coordinates": [3.348995, 50.456425]}}, {"type": "Feature", "properties": {"start": "Le Poirier Universit\u00e9", "stop_name": "Landas", "type": "Gare accessible", "transport": "TER", "nombre_trajet_moyen": 0.7, "transport_legende": "\ud83d\udeb2 \u2764\ufe0f Train TER \ud83d\ude86"}, "geometry": {"type": "Point", "coordinates": [3.290617, 50.46879]}}, {"type": "Feature", "properties": {"start": "Le Poirier Universit\u00e9", "stop_name": "Orchies", "type": "Gare accessible", "transport": "TER", "nombre_trajet_moyen": 3.51, "transport_legende": "\ud83d\udeb2 \u2764\ufe0f Train TER \ud83d\ude86"}, "geometry": {"type": "Point", "coordinates": [3.248871, 50.477028]}}, {"type": "Feature", "properties": {"start": "Le Poirier Universit\u00e9", "stop_name": "Templeuve", "type": "Gare accessible", "transport": "TER", "nombre_trajet_moyen": 1.14, "transport_legende": "\ud83d\udeb2 \u2764\ufe0f Train TER \ud83d\ude86"}, "geometry": {"type": "Point", "coordinates": [3.175668, 50.528694]}}, {"type": "Feature", "properties": {"start": "Le Poirier Universit\u00e9", "stop_name": "Fretin", "type": "Gare accessible", "transport": "TER", "nombre_trajet_moyen": 0.7, "transport_legende": "\ud83d\udeb2 \u2764\ufe0f Train TER \ud83d\ude86"}, "geometry": {"type": "Point", "coordinates": [3.149396, 50.55996]}}, {"type": "Feature", "properties": {"start": "Le Poirier Universit\u00e9", "stop_name": "Lesquin", "type": "Gare accessible", "transport": "TER", "nombre_trajet_moyen": 0.7, "transport_legende": "\ud83d\udeb2 \u2764\ufe0f Train TER \ud83d\ude86"}, "geometry": {"type": "Point", "coordinates": [3.117714, 50.590685]}}, {"type": "Feature", "properties": {"start": "Le Poirier Universit\u00e9", "stop_name": "Lille Flandres", "type": "Gare accessible", "transport": "TER", "nombre_trajet_moyen": 3.51, "transport_legende": "\ud83d\udeb2 \u2764\ufe0f Train TER \ud83d\ude86"}, "geometry": {"type": "Point", "coordinates": [3.06987, 50.636577]}}, {"type": "Feature", "properties": {"start": "Le Poirier Universit\u00e9", "stop_name": "Charleville-M\u00e9zi\u00e8res", "type": "Gare accessible", "transport": "TER", "nombre_trajet_moyen": 0.69, "transport_legende": "\ud83d\udeb2 \u2764\ufe0f Train TER \ud83d\ude86"}, "geometry": {"type": "Point", "coordinates": [4.724344, 49.76763]}}]}