{"type": "FeatureCollection", "features": [{"type": "Feature", "properties": {"start": "Les Lacs", "stop_name": "Les Lacs", "type": "Gare s\u00e9lectionn\u00e9e", "transport": "TER", "nombre_trajet_moyen": 3.02, "transport_legende": "\ud83d\udeb2 \u2764\ufe0f Train TER \ud83d\ude86"}, "geometry": {"type": "Point", "coordinates": [-1.322266, 48.108891]}}, {"type": "Feature", "properties": {"start": "Les Lacs", "stop_name": "Rennes", "type": "Gare accessible", "transport": "TER", "nombre_trajet_moyen": 3.02, "transport_legende": "\ud83d\udeb2 \u2764\ufe0f Train TER \ud83d\ude86"}, "geometry": {"type": "Point", "coordinates": [-1.672744, 48.103517]}}, {"type": "Feature", "properties": {"start": "Les Lacs", "stop_name": "Cesson-S\u00e9vign\u00e9", "type": "Gare accessible", "transport": "TER", "nombre_trajet_moyen": 3.02, "transport_legende": "\ud83d\udeb2 \u2764\ufe0f Train TER \ud83d\ude86"}, "geometry": {"type": "Point", "coordinates": [-1.60211, 48.11281]}}, {"type": "Feature", "properties": {"start": "Les Lacs", "stop_name": "Noyal - Acign\u00e9", "type": "Gare accessible", "transport": "TER", "nombre_trajet_moyen": 3.02, "transport_legende": "\ud83d\udeb2 \u2764\ufe0f Train TER \ud83d\ude86"}, "geometry": {"type": "Point", "coordinates": [-1.527765, 48.118792]}}, {"type": "Feature", "properties": {"start": "Les Lacs", "stop_name": "Servon", "type": "Gare accessible", "transport": "TER", "nombre_trajet_moyen": 3.02, "transport_legende": "\ud83d\udeb2 \u2764\ufe0f Train TER \ud83d\ude86"}, "geometry": {"type": "Point", "coordinates": [-1.46521, 48.112213]}}, {"type": "Feature", "properties": {"start": "Les Lacs", "stop_name": "Ch\u00e2teaubourg", "type": "Gare accessible", "transport": "TER", "nombre_trajet_moyen": 3.02, "transport_legende": "\ud83d\udeb2 \u2764\ufe0f Train TER \ud83d\ude86"}, "geometry": {"type": "Point", "coordinates": [-1.405159, 48.106361]}}, {"type": "Feature", "properties": {"start": "Les Lacs", "stop_name": "Vitr\u00e9", "type": "Gare accessible", "transport": "TER", "nombre_trajet_moyen": 3.02, "transport_legende": "\ud83d\udeb2 \u2764\ufe0f Train TER \ud83d\ude86"}, "geometry": {"type": "Point", "coordinates": [-1.211754, 48.122671]}}]}