{"type": "FeatureCollection", "features": [{"type": "Feature", "properties": {"start": "Limoux - Flassian", "stop_name": "Limoux - Flassian", "type": "Gare s\u00e9lectionn\u00e9e", "transport": "TER", "transport_legende": "\ud83d\udeb2 \u2764\ufe0f Train TER \ud83d\ude86"}, "geometry": {"type": "Point", "coordinates": [2.218283, 43.068451]}}, {"type": "Feature", "properties": {"start": "Limoux - Flassian", "stop_name": "Carcassonne", "type": "Gare accessible", "transport": "TER", "transport_legende": "\ud83d\udeb2 \u2764\ufe0f Train TER \ud83d\ude86"}, "geometry": {"type": "Point", "coordinates": [2.351824, 43.218029]}}, {"type": "Feature", "properties": {"start": "Limoux - Flassian", "stop_name": "Couffoulens Leuc RD104", "type": "Gare accessible", "transport": "TER", "transport_legende": "\ud83d\udeb2 \u2764\ufe0f Train TER \ud83d\ude86"}, "geometry": {"type": "Point", "coordinates": [2.316055, 43.155637]}}, {"type": "Feature", "properties": {"start": "Limoux - Flassian", "stop_name": "Verzeille Route de Saint-Hilaire", "type": "Gare accessible", "transport": "TER", "transport_legende": "\ud83d\udeb2 \u2764\ufe0f Train TER \ud83d\ude86"}, "geometry": {"type": "Point", "coordinates": [2.324605, 43.127446]}}, {"type": "Feature", "properties": {"start": "Limoux - Flassian", "stop_name": "Pomas Lavoir", "type": "Gare accessible", "transport": "TER", "transport_legende": "\ud83d\udeb2 \u2764\ufe0f Train TER \ud83d\ude86"}, "geometry": {"type": "Point", "coordinates": [2.29015, 43.112046]}}, {"type": "Feature", "properties": {"start": "Limoux - Flassian", "stop_name": "Limoux", "type": "Gare accessible", "transport": "TER", "transport_legende": "\ud83d\udeb2 \u2764\ufe0f Train TER \ud83d\ude86"}, "geometry": {"type": "Point", "coordinates": [2.222783, 43.056393]}}, {"type": "Feature", "properties": {"start": "Limoux - Flassian", "stop_name": "Pomas", "type": "Gare accessible", "transport": "TER", "transport_legende": "\ud83d\udeb2 \u2764\ufe0f Train TER \ud83d\ude86"}, "geometry": {"type": "Point", "coordinates": [2.28842, 43.112196]}}, {"type": "Feature", "properties": {"start": "Limoux - Flassian", "stop_name": "Verzeille", "type": "Gare accessible", "transport": "TER", "transport_legende": "\ud83d\udeb2 \u2764\ufe0f Train TER \ud83d\ude86"}, "geometry": {"type": "Point", "coordinates": [2.32155, 43.130422]}}, {"type": "Feature", "properties": {"start": "Limoux - Flassian", "stop_name": "Couffoulens - Leuc", "type": "Gare accessible", "transport": "TER", "transport_legende": "\ud83d\udeb2 \u2764\ufe0f Train TER \ud83d\ude86"}, "geometry": {"type": "Point", "coordinates": [2.316421, 43.155635]}}]}