{"type": "FeatureCollection", "features": [{"type": "Feature", "properties": {"start": "Lisle-sur-Tarn", "stop_name": "Lisle-sur-Tarn", "type": "Gare s\u00e9lectionn\u00e9e", "transport": "TER", "nombre_trajet_moyen": 6.27, "transport_legende": "\ud83d\udeb2 \u2764\ufe0f Train TER \ud83d\ude86"}, "geometry": {"type": "Point", "coordinates": [1.80823, 43.85639]}}, {"type": "Feature", "properties": {"start": "Lisle-sur-Tarn", "stop_name": "Albi Ville", "type": "Gare accessible", "transport": "TER", "nombre_trajet_moyen": 5.85, "transport_legende": "\ud83d\udeb2 \u2764\ufe0f Train TER \ud83d\ude86"}, "geometry": {"type": "Point", "coordinates": [2.137958, 43.92238]}}, {"type": "Feature", "properties": {"start": "Lisle-sur-Tarn", "stop_name": "Gaillac", "type": "Gare accessible", "transport": "TER", "nombre_trajet_moyen": 6.27, "transport_legende": "\ud83d\udeb2 \u2764\ufe0f Train TER \ud83d\ude86"}, "geometry": {"type": "Point", "coordinates": [1.89483, 43.905984]}}, {"type": "Feature", "properties": {"start": "Lisle-sur-Tarn", "stop_name": "Saint-Sulpice", "type": "Gare accessible", "transport": "TER", "nombre_trajet_moyen": 6.27, "transport_legende": "\ud83d\udeb2 \u2764\ufe0f Train TER \ud83d\ude86"}, "geometry": {"type": "Point", "coordinates": [1.680702, 43.775073]}}, {"type": "Feature", "properties": {"start": "Lisle-sur-Tarn", "stop_name": "Toulouse Matabiau", "type": "Gare accessible", "transport": "TER", "nombre_trajet_moyen": 6.27, "transport_legende": "\ud83d\udeb2 \u2764\ufe0f Train TER \ud83d\ude86"}, "geometry": {"type": "Point", "coordinates": [1.453616, 43.611206]}}, {"type": "Feature", "properties": {"start": "Lisle-sur-Tarn", "stop_name": "Carmaux", "type": "Gare accessible", "transport": "TER", "nombre_trajet_moyen": 5.64, "transport_legende": "\ud83d\udeb2 \u2764\ufe0f Train TER \ud83d\ude86"}, "geometry": {"type": "Point", "coordinates": [2.152401, 44.048782]}}, {"type": "Feature", "properties": {"start": "Lisle-sur-Tarn", "stop_name": "Albi Madeleine", "type": "Gare accessible", "transport": "TER", "nombre_trajet_moyen": 5.64, "transport_legende": "\ud83d\udeb2 \u2764\ufe0f Train TER \ud83d\ude86"}, "geometry": {"type": "Point", "coordinates": [2.141209, 43.938137]}}, {"type": "Feature", "properties": {"start": "Lisle-sur-Tarn", "stop_name": "Rabastens - Coufouleux", "type": "Gare accessible", "transport": "TER", "nombre_trajet_moyen": 5.64, "transport_legende": "\ud83d\udeb2 \u2764\ufe0f Train TER \ud83d\ude86"}, "geometry": {"type": "Point", "coordinates": [1.730455, 43.819654]}}, {"type": "Feature", "properties": {"start": "Lisle-sur-Tarn", "stop_name": "Gragnague", "type": "Gare accessible", "transport": "TER", "nombre_trajet_moyen": 4.15, "transport_legende": "\ud83d\udeb2 \u2764\ufe0f Train TER \ud83d\ude86"}, "geometry": {"type": "Point", "coordinates": [1.567514, 43.695951]}}, {"type": "Feature", "properties": {"start": "Lisle-sur-Tarn", "stop_name": "Montastruc-la-Conseill\u00e8re", "type": "Gare accessible", "transport": "TER", "nombre_trajet_moyen": 4.15, "transport_legende": "\ud83d\udeb2 \u2764\ufe0f Train TER \ud83d\ude86"}, "geometry": {"type": "Point", "coordinates": [1.598016, 43.715984]}}, {"type": "Feature", "properties": {"start": "Lisle-sur-Tarn", "stop_name": "Tessonni\u00e8res", "type": "Gare accessible", "transport": "TER", "nombre_trajet_moyen": 4.68, "transport_legende": "\ud83d\udeb2 \u2764\ufe0f Train TER \ud83d\ude86"}, "geometry": {"type": "Point", "coordinates": [1.936953, 43.928421]}}, {"type": "Feature", "properties": {"start": "Lisle-sur-Tarn", "stop_name": "Marssac-sur-Tarn RN88", "type": "Gare accessible", "transport": "TER", "nombre_trajet_moyen": 0.01, "transport_legende": "\ud83d\udeb2 \u2764\ufe0f Train TER \ud83d\ude86"}, "geometry": {"type": "Point", "coordinates": [2.028608, 43.918546]}}, {"type": "Feature", "properties": {"start": "Lisle-sur-Tarn", "stop_name": "Naucelle", "type": "Gare accessible", "transport": "TER", "nombre_trajet_moyen": 4.26, "transport_legende": "\ud83d\udeb2 \u2764\ufe0f Train TER \ud83d\ude86"}, "geometry": {"type": "Point", "coordinates": [2.363259, 44.185439]}}, {"type": "Feature", "properties": {"start": "Lisle-sur-Tarn", "stop_name": "Baraqueville", "type": "Gare accessible", "transport": "TER", "nombre_trajet_moyen": 4.26, "transport_legende": "\ud83d\udeb2 \u2764\ufe0f Train TER \ud83d\ude86"}, "geometry": {"type": "Point", "coordinates": [2.4274, 44.270512]}}, {"type": "Feature", "properties": {"start": "Lisle-sur-Tarn", "stop_name": "Luc-Primaube", "type": "Gare accessible", "transport": "TER", "nombre_trajet_moyen": 4.26, "transport_legende": "\ud83d\udeb2 \u2764\ufe0f Train TER \ud83d\ude86"}, "geometry": {"type": "Point", "coordinates": [2.554776, 44.2915]}}, {"type": "Feature", "properties": {"start": "Lisle-sur-Tarn", "stop_name": "Rodez", "type": "Gare accessible", "transport": "TER", "nombre_trajet_moyen": 4.26, "transport_legende": "\ud83d\udeb2 \u2764\ufe0f Train TER \ud83d\ude86"}, "geometry": {"type": "Point", "coordinates": [2.58056, 44.362633]}}, {"type": "Feature", "properties": {"start": "Lisle-sur-Tarn", "stop_name": "Tanus", "type": "Gare accessible", "transport": "TER", "nombre_trajet_moyen": 2.63, "transport_legende": "\ud83d\udeb2 \u2764\ufe0f Train TER \ud83d\ude86"}, "geometry": {"type": "Point", "coordinates": [2.314921, 44.100443]}}, {"type": "Feature", "properties": {"start": "Lisle-sur-Tarn", "stop_name": "Marssac-sur-tarn", "type": "Gare accessible", "transport": "TER", "nombre_trajet_moyen": 4.14, "transport_legende": "\ud83d\udeb2 \u2764\ufe0f Train TER \ud83d\ude86"}, "geometry": {"type": "Point", "coordinates": [2.02678, 43.91523]}}, {"type": "Feature", "properties": {"start": "Lisle-sur-Tarn", "stop_name": "Roques\u00e9ri\u00e8re - Buzet", "type": "Gare accessible", "transport": "TER", "nombre_trajet_moyen": 1.68, "transport_legende": "\ud83d\udeb2 \u2764\ufe0f Train TER \ud83d\ude86"}, "geometry": {"type": "Point", "coordinates": [1.619875, 43.751247]}}, {"type": "Feature", "properties": {"start": "Lisle-sur-Tarn", "stop_name": "Montrab\u00e9", "type": "Gare accessible", "transport": "TER", "nombre_trajet_moyen": 2.32, "transport_legende": "\ud83d\udeb2 \u2764\ufe0f Train TER \ud83d\ude86"}, "geometry": {"type": "Point", "coordinates": [1.524006, 43.644907]}}, {"type": "Feature", "properties": {"start": "Lisle-sur-Tarn", "stop_name": "Capdenac", "type": "Gare accessible", "transport": "TER", "nombre_trajet_moyen": 2.75, "transport_legende": "\ud83d\udeb2 \u2764\ufe0f Train TER \ud83d\ude86"}, "geometry": {"type": "Point", "coordinates": [2.077963, 44.578246]}}, {"type": "Feature", "properties": {"start": "Lisle-sur-Tarn", "stop_name": "Salles-Courbati\u00e8s", "type": "Gare accessible", "transport": "TER", "nombre_trajet_moyen": 2.75, "transport_legende": "\ud83d\udeb2 \u2764\ufe0f Train TER \ud83d\ude86"}, "geometry": {"type": "Point", "coordinates": [2.07892, 44.475085]}}, {"type": "Feature", "properties": {"start": "Lisle-sur-Tarn", "stop_name": "Villefranche-de-Rouergue", "type": "Gare accessible", "transport": "TER", "nombre_trajet_moyen": 2.75, "transport_legende": "\ud83d\udeb2 \u2764\ufe0f Train TER \ud83d\ude86"}, "geometry": {"type": "Point", "coordinates": [2.036459, 44.347498]}}, {"type": "Feature", "properties": {"start": "Lisle-sur-Tarn", "stop_name": "Najac", "type": "Gare accessible", "transport": "TER", "nombre_trajet_moyen": 2.75, "transport_legende": "\ud83d\udeb2 \u2764\ufe0f Train TER \ud83d\ude86"}, "geometry": {"type": "Point", "coordinates": [1.976163, 44.221802]}}, {"type": "Feature", "properties": {"start": "Lisle-sur-Tarn", "stop_name": "Lagu\u00e9pie", "type": "Gare accessible", "transport": "TER", "nombre_trajet_moyen": 2.75, "transport_legende": "\ud83d\udeb2 \u2764\ufe0f Train TER \ud83d\ude86"}, "geometry": {"type": "Point", "coordinates": [1.968591, 44.145485]}}, {"type": "Feature", "properties": {"start": "Lisle-sur-Tarn", "stop_name": "Lexos", "type": "Gare accessible", "transport": "TER", "nombre_trajet_moyen": 2.75, "transport_legende": "\ud83d\udeb2 \u2764\ufe0f Train TER \ud83d\ude86"}, "geometry": {"type": "Point", "coordinates": [1.885101, 44.142396]}}, {"type": "Feature", "properties": {"start": "Lisle-sur-Tarn", "stop_name": "Cordes - Vindrac", "type": "Gare accessible", "transport": "TER", "nombre_trajet_moyen": 2.75, "transport_legende": "\ud83d\udeb2 \u2764\ufe0f Train TER \ud83d\ude86"}, "geometry": {"type": "Point", "coordinates": [1.900229, 44.067189]}}, {"type": "Feature", "properties": {"start": "Lisle-sur-Tarn", "stop_name": "Figeac", "type": "Gare accessible", "transport": "TER", "nombre_trajet_moyen": 0.67, "transport_legende": "\ud83d\udeb2 \u2764\ufe0f Train TER \ud83d\ude86"}, "geometry": {"type": "Point", "coordinates": [2.037355, 44.603515]}}]}