{"type": "FeatureCollection", "features": [{"type": "Feature", "properties": {"start": "Meximieux - P\u00e9rouges", "stop_name": "Meximieux - P\u00e9rouges", "type": "Gare s\u00e9lectionn\u00e9e", "transport": "TER", "nombre_trajet_moyen": 9.48, "transport_legende": "\ud83d\udeb2 \u2764\ufe0f Train TER \ud83d\ude86"}, "geometry": {"type": "Point", "coordinates": [5.193296, 45.901783]}}, {"type": "Feature", "properties": {"start": "Meximieux - P\u00e9rouges", "stop_name": "Amb\u00e9rieu-en-Bugey", "type": "Gare accessible", "transport": "TER", "nombre_trajet_moyen": 7.76, "transport_legende": "\ud83d\udeb2 \u2764\ufe0f Train TER \ud83d\ude86"}, "geometry": {"type": "Point", "coordinates": [5.342402, 45.954014]}}, {"type": "Feature", "properties": {"start": "Meximieux - P\u00e9rouges", "stop_name": "Montluel", "type": "Gare accessible", "transport": "TER", "nombre_trajet_moyen": 7.25, "transport_legende": "\ud83d\udeb2 \u2764\ufe0f Train TER \ud83d\ude86"}, "geometry": {"type": "Point", "coordinates": [5.05753, 45.847783]}}, {"type": "Feature", "properties": {"start": "Meximieux - P\u00e9rouges", "stop_name": "Lyon-Part-Dieu Gare Routi\u00e8re", "type": "Gare accessible", "transport": "TER", "nombre_trajet_moyen": 0.78, "transport_legende": "\ud83d\udeb2 \u2764\ufe0f Train TER \ud83d\ude86"}, "geometry": {"type": "Point", "coordinates": [4.862984, 45.761064]}}, {"type": "Feature", "properties": {"start": "Meximieux - P\u00e9rouges", "stop_name": "Miribel-RD1084-\u00c9lys\u00e9e", "type": "Gare accessible", "transport": "TER", "nombre_trajet_moyen": 0.35, "transport_legende": "\ud83d\udeb2 \u2764\ufe0f Train TER \ud83d\ude86"}, "geometry": {"type": "Point", "coordinates": [4.95419, 45.824463]}}, {"type": "Feature", "properties": {"start": "Meximieux - P\u00e9rouges", "stop_name": "St-Maurice-Beynost D1084 Cte", "type": "Gare accessible", "transport": "TER", "nombre_trajet_moyen": 0.35, "transport_legende": "\ud83d\udeb2 \u2764\ufe0f Train TER \ud83d\ude86"}, "geometry": {"type": "Point", "coordinates": [4.977509, 45.829203]}}, {"type": "Feature", "properties": {"start": "Meximieux - P\u00e9rouges", "stop_name": "Beynost RD 1084 Gare", "type": "Gare accessible", "transport": "TER", "nombre_trajet_moyen": 0.35, "transport_legende": "\ud83d\udeb2 \u2764\ufe0f Train TER \ud83d\ude86"}, "geometry": {"type": "Point", "coordinates": [5.005507, 45.836729]}}, {"type": "Feature", "properties": {"start": "Meximieux - P\u00e9rouges", "stop_name": "La Valbonne", "type": "Gare accessible", "transport": "TER", "nombre_trajet_moyen": 6.84, "transport_legende": "\ud83d\udeb2 \u2764\ufe0f Train TER \ud83d\ude86"}, "geometry": {"type": "Point", "coordinates": [5.124964, 45.849268]}}, {"type": "Feature", "properties": {"start": "Meximieux - P\u00e9rouges", "stop_name": "Lyon Perrache", "type": "Gare accessible", "transport": "TER", "nombre_trajet_moyen": 0.87, "transport_legende": "\ud83d\udeb2 \u2764\ufe0f Train TER \ud83d\ude86"}, "geometry": {"type": "Point", "coordinates": [4.825777, 45.748508]}}, {"type": "Feature", "properties": {"start": "Meximieux - P\u00e9rouges", "stop_name": "Lyon Part Dieu", "type": "Gare accessible", "transport": "TER", "nombre_trajet_moyen": 8.98, "transport_legende": "\ud83d\udeb2 \u2764\ufe0f Train TER \ud83d\ude86"}, "geometry": {"type": "Point", "coordinates": [4.859409, 45.760596]}}, {"type": "Feature", "properties": {"start": "Meximieux - P\u00e9rouges", "stop_name": "Miribel", "type": "Gare accessible", "transport": "TER", "nombre_trajet_moyen": 6.75, "transport_legende": "\ud83d\udeb2 \u2764\ufe0f Train TER \ud83d\ude86"}, "geometry": {"type": "Point", "coordinates": [4.953922, 45.822091]}}, {"type": "Feature", "properties": {"start": "Meximieux - P\u00e9rouges", "stop_name": "Saint-Maurice-de-Beynost", "type": "Gare accessible", "transport": "TER", "nombre_trajet_moyen": 6.75, "transport_legende": "\ud83d\udeb2 \u2764\ufe0f Train TER \ud83d\ude86"}, "geometry": {"type": "Point", "coordinates": [4.976986, 45.827421]}}, {"type": "Feature", "properties": {"start": "Meximieux - P\u00e9rouges", "stop_name": "Beynost", "type": "Gare accessible", "transport": "TER", "nombre_trajet_moyen": 6.75, "transport_legende": "\ud83d\udeb2 \u2764\ufe0f Train TER \ud83d\ude86"}, "geometry": {"type": "Point", "coordinates": [5.006947, 45.833898]}}, {"type": "Feature", "properties": {"start": "Meximieux - P\u00e9rouges", "stop_name": "Bourg-en-Bresse", "type": "Gare accessible", "transport": "TER", "nombre_trajet_moyen": 0.87, "transport_legende": "\ud83d\udeb2 \u2764\ufe0f Train TER \ud83d\ude86"}, "geometry": {"type": "Point", "coordinates": [5.215011, 46.200111]}}, {"type": "Feature", "properties": {"start": "Meximieux - P\u00e9rouges", "stop_name": "Cr\u00e9pieux la Pape", "type": "Gare accessible", "transport": "TER", "nombre_trajet_moyen": 6.71, "transport_legende": "\ud83d\udeb2 \u2764\ufe0f Train TER \ud83d\ude86"}, "geometry": {"type": "Point", "coordinates": [4.892701, 45.803918]}}, {"type": "Feature", "properties": {"start": "Meximieux - P\u00e9rouges", "stop_name": "Givors Ville", "type": "Gare accessible", "transport": "TER", "nombre_trajet_moyen": 6.09, "transport_legende": "\ud83d\udeb2 \u2764\ufe0f Train TER \ud83d\ude86"}, "geometry": {"type": "Point", "coordinates": [4.766086, 45.584948]}}, {"type": "Feature", "properties": {"start": "Meximieux - P\u00e9rouges", "stop_name": "Rive-de-Gier", "type": "Gare accessible", "transport": "TER", "nombre_trajet_moyen": 5.82, "transport_legende": "\ud83d\udeb2 \u2764\ufe0f Train TER \ud83d\ude86"}, "geometry": {"type": "Point", "coordinates": [4.606648, 45.524324]}}, {"type": "Feature", "properties": {"start": "Meximieux - P\u00e9rouges", "stop_name": "Saint-Chamond", "type": "Gare accessible", "transport": "TER", "nombre_trajet_moyen": 5.82, "transport_legende": "\ud83d\udeb2 \u2764\ufe0f Train TER \ud83d\ude86"}, "geometry": {"type": "Point", "coordinates": [4.516971, 45.472557]}}, {"type": "Feature", "properties": {"start": "Meximieux - P\u00e9rouges", "stop_name": "Saint-\u00c9tienne Ch\u00e2teaucreux", "type": "Gare accessible", "transport": "TER", "nombre_trajet_moyen": 5.82, "transport_legende": "\ud83d\udeb2 \u2764\ufe0f Train TER \ud83d\ude86"}, "geometry": {"type": "Point", "coordinates": [4.399722, 45.443366]}}, {"type": "Feature", "properties": {"start": "Meximieux - P\u00e9rouges", "stop_name": "Lons-le-Saunier", "type": "Gare accessible", "transport": "TER", "nombre_trajet_moyen": 0.84, "transport_legende": "\ud83d\udeb2 \u2764\ufe0f Train TER \ud83d\ude86"}, "geometry": {"type": "Point", "coordinates": [5.551108, 46.66858]}}, {"type": "Feature", "properties": {"start": "Meximieux - P\u00e9rouges", "stop_name": "Cousance", "type": "Gare accessible", "transport": "TER", "nombre_trajet_moyen": 0.84, "transport_legende": "\ud83d\udeb2 \u2764\ufe0f Train TER \ud83d\ude86"}, "geometry": {"type": "Point", "coordinates": [5.386986, 46.535169]}}, {"type": "Feature", "properties": {"start": "Meximieux - P\u00e9rouges", "stop_name": "Saint-Amour", "type": "Gare accessible", "transport": "TER", "nombre_trajet_moyen": 0.84, "transport_legende": "\ud83d\udeb2 \u2764\ufe0f Train TER \ud83d\ude86"}, "geometry": {"type": "Point", "coordinates": [5.334427, 46.433733]}}, {"type": "Feature", "properties": {"start": "Meximieux - P\u00e9rouges", "stop_name": "Tenay - Hauteville", "type": "Gare accessible", "transport": "TER", "nombre_trajet_moyen": 2.3, "transport_legende": "\ud83d\udeb2 \u2764\ufe0f Train TER \ud83d\ude86"}, "geometry": {"type": "Point", "coordinates": [5.50161, 45.92221]}}, {"type": "Feature", "properties": {"start": "Meximieux - P\u00e9rouges", "stop_name": "Virieu-le-Grand - Belley", "type": "Gare accessible", "transport": "TER", "nombre_trajet_moyen": 1.67, "transport_legende": "\ud83d\udeb2 \u2764\ufe0f Train TER \ud83d\ude86"}, "geometry": {"type": "Point", "coordinates": [5.65363, 45.848323]}}, {"type": "Feature", "properties": {"start": "Meximieux - P\u00e9rouges", "stop_name": "Culoz", "type": "Gare accessible", "transport": "TER", "nombre_trajet_moyen": 2.3, "transport_legende": "\ud83d\udeb2 \u2764\ufe0f Train TER \ud83d\ude86"}, "geometry": {"type": "Point", "coordinates": [5.778728, 45.843278]}}, {"type": "Feature", "properties": {"start": "Meximieux - P\u00e9rouges", "stop_name": "Seyssel - Corbonod", "type": "Gare accessible", "transport": "TER", "nombre_trajet_moyen": 2.3, "transport_legende": "\ud83d\udeb2 \u2764\ufe0f Train TER \ud83d\ude86"}, "geometry": {"type": "Point", "coordinates": [5.831503, 45.963074]}}, {"type": "Feature", "properties": {"start": "Meximieux - P\u00e9rouges", "stop_name": "Bellegarde", "type": "Gare accessible", "transport": "TER", "nombre_trajet_moyen": 2.3, "transport_legende": "\ud83d\udeb2 \u2764\ufe0f Train TER \ud83d\ude86"}, "geometry": {"type": "Point", "coordinates": [5.823483, 46.109425]}}, {"type": "Feature", "properties": {"start": "Meximieux - P\u00e9rouges", "stop_name": "Gen\u00e8ve", "type": "Gare accessible", "transport": "TER", "nombre_trajet_moyen": 2.23, "transport_legende": "\ud83d\udeb2 \u2764\ufe0f Train TER \ud83d\ude86"}, "geometry": {"type": "Point", "coordinates": [6.14244, 46.21022]}}]}