{"type": "FeatureCollection", "features": [{"type": "Feature", "properties": {"start": "Millau", "stop_name": "Millau", "type": "Gare s\u00e9lectionn\u00e9e", "transport": "TER", "nombre_trajet_moyen": 1.36, "transport_legende": "\ud83d\udeb2 \u2764\ufe0f Train TER \ud83d\ude86"}, "geometry": {"type": "Point", "coordinates": [3.07457, 44.102344]}}, {"type": "Feature", "properties": {"start": "Millau", "stop_name": "B\u00e9ziers", "type": "Gare accessible", "transport": "TER", "nombre_trajet_moyen": 1.36, "transport_legende": "\ud83d\udeb2 \u2764\ufe0f Train TER \ud83d\ude86"}, "geometry": {"type": "Point", "coordinates": [3.218895, 43.336295]}}, {"type": "Feature", "properties": {"start": "Millau", "stop_name": "Magalas", "type": "Gare accessible", "transport": "TER", "nombre_trajet_moyen": 1.36, "transport_legende": "\ud83d\udeb2 \u2764\ufe0f Train TER \ud83d\ude86"}, "geometry": {"type": "Point", "coordinates": [3.229541, 43.4676]}}, {"type": "Feature", "properties": {"start": "Millau", "stop_name": "B\u00e9darieux", "type": "Gare accessible", "transport": "TER", "nombre_trajet_moyen": 1.36, "transport_legende": "\ud83d\udeb2 \u2764\ufe0f Train TER \ud83d\ude86"}, "geometry": {"type": "Point", "coordinates": [3.149569, 43.608697]}}, {"type": "Feature", "properties": {"start": "Millau", "stop_name": "Le Bousquet-d'Orb", "type": "Gare accessible", "transport": "TER", "nombre_trajet_moyen": 1.3, "transport_legende": "\ud83d\udeb2 \u2764\ufe0f Train TER \ud83d\ude86"}, "geometry": {"type": "Point", "coordinates": [3.168938, 43.69121]}}, {"type": "Feature", "properties": {"start": "Millau", "stop_name": "Lunas", "type": "Gare accessible", "transport": "TER", "nombre_trajet_moyen": 1.3, "transport_legende": "\ud83d\udeb2 \u2764\ufe0f Train TER \ud83d\ude86"}, "geometry": {"type": "Point", "coordinates": [3.194899, 43.709581]}}, {"type": "Feature", "properties": {"start": "Millau", "stop_name": "Les Cabrils", "type": "Gare accessible", "transport": "TER", "nombre_trajet_moyen": 1.3, "transport_legende": "\ud83d\udeb2 \u2764\ufe0f Train TER \ud83d\ude86"}, "geometry": {"type": "Point", "coordinates": [3.186083, 43.779707]}}, {"type": "Feature", "properties": {"start": "Millau", "stop_name": "Ceilhes - Roqueredonde", "type": "Gare accessible", "transport": "TER", "nombre_trajet_moyen": 1.3, "transport_legende": "\ud83d\udeb2 \u2764\ufe0f Train TER \ud83d\ude86"}, "geometry": {"type": "Point", "coordinates": [3.155302, 43.812151]}}, {"type": "Feature", "properties": {"start": "Millau", "stop_name": "Montpaon", "type": "Gare accessible", "transport": "TER", "nombre_trajet_moyen": 1.3, "transport_legende": "\ud83d\udeb2 \u2764\ufe0f Train TER \ud83d\ude86"}, "geometry": {"type": "Point", "coordinates": [3.109722, 43.868524]}}, {"type": "Feature", "properties": {"start": "Millau", "stop_name": "Tournemire - Roquefort", "type": "Gare accessible", "transport": "TER", "nombre_trajet_moyen": 1.3, "transport_legende": "\ud83d\udeb2 \u2764\ufe0f Train TER \ud83d\ude86"}, "geometry": {"type": "Point", "coordinates": [3.016626, 43.9698]}}, {"type": "Feature", "properties": {"start": "Millau", "stop_name": "Saint-Rome-de-Cernon", "type": "Gare accessible", "transport": "TER", "nombre_trajet_moyen": 1.36, "transport_legende": "\ud83d\udeb2 \u2764\ufe0f Train TER \ud83d\ude86"}, "geometry": {"type": "Point", "coordinates": [2.967374, 44.013981]}}, {"type": "Feature", "properties": {"start": "Millau", "stop_name": "Saint-Georges-de-Luzen\u00e7on", "type": "Gare accessible", "transport": "TER", "nombre_trajet_moyen": 1.3, "transport_legende": "\ud83d\udeb2 \u2764\ufe0f Train TER \ud83d\ude86"}, "geometry": {"type": "Point", "coordinates": [2.983784, 44.066553]}}, {"type": "Feature", "properties": {"start": "Millau", "stop_name": "S\u00e9v\u00e9rac-le-Ch\u00e2teau", "type": "Gare accessible", "transport": "TER", "nombre_trajet_moyen": 0.68, "transport_legende": "\ud83d\udeb2 \u2764\ufe0f Train TER \ud83d\ude86"}, "geometry": {"type": "Point", "coordinates": [3.056945, 44.324652]}}, {"type": "Feature", "properties": {"start": "Millau", "stop_name": "Campagnac - Saint-Geniez", "type": "Gare accessible", "transport": "TER", "nombre_trajet_moyen": 0.68, "transport_legende": "\ud83d\udeb2 \u2764\ufe0f Train TER \ud83d\ude86"}, "geometry": {"type": "Point", "coordinates": [3.066401, 44.421956]}}, {"type": "Feature", "properties": {"start": "Millau", "stop_name": "Banassac - La Canourgue", "type": "Gare accessible", "transport": "TER", "nombre_trajet_moyen": 0.68, "transport_legende": "\ud83d\udeb2 \u2764\ufe0f Train TER \ud83d\ude86"}, "geometry": {"type": "Point", "coordinates": [3.195852, 44.447763]}}, {"type": "Feature", "properties": {"start": "Millau", "stop_name": "Le Monastier", "type": "Gare accessible", "transport": "TER", "nombre_trajet_moyen": 0.68, "transport_legende": "\ud83d\udeb2 \u2764\ufe0f Train TER \ud83d\ude86"}, "geometry": {"type": "Point", "coordinates": [3.25213, 44.508936]}}, {"type": "Feature", "properties": {"start": "Millau", "stop_name": "Marvejols", "type": "Gare accessible", "transport": "TER", "nombre_trajet_moyen": 0.68, "transport_legende": "\ud83d\udeb2 \u2764\ufe0f Train TER \ud83d\ude86"}, "geometry": {"type": "Point", "coordinates": [3.281119, 44.544675]}}, {"type": "Feature", "properties": {"start": "Millau", "stop_name": "Aumont-Aubrac", "type": "Gare accessible", "transport": "TER", "nombre_trajet_moyen": 0.68, "transport_legende": "\ud83d\udeb2 \u2764\ufe0f Train TER \ud83d\ude86"}, "geometry": {"type": "Point", "coordinates": [3.283582, 44.718235]}}, {"type": "Feature", "properties": {"start": "Millau", "stop_name": "Saint-Ch\u00e9ly-d'Apcher", "type": "Gare accessible", "transport": "TER", "nombre_trajet_moyen": 0.68, "transport_legende": "\ud83d\udeb2 \u2764\ufe0f Train TER \ud83d\ude86"}, "geometry": {"type": "Point", "coordinates": [3.270857, 44.801791]}}, {"type": "Feature", "properties": {"start": "Millau", "stop_name": "Chirac", "type": "Gare accessible", "transport": "TER", "nombre_trajet_moyen": 0.08, "transport_legende": "\ud83d\udeb2 \u2764\ufe0f Train TER \ud83d\ude86"}, "geometry": {"type": "Point", "coordinates": [3.263818, 44.524661]}}, {"type": "Feature", "properties": {"start": "Millau", "stop_name": "Montpellier Saint-Roch", "type": "Gare accessible", "transport": "TER", "nombre_trajet_moyen": 0.07, "transport_legende": "\ud83d\udeb2 \u2764\ufe0f Train TER \ud83d\ude86"}, "geometry": {"type": "Point", "coordinates": [3.880674, 43.604738]}}, {"type": "Feature", "properties": {"start": "Millau", "stop_name": "Frontignan", "type": "Gare accessible", "transport": "TER", "nombre_trajet_moyen": 0.07, "transport_legende": "\ud83d\udeb2 \u2764\ufe0f Train TER \ud83d\ude86"}, "geometry": {"type": "Point", "coordinates": [3.758689, 43.444934]}}, {"type": "Feature", "properties": {"start": "Millau", "stop_name": "S\u00e8te", "type": "Gare accessible", "transport": "TER", "nombre_trajet_moyen": 0.07, "transport_legende": "\ud83d\udeb2 \u2764\ufe0f Train TER \ud83d\ude86"}, "geometry": {"type": "Point", "coordinates": [3.696571, 43.412641]}}, {"type": "Feature", "properties": {"start": "Millau", "stop_name": "Agde", "type": "Gare accessible", "transport": "TER", "nombre_trajet_moyen": 0.07, "transport_legende": "\ud83d\udeb2 \u2764\ufe0f Train TER \ud83d\ude86"}, "geometry": {"type": "Point", "coordinates": [3.466203, 43.31728]}}]}