{"type": "FeatureCollection", "features": [{"type": "Feature", "properties": {"start": "Mo\u00fbtiers-Salins-Brides-les-B.", "stop_name": "Mo\u00fbtiers-Salins-Brides-les-B.", "type": "Gare s\u00e9lectionn\u00e9e", "transport": "TER", "transport_legende": "\ud83d\udeb2 \u2764\ufe0f Train TER \ud83d\ude86"}, "geometry": {"type": "Point", "coordinates": [6.531399, 45.48647]}}, {"type": "Feature", "properties": {"start": "Mo\u00fbtiers-Salins-Brides-les-B.", "stop_name": "Bourg-Saint-Maurice", "type": "Gare accessible", "transport": "TER", "transport_legende": "\ud83d\udeb2 \u2764\ufe0f Train TER \ud83d\ude86"}, "geometry": {"type": "Point", "coordinates": [6.771273, 45.619036]}}, {"type": "Feature", "properties": {"start": "Mo\u00fbtiers-Salins-Brides-les-B.", "stop_name": "Landry", "type": "Gare accessible", "transport": "TER", "transport_legende": "\ud83d\udeb2 \u2764\ufe0f Train TER \ud83d\ude86"}, "geometry": {"type": "Point", "coordinates": [6.733849, 45.574213]}}, {"type": "Feature", "properties": {"start": "Mo\u00fbtiers-Salins-Brides-les-B.", "stop_name": "Aime - La Plagne", "type": "Gare accessible", "transport": "TER", "transport_legende": "\ud83d\udeb2 \u2764\ufe0f Train TER \ud83d\ude86"}, "geometry": {"type": "Point", "coordinates": [6.648614, 45.554387]}}, {"type": "Feature", "properties": {"start": "Mo\u00fbtiers-Salins-Brides-les-B.", "stop_name": "Notre-Dame de Brian\u00e7on", "type": "Gare accessible", "transport": "TER", "transport_legende": "\ud83d\udeb2 \u2764\ufe0f Train TER \ud83d\ude86"}, "geometry": {"type": "Point", "coordinates": [6.468855, 45.539384]}}, {"type": "Feature", "properties": {"start": "Mo\u00fbtiers-Salins-Brides-les-B.", "stop_name": "Albertville", "type": "Gare accessible", "transport": "TER", "transport_legende": "\ud83d\udeb2 \u2764\ufe0f Train TER \ud83d\ude86"}, "geometry": {"type": "Point", "coordinates": [6.383167, 45.672977]}}, {"type": "Feature", "properties": {"start": "Mo\u00fbtiers-Salins-Brides-les-B.", "stop_name": "Frontenex", "type": "Gare accessible", "transport": "TER", "transport_legende": "\ud83d\udeb2 \u2764\ufe0f Train TER \ud83d\ude86"}, "geometry": {"type": "Point", "coordinates": [6.314041, 45.630568]}}, {"type": "Feature", "properties": {"start": "Mo\u00fbtiers-Salins-Brides-les-B.", "stop_name": "Gr\u00e9sy-sur-Is\u00e8re", "type": "Gare accessible", "transport": "TER", "transport_legende": "\ud83d\udeb2 \u2764\ufe0f Train TER \ud83d\ude86"}, "geometry": {"type": "Point", "coordinates": [6.258838, 45.594467]}}, {"type": "Feature", "properties": {"start": "Mo\u00fbtiers-Salins-Brides-les-B.", "stop_name": "Saint-Pierre-d'Albigny", "type": "Gare accessible", "transport": "TER", "transport_legende": "\ud83d\udeb2 \u2764\ufe0f Train TER \ud83d\ude86"}, "geometry": {"type": "Point", "coordinates": [6.156289, 45.557399]}}, {"type": "Feature", "properties": {"start": "Mo\u00fbtiers-Salins-Brides-les-B.", "stop_name": "Montm\u00e9lian", "type": "Gare accessible", "transport": "TER", "transport_legende": "\ud83d\udeb2 \u2764\ufe0f Train TER \ud83d\ude86"}, "geometry": {"type": "Point", "coordinates": [6.043175, 45.503082]}}, {"type": "Feature", "properties": {"start": "Mo\u00fbtiers-Salins-Brides-les-B.", "stop_name": "Chamb\u00e9ry - Challes-les-Eaux", "type": "Gare accessible", "transport": "TER", "transport_legende": "\ud83d\udeb2 \u2764\ufe0f Train TER \ud83d\ude86"}, "geometry": {"type": "Point", "coordinates": [5.919547, 45.571302]}}, {"type": "Feature", "properties": {"start": "Mo\u00fbtiers-Salins-Brides-les-B.", "stop_name": "L\u00e9pin-le-Lac - La Bauche", "type": "Gare accessible", "transport": "TER", "transport_legende": "\ud83d\udeb2 \u2764\ufe0f Train TER \ud83d\ude86"}, "geometry": {"type": "Point", "coordinates": [5.764584, 45.541547]}}, {"type": "Feature", "properties": {"start": "Mo\u00fbtiers-Salins-Brides-les-B.", "stop_name": "Pont-de-Beauvoisin", "type": "Gare accessible", "transport": "TER", "transport_legende": "\ud83d\udeb2 \u2764\ufe0f Train TER \ud83d\ude86"}, "geometry": {"type": "Point", "coordinates": [5.680801, 45.524597]}}, {"type": "Feature", "properties": {"start": "Mo\u00fbtiers-Salins-Brides-les-B.", "stop_name": "La Tour-du-Pin", "type": "Gare accessible", "transport": "TER", "transport_legende": "\ud83d\udeb2 \u2764\ufe0f Train TER \ud83d\ude86"}, "geometry": {"type": "Point", "coordinates": [5.449582, 45.560287]}}, {"type": "Feature", "properties": {"start": "Mo\u00fbtiers-Salins-Brides-les-B.", "stop_name": "Bourgoin-Jallieu", "type": "Gare accessible", "transport": "TER", "transport_legende": "\ud83d\udeb2 \u2764\ufe0f Train TER \ud83d\ude86"}, "geometry": {"type": "Point", "coordinates": [5.273362, 45.583982]}}, {"type": "Feature", "properties": {"start": "Mo\u00fbtiers-Salins-Brides-les-B.", "stop_name": "Lyon Part Dieu", "type": "Gare accessible", "transport": "TER", "transport_legende": "\ud83d\udeb2 \u2764\ufe0f Train TER \ud83d\ude86"}, "geometry": {"type": "Point", "coordinates": [4.859409, 45.760596]}}, {"type": "Feature", "properties": {"start": "Mo\u00fbtiers-Salins-Brides-les-B.", "stop_name": "Lyon-Part-Dieu Gare Routi\u00e8re", "type": "Gare accessible", "transport": "TER", "transport_legende": "\ud83d\udeb2 \u2764\ufe0f Train TER \ud83d\ude86"}, "geometry": {"type": "Point", "coordinates": [4.862984, 45.761064]}}, {"type": "Feature", "properties": {"start": "Mo\u00fbtiers-Salins-Brides-les-B.", "stop_name": "Moutiers-Lyc\u00e9e", "type": "Gare accessible", "transport": "TER", "transport_legende": "\ud83d\udeb2 \u2764\ufe0f Train TER \ud83d\ude86"}, "geometry": {"type": "Point", "coordinates": [6.527204, 45.483121]}}, {"type": "Feature", "properties": {"start": "Mo\u00fbtiers-Salins-Brides-les-B.", "stop_name": "La Bathie", "type": "Gare accessible", "transport": "TER", "transport_legende": "\ud83d\udeb2 \u2764\ufe0f Train TER \ud83d\ude86"}, "geometry": {"type": "Point", "coordinates": [6.445101, 45.630508]}}, {"type": "Feature", "properties": {"start": "Mo\u00fbtiers-Salins-Brides-les-B.", "stop_name": "C\u00e9vins-\u00e9changeur", "type": "Gare accessible", "transport": "TER", "transport_legende": "\ud83d\udeb2 \u2764\ufe0f Train TER \ud83d\ude86"}, "geometry": {"type": "Point", "coordinates": [6.446614, 45.595002]}}, {"type": "Feature", "properties": {"start": "Mo\u00fbtiers-Salins-Brides-les-B.", "stop_name": "Saint-Paul Coll\u00e8ge", "type": "Gare accessible", "transport": "TER", "transport_legende": "\ud83d\udeb2 \u2764\ufe0f Train TER \ud83d\ude86"}, "geometry": {"type": "Point", "coordinates": [6.440971, 45.594529]}}, {"type": "Feature", "properties": {"start": "Mo\u00fbtiers-Salins-Brides-les-B.", "stop_name": "La L\u00e9ch\u00e8re les Bains Petit Coeur", "type": "Gare accessible", "transport": "TER", "transport_legende": "\ud83d\udeb2 \u2764\ufe0f Train TER \ud83d\ude86"}, "geometry": {"type": "Point", "coordinates": [6.484015, 45.520481]}}, {"type": "Feature", "properties": {"start": "Mo\u00fbtiers-Salins-Brides-les-B.", "stop_name": "Aigueblanche-Centre", "type": "Gare accessible", "transport": "TER", "transport_legende": "\ud83d\udeb2 \u2764\ufe0f Train TER \ud83d\ude86"}, "geometry": {"type": "Point", "coordinates": [6.508605, 45.501835]}}, {"type": "Feature", "properties": {"start": "Mo\u00fbtiers-Salins-Brides-les-B.", "stop_name": "Aix-les-Bains le Revard", "type": "Gare accessible", "transport": "TER", "transport_legende": "\ud83d\udeb2 \u2764\ufe0f Train TER \ud83d\ude86"}, "geometry": {"type": "Point", "coordinates": [5.909371, 45.688161]}}]}