{"type": "FeatureCollection", "features": [{"type": "Feature", "properties": {"start": "M\u00e2con", "stop_name": "M\u00e2con", "type": "Gare s\u00e9lectionn\u00e9e", "transport": "TER", "nombre_trajet_moyen": 22.02, "transport_legende": "\ud83d\udeb2 \u2764\ufe0f Train TER \ud83d\ude86"}, "geometry": {"type": "Point", "coordinates": [4.824887, 46.302572]}}, {"type": "Feature", "properties": {"start": "M\u00e2con", "stop_name": "Dijon", "type": "Gare accessible", "transport": "TER", "nombre_trajet_moyen": 13.07, "transport_legende": "\ud83d\udeb2 \u2764\ufe0f Train TER \ud83d\ude86"}, "geometry": {"type": "Point", "coordinates": [5.027256, 47.323411]}}, {"type": "Feature", "properties": {"start": "M\u00e2con", "stop_name": "Beaune", "type": "Gare accessible", "transport": "TER", "nombre_trajet_moyen": 13.07, "transport_legende": "\ud83d\udeb2 \u2764\ufe0f Train TER \ud83d\ude86"}, "geometry": {"type": "Point", "coordinates": [4.848423, 47.023014]}}, {"type": "Feature", "properties": {"start": "M\u00e2con", "stop_name": "Chagny", "type": "Gare accessible", "transport": "TER", "nombre_trajet_moyen": 13.07, "transport_legende": "\ud83d\udeb2 \u2764\ufe0f Train TER \ud83d\ude86"}, "geometry": {"type": "Point", "coordinates": [4.749613, 46.907424]}}, {"type": "Feature", "properties": {"start": "M\u00e2con", "stop_name": "Chalon-sur-Sa\u00f4ne", "type": "Gare accessible", "transport": "TER", "nombre_trajet_moyen": 13.07, "transport_legende": "\ud83d\udeb2 \u2764\ufe0f Train TER \ud83d\ude86"}, "geometry": {"type": "Point", "coordinates": [4.843479, 46.781622]}}, {"type": "Feature", "properties": {"start": "M\u00e2con", "stop_name": "Tournus", "type": "Gare accessible", "transport": "TER", "nombre_trajet_moyen": 13.07, "transport_legende": "\ud83d\udeb2 \u2764\ufe0f Train TER \ud83d\ude86"}, "geometry": {"type": "Point", "coordinates": [4.906562, 46.566724]}}, {"type": "Feature", "properties": {"start": "M\u00e2con", "stop_name": "Belleville sur S\u00e2one", "type": "Gare accessible", "transport": "TER", "nombre_trajet_moyen": 18.58, "transport_legende": "\ud83d\udeb2 \u2764\ufe0f Train TER \ud83d\ude86"}, "geometry": {"type": "Point", "coordinates": [4.729011, 46.111952]}}, {"type": "Feature", "properties": {"start": "M\u00e2con", "stop_name": "Villefranche-sur-Sa\u00f4ne", "type": "Gare accessible", "transport": "TER", "nombre_trajet_moyen": 18.58, "transport_legende": "\ud83d\udeb2 \u2764\ufe0f Train TER \ud83d\ude86"}, "geometry": {"type": "Point", "coordinates": [4.720798, 45.984482]}}, {"type": "Feature", "properties": {"start": "M\u00e2con", "stop_name": "Saint-Germain-au-Mont-d'Or", "type": "Gare accessible", "transport": "TER", "nombre_trajet_moyen": 18.58, "transport_legende": "\ud83d\udeb2 \u2764\ufe0f Train TER \ud83d\ude86"}, "geometry": {"type": "Point", "coordinates": [4.804206, 45.888431]}}, {"type": "Feature", "properties": {"start": "M\u00e2con", "stop_name": "Lyon Part Dieu", "type": "Gare accessible", "transport": "TER", "nombre_trajet_moyen": 13.7, "transport_legende": "\ud83d\udeb2 \u2764\ufe0f Train TER \ud83d\ude86"}, "geometry": {"type": "Point", "coordinates": [4.859409, 45.760596]}}, {"type": "Feature", "properties": {"start": "M\u00e2con", "stop_name": "Sens", "type": "Gare accessible", "transport": "TER", "nombre_trajet_moyen": 7.42, "transport_legende": "\ud83d\udeb2 \u2764\ufe0f Train TER \ud83d\ude86"}, "geometry": {"type": "Point", "coordinates": [3.267833, 48.197856]}}, {"type": "Feature", "properties": {"start": "M\u00e2con", "stop_name": "\u00c9tigny - V\u00e9ron", "type": "Gare accessible", "transport": "TER", "nombre_trajet_moyen": 0.84, "transport_legende": "\ud83d\udeb2 \u2764\ufe0f Train TER \ud83d\ude86"}, "geometry": {"type": "Point", "coordinates": [3.290743, 48.138276]}}, {"type": "Feature", "properties": {"start": "M\u00e2con", "stop_name": "Villeneuve-sur-Yonne", "type": "Gare accessible", "transport": "TER", "nombre_trajet_moyen": 0.84, "transport_legende": "\ud83d\udeb2 \u2764\ufe0f Train TER \ud83d\ude86"}, "geometry": {"type": "Point", "coordinates": [3.286925, 48.085013]}}, {"type": "Feature", "properties": {"start": "M\u00e2con", "stop_name": "Saint-Julien-du-Sault", "type": "Gare accessible", "transport": "TER", "nombre_trajet_moyen": 0.84, "transport_legende": "\ud83d\udeb2 \u2764\ufe0f Train TER \ud83d\ude86"}, "geometry": {"type": "Point", "coordinates": [3.302781, 48.026965]}}, {"type": "Feature", "properties": {"start": "M\u00e2con", "stop_name": "Joigny", "type": "Gare accessible", "transport": "TER", "nombre_trajet_moyen": 7.42, "transport_legende": "\ud83d\udeb2 \u2764\ufe0f Train TER \ud83d\ude86"}, "geometry": {"type": "Point", "coordinates": [3.392997, 47.973855]}}, {"type": "Feature", "properties": {"start": "M\u00e2con", "stop_name": "Laroche - Migennes", "type": "Gare accessible", "transport": "TER", "nombre_trajet_moyen": 7.42, "transport_legende": "\ud83d\udeb2 \u2764\ufe0f Train TER \ud83d\ude86"}, "geometry": {"type": "Point", "coordinates": [3.513191, 47.960998]}}, {"type": "Feature", "properties": {"start": "M\u00e2con", "stop_name": "Saint-Florentin - Vergigny", "type": "Gare accessible", "transport": "TER", "nombre_trajet_moyen": 7.42, "transport_legende": "\ud83d\udeb2 \u2764\ufe0f Train TER \ud83d\ude86"}, "geometry": {"type": "Point", "coordinates": [3.731036, 47.981058]}}, {"type": "Feature", "properties": {"start": "M\u00e2con", "stop_name": "Tonnerre", "type": "Gare accessible", "transport": "TER", "nombre_trajet_moyen": 7.42, "transport_legende": "\ud83d\udeb2 \u2764\ufe0f Train TER \ud83d\ude86"}, "geometry": {"type": "Point", "coordinates": [3.97355, 47.85938]}}, {"type": "Feature", "properties": {"start": "M\u00e2con", "stop_name": "Nuits sous Ravi\u00e8res", "type": "Gare accessible", "transport": "TER", "nombre_trajet_moyen": 7.42, "transport_legende": "\ud83d\udeb2 \u2764\ufe0f Train TER \ud83d\ude86"}, "geometry": {"type": "Point", "coordinates": [4.211709, 47.729307]}}, {"type": "Feature", "properties": {"start": "M\u00e2con", "stop_name": "Montbard", "type": "Gare accessible", "transport": "TER", "nombre_trajet_moyen": 7.42, "transport_legende": "\ud83d\udeb2 \u2764\ufe0f Train TER \ud83d\ude86"}, "geometry": {"type": "Point", "coordinates": [4.336212, 47.618741]}}, {"type": "Feature", "properties": {"start": "M\u00e2con", "stop_name": "Les Laumes - Al\u00e9sia", "type": "Gare accessible", "transport": "TER", "nombre_trajet_moyen": 7.42, "transport_legende": "\ud83d\udeb2 \u2764\ufe0f Train TER \ud83d\ude86"}, "geometry": {"type": "Point", "coordinates": [4.462602, 47.543054]}}, {"type": "Feature", "properties": {"start": "M\u00e2con", "stop_name": "Montereau", "type": "Gare accessible", "transport": "TER", "nombre_trajet_moyen": 0.04, "transport_legende": "\ud83d\udeb2 \u2764\ufe0f Train TER \ud83d\ude86"}, "geometry": {"type": "Point", "coordinates": [2.94293, 48.379902]}}, {"type": "Feature", "properties": {"start": "M\u00e2con", "stop_name": "Villeneuve-la-Guyard", "type": "Gare accessible", "transport": "TER", "nombre_trajet_moyen": 0.04, "transport_legende": "\ud83d\udeb2 \u2764\ufe0f Train TER \ud83d\ude86"}, "geometry": {"type": "Point", "coordinates": [3.071655, 48.342425]}}, {"type": "Feature", "properties": {"start": "M\u00e2con", "stop_name": "Champigny", "type": "Gare accessible", "transport": "TER", "nombre_trajet_moyen": 0.04, "transport_legende": "\ud83d\udeb2 \u2764\ufe0f Train TER \ud83d\ude86"}, "geometry": {"type": "Point", "coordinates": [3.130572, 48.323742]}}, {"type": "Feature", "properties": {"start": "M\u00e2con", "stop_name": "Pont-sur-Yonne", "type": "Gare accessible", "transport": "TER", "nombre_trajet_moyen": 0.04, "transport_legende": "\ud83d\udeb2 \u2764\ufe0f Train TER \ud83d\ude86"}, "geometry": {"type": "Point", "coordinates": [3.201463, 48.286287]}}, {"type": "Feature", "properties": {"start": "M\u00e2con", "stop_name": "Paris Bercy Bourg. Pays d'Auv.", "type": "Gare accessible", "transport": "TER", "nombre_trajet_moyen": 6.15, "transport_legende": "\ud83d\udeb2 \u2764\ufe0f Train TER \ud83d\ude86"}, "geometry": {"type": "Point", "coordinates": [2.382791, 48.839215]}}, {"type": "Feature", "properties": {"start": "M\u00e2con", "stop_name": "Lyon Perrache", "type": "Gare accessible", "transport": "TER", "nombre_trajet_moyen": 8.32, "transport_legende": "\ud83d\udeb2 \u2764\ufe0f Train TER \ud83d\ude86"}, "geometry": {"type": "Point", "coordinates": [4.825777, 45.748508]}}, {"type": "Feature", "properties": {"start": "M\u00e2con", "stop_name": "Paris Gare de Lyon Hall 1 - 2", "type": "Gare accessible", "transport": "TER", "nombre_trajet_moyen": 0.79, "transport_legende": "\ud83d\udeb2 \u2764\ufe0f Train TER \ud83d\ude86"}, "geometry": {"type": "Point", "coordinates": [2.373481, 48.844945]}}, {"type": "Feature", "properties": {"start": "M\u00e2con", "stop_name": "Lyon-Part-Dieu Gare Routi\u00e8re", "type": "Gare accessible", "transport": "TER", "nombre_trajet_moyen": 0.8, "transport_legende": "\ud83d\udeb2 \u2764\ufe0f Train TER \ud83d\ude86"}, "geometry": {"type": "Point", "coordinates": [4.862984, 45.761064]}}, {"type": "Feature", "properties": {"start": "M\u00e2con", "stop_name": "Pont-de-Veyle", "type": "Gare accessible", "transport": "TER", "nombre_trajet_moyen": 3.07, "transport_legende": "\ud83d\udeb2 \u2764\ufe0f Train TER \ud83d\ude86"}, "geometry": {"type": "Point", "coordinates": [4.892871, 46.267772]}}, {"type": "Feature", "properties": {"start": "M\u00e2con", "stop_name": "St-Jean-sur-Veyle", "type": "Gare accessible", "transport": "TER", "nombre_trajet_moyen": 2.6, "transport_legende": "\ud83d\udeb2 \u2764\ufe0f Train TER \ud83d\ude86"}, "geometry": {"type": "Point", "coordinates": [4.915607, 46.260585]}}, {"type": "Feature", "properties": {"start": "M\u00e2con", "stop_name": "Vonnas", "type": "Gare accessible", "transport": "TER", "nombre_trajet_moyen": 3.07, "transport_legende": "\ud83d\udeb2 \u2764\ufe0f Train TER \ud83d\ude86"}, "geometry": {"type": "Point", "coordinates": [4.991831, 46.227149]}}, {"type": "Feature", "properties": {"start": "M\u00e2con", "stop_name": "M\u00e9z\u00e9riat", "type": "Gare accessible", "transport": "TER", "nombre_trajet_moyen": 3.07, "transport_legende": "\ud83d\udeb2 \u2764\ufe0f Train TER \ud83d\ude86"}, "geometry": {"type": "Point", "coordinates": [5.046587, 46.234986]}}, {"type": "Feature", "properties": {"start": "M\u00e2con", "stop_name": "Polliat-Mairie", "type": "Gare accessible", "transport": "TER", "nombre_trajet_moyen": 2.6, "transport_legende": "\ud83d\udeb2 \u2764\ufe0f Train TER \ud83d\ude86"}, "geometry": {"type": "Point", "coordinates": [5.126289, 46.24936]}}, {"type": "Feature", "properties": {"start": "M\u00e2con", "stop_name": "Bourg-en-Bresse Charit\u00e9", "type": "Gare accessible", "transport": "TER", "nombre_trajet_moyen": 2.7, "transport_legende": "\ud83d\udeb2 \u2764\ufe0f Train TER \ud83d\ude86"}, "geometry": {"type": "Point", "coordinates": [5.21974, 46.207629]}}, {"type": "Feature", "properties": {"start": "M\u00e2con", "stop_name": "Bourg-en-Bresse Gare Routi\u00e8re", "type": "Gare accessible", "transport": "TER", "nombre_trajet_moyen": 2.7, "transport_legende": "\ud83d\udeb2 \u2764\ufe0f Train TER \ud83d\ude86"}, "geometry": {"type": "Point", "coordinates": [5.215381, 46.199498]}}, {"type": "Feature", "properties": {"start": "M\u00e2con", "stop_name": "Polliat", "type": "Gare accessible", "transport": "TER", "nombre_trajet_moyen": 0.48, "transport_legende": "\ud83d\udeb2 \u2764\ufe0f Train TER \ud83d\ude86"}, "geometry": {"type": "Point", "coordinates": [5.123894, 46.244657]}}, {"type": "Feature", "properties": {"start": "M\u00e2con", "stop_name": "Bourg-en-Bresse", "type": "Gare accessible", "transport": "TER", "nombre_trajet_moyen": 0.48, "transport_legende": "\ud83d\udeb2 \u2764\ufe0f Train TER \ud83d\ude86"}, "geometry": {"type": "Point", "coordinates": [5.215011, 46.200111]}}, {"type": "Feature", "properties": {"start": "M\u00e2con", "stop_name": "Saint-Martin-du-Mont", "type": "Gare accessible", "transport": "TER", "nombre_trajet_moyen": 0.48, "transport_legende": "\ud83d\udeb2 \u2764\ufe0f Train TER \ud83d\ude86"}, "geometry": {"type": "Point", "coordinates": [5.303215, 46.095702]}}, {"type": "Feature", "properties": {"start": "M\u00e2con", "stop_name": "Pont-d'Ain", "type": "Gare accessible", "transport": "TER", "nombre_trajet_moyen": 0.48, "transport_legende": "\ud83d\udeb2 \u2764\ufe0f Train TER \ud83d\ude86"}, "geometry": {"type": "Point", "coordinates": [5.334332, 46.054009]}}, {"type": "Feature", "properties": {"start": "M\u00e2con", "stop_name": "Ambronay - Priay", "type": "Gare accessible", "transport": "TER", "nombre_trajet_moyen": 0.48, "transport_legende": "\ud83d\udeb2 \u2764\ufe0f Train TER \ud83d\ude86"}, "geometry": {"type": "Point", "coordinates": [5.339141, 46.011866]}}, {"type": "Feature", "properties": {"start": "M\u00e2con", "stop_name": "Amb\u00e9rieu-en-Bugey", "type": "Gare accessible", "transport": "TER", "nombre_trajet_moyen": 0.48, "transport_legende": "\ud83d\udeb2 \u2764\ufe0f Train TER \ud83d\ude86"}, "geometry": {"type": "Point", "coordinates": [5.342402, 45.954014]}}, {"type": "Feature", "properties": {"start": "M\u00e2con", "stop_name": "Cr\u00eaches-sur-Sa\u00f4ne", "type": "Gare accessible", "transport": "TER", "nombre_trajet_moyen": 5.66, "transport_legende": "\ud83d\udeb2 \u2764\ufe0f Train TER \ud83d\ude86"}, "geometry": {"type": "Point", "coordinates": [4.784047, 46.246154]}}, {"type": "Feature", "properties": {"start": "M\u00e2con", "stop_name": "Pontanevaux", "type": "Gare accessible", "transport": "TER", "nombre_trajet_moyen": 5.66, "transport_legende": "\ud83d\udeb2 \u2764\ufe0f Train TER \ud83d\ude86"}, "geometry": {"type": "Point", "coordinates": [4.772881, 46.213047]}}, {"type": "Feature", "properties": {"start": "M\u00e2con", "stop_name": "Roman\u00e8che-Thorins-Maison Blanche", "type": "Gare accessible", "transport": "TER", "nombre_trajet_moyen": 5.66, "transport_legende": "\ud83d\udeb2 \u2764\ufe0f Train TER \ud83d\ude86"}, "geometry": {"type": "Point", "coordinates": [4.741973, 46.176344]}}, {"type": "Feature", "properties": {"start": "M\u00e2con", "stop_name": "Saint-Georges-de-Reneins", "type": "Gare accessible", "transport": "TER", "nombre_trajet_moyen": 5.7, "transport_legende": "\ud83d\udeb2 \u2764\ufe0f Train TER \ud83d\ude86"}, "geometry": {"type": "Point", "coordinates": [4.718888, 46.06221]}}, {"type": "Feature", "properties": {"start": "M\u00e2con", "stop_name": "Anse", "type": "Gare accessible", "transport": "TER", "nombre_trajet_moyen": 5.7, "transport_legende": "\ud83d\udeb2 \u2764\ufe0f Train TER \ud83d\ude86"}, "geometry": {"type": "Point", "coordinates": [4.719824, 45.939351]}}, {"type": "Feature", "properties": {"start": "M\u00e2con", "stop_name": "Lyon Vaise", "type": "Gare accessible", "transport": "TER", "nombre_trajet_moyen": 5.7, "transport_legende": "\ud83d\udeb2 \u2764\ufe0f Train TER \ud83d\ude86"}, "geometry": {"type": "Point", "coordinates": [4.804186, 45.77976]}}, {"type": "Feature", "properties": {"start": "M\u00e2con", "stop_name": "Quincieux", "type": "Gare accessible", "transport": "TER", "nombre_trajet_moyen": 2.37, "transport_legende": "\ud83d\udeb2 \u2764\ufe0f Train TER \ud83d\ude86"}, "geometry": {"type": "Point", "coordinates": [4.77857, 45.906914]}}, {"type": "Feature", "properties": {"start": "M\u00e2con", "stop_name": "Albigny - Neuville", "type": "Gare accessible", "transport": "TER", "nombre_trajet_moyen": 2.37, "transport_legende": "\ud83d\udeb2 \u2764\ufe0f Train TER \ud83d\ude86"}, "geometry": {"type": "Point", "coordinates": [4.832852, 45.874897]}}, {"type": "Feature", "properties": {"start": "M\u00e2con", "stop_name": "Couzon-au-Mont-d'Or", "type": "Gare accessible", "transport": "TER", "nombre_trajet_moyen": 1.81, "transport_legende": "\ud83d\udeb2 \u2764\ufe0f Train TER \ud83d\ude86"}, "geometry": {"type": "Point", "coordinates": [4.82948, 45.84876]}}, {"type": "Feature", "properties": {"start": "M\u00e2con", "stop_name": "Collonges - Fontaines", "type": "Gare accessible", "transport": "TER", "nombre_trajet_moyen": 1.81, "transport_legende": "\ud83d\udeb2 \u2764\ufe0f Train TER \ud83d\ude86"}, "geometry": {"type": "Point", "coordinates": [4.84665, 45.829128]}}, {"type": "Feature", "properties": {"start": "M\u00e2con", "stop_name": "Valence Ville", "type": "Gare accessible", "transport": "TER", "nombre_trajet_moyen": 5.14, "transport_legende": "\ud83d\udeb2 \u2764\ufe0f Train TER \ud83d\ude86"}, "geometry": {"type": "Point", "coordinates": [4.893288, 44.928081]}}, {"type": "Feature", "properties": {"start": "M\u00e2con", "stop_name": "Tain-l'Hermitage - Tournon", "type": "Gare accessible", "transport": "TER", "nombre_trajet_moyen": 5.14, "transport_legende": "\ud83d\udeb2 \u2764\ufe0f Train TER \ud83d\ude86"}, "geometry": {"type": "Point", "coordinates": [4.839708, 45.072178]}}, {"type": "Feature", "properties": {"start": "M\u00e2con", "stop_name": "Saint-Vallier sur Rh\u00f4ne", "type": "Gare accessible", "transport": "TER", "nombre_trajet_moyen": 5.14, "transport_legende": "\ud83d\udeb2 \u2764\ufe0f Train TER \ud83d\ude86"}, "geometry": {"type": "Point", "coordinates": [4.814302, 45.185678]}}, {"type": "Feature", "properties": {"start": "M\u00e2con", "stop_name": "Saint-Rambert-d'Albon", "type": "Gare accessible", "transport": "TER", "nombre_trajet_moyen": 5.14, "transport_legende": "\ud83d\udeb2 \u2764\ufe0f Train TER \ud83d\ude86"}, "geometry": {"type": "Point", "coordinates": [4.810739, 45.29776]}}, {"type": "Feature", "properties": {"start": "M\u00e2con", "stop_name": "Le P\u00e9age-de-Roussillon", "type": "Gare accessible", "transport": "TER", "nombre_trajet_moyen": 5.14, "transport_legende": "\ud83d\udeb2 \u2764\ufe0f Train TER \ud83d\ude86"}, "geometry": {"type": "Point", "coordinates": [4.795406, 45.371724]}}, {"type": "Feature", "properties": {"start": "M\u00e2con", "stop_name": "Saint-Clair - Les Roches", "type": "Gare accessible", "transport": "TER", "nombre_trajet_moyen": 5.14, "transport_legende": "\ud83d\udeb2 \u2764\ufe0f Train TER \ud83d\ude86"}, "geometry": {"type": "Point", "coordinates": [4.769669, 45.450303]}}, {"type": "Feature", "properties": {"start": "M\u00e2con", "stop_name": "Vienne", "type": "Gare accessible", "transport": "TER", "nombre_trajet_moyen": 5.14, "transport_legende": "\ud83d\udeb2 \u2764\ufe0f Train TER \ud83d\ude86"}, "geometry": {"type": "Point", "coordinates": [4.874274, 45.521231]}}, {"type": "Feature", "properties": {"start": "M\u00e2con", "stop_name": "Lyon Jean Mac\u00e9", "type": "Gare accessible", "transport": "TER", "nombre_trajet_moyen": 5.14, "transport_legende": "\ud83d\udeb2 \u2764\ufe0f Train TER \ud83d\ude86"}, "geometry": {"type": "Point", "coordinates": [4.841499, 45.74503]}}, {"type": "Feature", "properties": {"start": "M\u00e2con", "stop_name": "Pierrelatte", "type": "Gare accessible", "transport": "TER", "nombre_trajet_moyen": 1.09, "transport_legende": "\ud83d\udeb2 \u2764\ufe0f Train TER \ud83d\ude86"}, "geometry": {"type": "Point", "coordinates": [4.703798, 44.374634]}}, {"type": "Feature", "properties": {"start": "M\u00e2con", "stop_name": "Donz\u00e8re", "type": "Gare accessible", "transport": "TER", "nombre_trajet_moyen": 1.09, "transport_legende": "\ud83d\udeb2 \u2764\ufe0f Train TER \ud83d\ude86"}, "geometry": {"type": "Point", "coordinates": [4.704626, 44.443365]}}, {"type": "Feature", "properties": {"start": "M\u00e2con", "stop_name": "Mont\u00e9limar", "type": "Gare accessible", "transport": "TER", "nombre_trajet_moyen": 1.09, "transport_legende": "\ud83d\udeb2 \u2764\ufe0f Train TER \ud83d\ude86"}, "geometry": {"type": "Point", "coordinates": [4.744726, 44.558936]}}, {"type": "Feature", "properties": {"start": "M\u00e2con", "stop_name": "Loriol", "type": "Gare accessible", "transport": "TER", "nombre_trajet_moyen": 1.09, "transport_legende": "\ud83d\udeb2 \u2764\ufe0f Train TER \ud83d\ude86"}, "geometry": {"type": "Point", "coordinates": [4.817213, 44.754515]}}, {"type": "Feature", "properties": {"start": "M\u00e2con", "stop_name": "Livron", "type": "Gare accessible", "transport": "TER", "nombre_trajet_moyen": 1.09, "transport_legende": "\ud83d\udeb2 \u2764\ufe0f Train TER \ud83d\ude86"}, "geometry": {"type": "Point", "coordinates": [4.830559, 44.779617]}}, {"type": "Feature", "properties": {"start": "M\u00e2con", "stop_name": "Avignon Centre", "type": "Gare accessible", "transport": "TER", "nombre_trajet_moyen": 0.84, "transport_legende": "\ud83d\udeb2 \u2764\ufe0f Train TER \ud83d\ude86"}, "geometry": {"type": "Point", "coordinates": [4.805269, 43.941923]}}, {"type": "Feature", "properties": {"start": "M\u00e2con", "stop_name": "Sorgues - Ch\u00e2teauneuf-du-Pape", "type": "Gare accessible", "transport": "TER", "nombre_trajet_moyen": 0.84, "transport_legende": "\ud83d\udeb2 \u2764\ufe0f Train TER \ud83d\ude86"}, "geometry": {"type": "Point", "coordinates": [4.875612, 44.005427]}}, {"type": "Feature", "properties": {"start": "M\u00e2con", "stop_name": "Courth\u00e9zon", "type": "Gare accessible", "transport": "TER", "nombre_trajet_moyen": 0.84, "transport_legende": "\ud83d\udeb2 \u2764\ufe0f Train TER \ud83d\ude86"}, "geometry": {"type": "Point", "coordinates": [4.888178, 44.089999]}}, {"type": "Feature", "properties": {"start": "M\u00e2con", "stop_name": "Orange", "type": "Gare accessible", "transport": "TER", "nombre_trajet_moyen": 0.84, "transport_legende": "\ud83d\udeb2 \u2764\ufe0f Train TER \ud83d\ude86"}, "geometry": {"type": "Point", "coordinates": [4.820058, 44.137485]}}, {"type": "Feature", "properties": {"start": "M\u00e2con", "stop_name": "Boll\u00e8ne la Croisi\u00e8re", "type": "Gare accessible", "transport": "TER", "nombre_trajet_moyen": 0.84, "transport_legende": "\ud83d\udeb2 \u2764\ufe0f Train TER \ud83d\ude86"}, "geometry": {"type": "Point", "coordinates": [4.708055, 44.27154]}}, {"type": "Feature", "properties": {"start": "M\u00e2con", "stop_name": "Saint-Fons", "type": "Gare accessible", "transport": "TER", "nombre_trajet_moyen": 0.69, "transport_legende": "\ud83d\udeb2 \u2764\ufe0f Train TER \ud83d\ude86"}, "geometry": {"type": "Point", "coordinates": [4.852564, 45.70579]}}, {"type": "Feature", "properties": {"start": "M\u00e2con", "stop_name": "Feyzin", "type": "Gare accessible", "transport": "TER", "nombre_trajet_moyen": 0.69, "transport_legende": "\ud83d\udeb2 \u2764\ufe0f Train TER \ud83d\ude86"}, "geometry": {"type": "Point", "coordinates": [4.853043, 45.665676]}}, {"type": "Feature", "properties": {"start": "M\u00e2con", "stop_name": "S\u00e9r\u00e9zin", "type": "Gare accessible", "transport": "TER", "nombre_trajet_moyen": 0.69, "transport_legende": "\ud83d\udeb2 \u2764\ufe0f Train TER \ud83d\ude86"}, "geometry": {"type": "Point", "coordinates": [4.81812, 45.627264]}}, {"type": "Feature", "properties": {"start": "M\u00e2con", "stop_name": "Chasse-sur-Rh\u00f4ne", "type": "Gare accessible", "transport": "TER", "nombre_trajet_moyen": 0.69, "transport_legende": "\ud83d\udeb2 \u2764\ufe0f Train TER \ud83d\ude86"}, "geometry": {"type": "Point", "coordinates": [4.794848, 45.582406]}}, {"type": "Feature", "properties": {"start": "M\u00e2con", "stop_name": "Estressin", "type": "Gare accessible", "transport": "TER", "nombre_trajet_moyen": 0.69, "transport_legende": "\ud83d\udeb2 \u2764\ufe0f Train TER \ud83d\ude86"}, "geometry": {"type": "Point", "coordinates": [4.868563, 45.539829]}}, {"type": "Feature", "properties": {"start": "M\u00e2con", "stop_name": "Gevrey-Chambertin", "type": "Gare accessible", "transport": "TER", "nombre_trajet_moyen": 3.27, "transport_legende": "\ud83d\udeb2 \u2764\ufe0f Train TER \ud83d\ude86"}, "geometry": {"type": "Point", "coordinates": [4.998905, 47.227601]}}, {"type": "Feature", "properties": {"start": "M\u00e2con", "stop_name": "Vougeot - Gilly-l\u00e8s-C\u00eeteaux", "type": "Gare accessible", "transport": "TER", "nombre_trajet_moyen": 3.27, "transport_legende": "\ud83d\udeb2 \u2764\ufe0f Train TER \ud83d\ude86"}, "geometry": {"type": "Point", "coordinates": [4.971514, 47.175695]}}, {"type": "Feature", "properties": {"start": "M\u00e2con", "stop_name": "Nuits-Saint-Georges", "type": "Gare accessible", "transport": "TER", "nombre_trajet_moyen": 3.27, "transport_legende": "\ud83d\udeb2 \u2764\ufe0f Train TER \ud83d\ude86"}, "geometry": {"type": "Point", "coordinates": [4.956277, 47.130662]}}, {"type": "Feature", "properties": {"start": "M\u00e2con", "stop_name": "Corgoloin", "type": "Gare accessible", "transport": "TER", "nombre_trajet_moyen": 1.15, "transport_legende": "\ud83d\udeb2 \u2764\ufe0f Train TER \ud83d\ude86"}, "geometry": {"type": "Point", "coordinates": [4.916854, 47.084209]}}, {"type": "Feature", "properties": {"start": "M\u00e2con", "stop_name": "Meursault", "type": "Gare accessible", "transport": "TER", "nombre_trajet_moyen": 1.15, "transport_legende": "\ud83d\udeb2 \u2764\ufe0f Train TER \ud83d\ude86"}, "geometry": {"type": "Point", "coordinates": [4.795452, 46.969165]}}, {"type": "Feature", "properties": {"start": "M\u00e2con", "stop_name": "Rully", "type": "Gare accessible", "transport": "TER", "nombre_trajet_moyen": 2.4, "transport_legende": "\ud83d\udeb2 \u2764\ufe0f Train TER \ud83d\ude86"}, "geometry": {"type": "Point", "coordinates": [4.760736, 46.880287]}}, {"type": "Feature", "properties": {"start": "M\u00e2con", "stop_name": "Fontaines - Mercurey", "type": "Gare accessible", "transport": "TER", "nombre_trajet_moyen": 2.4, "transport_legende": "\ud83d\udeb2 \u2764\ufe0f Train TER \ud83d\ude86"}, "geometry": {"type": "Point", "coordinates": [4.775005, 46.851258]}}, {"type": "Feature", "properties": {"start": "M\u00e2con", "stop_name": "Sennecey-le-Grand", "type": "Gare accessible", "transport": "TER", "nombre_trajet_moyen": 3.53, "transport_legende": "\ud83d\udeb2 \u2764\ufe0f Train TER \ud83d\ude86"}, "geometry": {"type": "Point", "coordinates": [4.874277, 46.64066]}}, {"type": "Feature", "properties": {"start": "M\u00e2con", "stop_name": "Fleurville - Pont-de-Vaux", "type": "Gare accessible", "transport": "TER", "nombre_trajet_moyen": 3.53, "transport_legende": "\ud83d\udeb2 \u2764\ufe0f Train TER \ud83d\ude86"}, "geometry": {"type": "Point", "coordinates": [4.884195, 46.450874]}}, {"type": "Feature", "properties": {"start": "M\u00e2con", "stop_name": "Senozan", "type": "Gare accessible", "transport": "TER", "nombre_trajet_moyen": 3.53, "transport_legende": "\ud83d\udeb2 \u2764\ufe0f Train TER \ud83d\ude86"}, "geometry": {"type": "Point", "coordinates": [4.871063, 46.392145]}}]}