{"type": "FeatureCollection", "features": [{"type": "Feature", "properties": {"start": "Najac", "stop_name": "Najac", "type": "Gare s\u00e9lectionn\u00e9e", "transport": "TER", "nombre_trajet_moyen": 2.75, "transport_legende": "\ud83d\udeb2 \u2764\ufe0f Train TER \ud83d\ude86"}, "geometry": {"type": "Point", "coordinates": [1.976163, 44.221802]}}, {"type": "Feature", "properties": {"start": "Najac", "stop_name": "Capdenac", "type": "Gare accessible", "transport": "TER", "nombre_trajet_moyen": 2.75, "transport_legende": "\ud83d\udeb2 \u2764\ufe0f Train TER \ud83d\ude86"}, "geometry": {"type": "Point", "coordinates": [2.077963, 44.578246]}}, {"type": "Feature", "properties": {"start": "Najac", "stop_name": "Salles-Courbati\u00e8s", "type": "Gare accessible", "transport": "TER", "nombre_trajet_moyen": 2.75, "transport_legende": "\ud83d\udeb2 \u2764\ufe0f Train TER \ud83d\ude86"}, "geometry": {"type": "Point", "coordinates": [2.07892, 44.475085]}}, {"type": "Feature", "properties": {"start": "Najac", "stop_name": "Villefranche-de-Rouergue", "type": "Gare accessible", "transport": "TER", "nombre_trajet_moyen": 2.75, "transport_legende": "\ud83d\udeb2 \u2764\ufe0f Train TER \ud83d\ude86"}, "geometry": {"type": "Point", "coordinates": [2.036459, 44.347498]}}, {"type": "Feature", "properties": {"start": "Najac", "stop_name": "Lagu\u00e9pie", "type": "Gare accessible", "transport": "TER", "nombre_trajet_moyen": 2.75, "transport_legende": "\ud83d\udeb2 \u2764\ufe0f Train TER \ud83d\ude86"}, "geometry": {"type": "Point", "coordinates": [1.968591, 44.145485]}}, {"type": "Feature", "properties": {"start": "Najac", "stop_name": "Lexos", "type": "Gare accessible", "transport": "TER", "nombre_trajet_moyen": 2.75, "transport_legende": "\ud83d\udeb2 \u2764\ufe0f Train TER \ud83d\ude86"}, "geometry": {"type": "Point", "coordinates": [1.885101, 44.142396]}}, {"type": "Feature", "properties": {"start": "Najac", "stop_name": "Cordes - Vindrac", "type": "Gare accessible", "transport": "TER", "nombre_trajet_moyen": 2.75, "transport_legende": "\ud83d\udeb2 \u2764\ufe0f Train TER \ud83d\ude86"}, "geometry": {"type": "Point", "coordinates": [1.900229, 44.067189]}}, {"type": "Feature", "properties": {"start": "Najac", "stop_name": "Gaillac", "type": "Gare accessible", "transport": "TER", "nombre_trajet_moyen": 2.75, "transport_legende": "\ud83d\udeb2 \u2764\ufe0f Train TER \ud83d\ude86"}, "geometry": {"type": "Point", "coordinates": [1.89483, 43.905984]}}, {"type": "Feature", "properties": {"start": "Najac", "stop_name": "Lisle-sur-Tarn", "type": "Gare accessible", "transport": "TER", "nombre_trajet_moyen": 2.75, "transport_legende": "\ud83d\udeb2 \u2764\ufe0f Train TER \ud83d\ude86"}, "geometry": {"type": "Point", "coordinates": [1.80823, 43.85639]}}, {"type": "Feature", "properties": {"start": "Najac", "stop_name": "Saint-Sulpice", "type": "Gare accessible", "transport": "TER", "nombre_trajet_moyen": 2.75, "transport_legende": "\ud83d\udeb2 \u2764\ufe0f Train TER \ud83d\ude86"}, "geometry": {"type": "Point", "coordinates": [1.680702, 43.775073]}}, {"type": "Feature", "properties": {"start": "Najac", "stop_name": "Montastruc-la-Conseill\u00e8re", "type": "Gare accessible", "transport": "TER", "nombre_trajet_moyen": 0.69, "transport_legende": "\ud83d\udeb2 \u2764\ufe0f Train TER \ud83d\ude86"}, "geometry": {"type": "Point", "coordinates": [1.598016, 43.715984]}}, {"type": "Feature", "properties": {"start": "Najac", "stop_name": "Toulouse Matabiau", "type": "Gare accessible", "transport": "TER", "nombre_trajet_moyen": 2.75, "transport_legende": "\ud83d\udeb2 \u2764\ufe0f Train TER \ud83d\ude86"}, "geometry": {"type": "Point", "coordinates": [1.453616, 43.611206]}}, {"type": "Feature", "properties": {"start": "Najac", "stop_name": "Figeac", "type": "Gare accessible", "transport": "TER", "nombre_trajet_moyen": 0.67, "transport_legende": "\ud83d\udeb2 \u2764\ufe0f Train TER \ud83d\ude86"}, "geometry": {"type": "Point", "coordinates": [2.037355, 44.603515]}}, {"type": "Feature", "properties": {"start": "Najac", "stop_name": "Gragnague", "type": "Gare accessible", "transport": "TER", "nombre_trajet_moyen": 0.65, "transport_legende": "\ud83d\udeb2 \u2764\ufe0f Train TER \ud83d\ude86"}, "geometry": {"type": "Point", "coordinates": [1.567514, 43.695951]}}]}