{"type": "FeatureCollection", "features": [{"type": "Feature", "properties": {"start": "Offenburg", "stop_name": "Offenburg", "type": "Gare s\u00e9lectionn\u00e9e", "transport": "TER", "nombre_trajet_moyen": 9.69, "transport_legende": "\ud83d\udeb2 \u2764\ufe0f Train TER \ud83d\ude86"}, "geometry": {"type": "Point", "coordinates": [7.9468, 48.4765]}}, {"type": "Feature", "properties": {"start": "Offenburg", "stop_name": "Strasbourg", "type": "Gare accessible", "transport": "TER", "nombre_trajet_moyen": 7.85, "transport_legende": "\ud83d\udeb2 \u2764\ufe0f Train TER \ud83d\ude86"}, "geometry": {"type": "Point", "coordinates": [7.734793, 48.584532]}}, {"type": "Feature", "properties": {"start": "Offenburg", "stop_name": "Krimmeri Meinau", "type": "Gare accessible", "transport": "TER", "nombre_trajet_moyen": 7.85, "transport_legende": "\ud83d\udeb2 \u2764\ufe0f Train TER \ud83d\ude86"}, "geometry": {"type": "Point", "coordinates": [7.752614, 48.563644]}}, {"type": "Feature", "properties": {"start": "Offenburg", "stop_name": "Kehl", "type": "Gare accessible", "transport": "TER", "nombre_trajet_moyen": 9.69, "transport_legende": "\ud83d\udeb2 \u2764\ufe0f Train TER \ud83d\ude86"}, "geometry": {"type": "Point", "coordinates": [7.8063, 48.5767]}}, {"type": "Feature", "properties": {"start": "Offenburg", "stop_name": "Kork", "type": "Gare accessible", "transport": "TER", "nombre_trajet_moyen": 9.69, "transport_legende": "\ud83d\udeb2 \u2764\ufe0f Train TER \ud83d\ude86"}, "geometry": {"type": "Point", "coordinates": [7.8744, 48.5702]}}, {"type": "Feature", "properties": {"start": "Offenburg", "stop_name": "Legelshurst", "type": "Gare accessible", "transport": "TER", "nombre_trajet_moyen": 9.69, "transport_legende": "\ud83d\udeb2 \u2764\ufe0f Train TER \ud83d\ude86"}, "geometry": {"type": "Point", "coordinates": [7.9138, 48.5585]}}, {"type": "Feature", "properties": {"start": "Offenburg", "stop_name": "Appenweier", "type": "Gare accessible", "transport": "TER", "nombre_trajet_moyen": 9.69, "transport_legende": "\ud83d\udeb2 \u2764\ufe0f Train TER \ud83d\ude86"}, "geometry": {"type": "Point", "coordinates": [7.9735, 48.5419]}}]}