{"type": "FeatureCollection", "features": [{"type": "Feature", "properties": {"start": "Olonne-sur-Mer", "stop_name": "Olonne-sur-Mer", "type": "Gare s\u00e9lectionn\u00e9e", "transport": "TER", "transport_legende": "\ud83d\udeb2 \u2764\ufe0f Train TER \ud83d\ude86"}, "geometry": {"type": "Point", "coordinates": [-1.767302, 46.548653]}}, {"type": "Feature", "properties": {"start": "Olonne-sur-Mer", "stop_name": "Les Sables-d'Olonne", "type": "Gare accessible", "transport": "TER", "transport_legende": "\ud83d\udeb2 \u2764\ufe0f Train TER \ud83d\ude86"}, "geometry": {"type": "Point", "coordinates": [-1.781116, 46.500032]}}, {"type": "Feature", "properties": {"start": "Olonne-sur-Mer", "stop_name": "La Mothe-Achard", "type": "Gare accessible", "transport": "TER", "transport_legende": "\ud83d\udeb2 \u2764\ufe0f Train TER \ud83d\ude86"}, "geometry": {"type": "Point", "coordinates": [-1.659513, 46.606971]}}, {"type": "Feature", "properties": {"start": "Olonne-sur-Mer", "stop_name": "La Roche-sur-Yon", "type": "Gare accessible", "transport": "TER", "transport_legende": "\ud83d\udeb2 \u2764\ufe0f Train TER \ud83d\ude86"}, "geometry": {"type": "Point", "coordinates": [-1.43566, 46.672075]}}, {"type": "Feature", "properties": {"start": "Olonne-sur-Mer", "stop_name": "Belleville-Vend\u00e9e", "type": "Gare accessible", "transport": "TER", "transport_legende": "\ud83d\udeb2 \u2764\ufe0f Train TER \ud83d\ude86"}, "geometry": {"type": "Point", "coordinates": [-1.434512, 46.788329]}}, {"type": "Feature", "properties": {"start": "Olonne-sur-Mer", "stop_name": "L'Herbergement - Les Brouzils", "type": "Gare accessible", "transport": "TER", "transport_legende": "\ud83d\udeb2 \u2764\ufe0f Train TER \ud83d\ude86"}, "geometry": {"type": "Point", "coordinates": [-1.371279, 46.906946]}}, {"type": "Feature", "properties": {"start": "Olonne-sur-Mer", "stop_name": "Montaigu", "type": "Gare accessible", "transport": "TER", "transport_legende": "\ud83d\udeb2 \u2764\ufe0f Train TER \ud83d\ude86"}, "geometry": {"type": "Point", "coordinates": [-1.316189, 46.98372]}}, {"type": "Feature", "properties": {"start": "Olonne-sur-Mer", "stop_name": "Clisson", "type": "Gare accessible", "transport": "TER", "transport_legende": "\ud83d\udeb2 \u2764\ufe0f Train TER \ud83d\ude86"}, "geometry": {"type": "Point", "coordinates": [-1.286292, 47.086015]}}, {"type": "Feature", "properties": {"start": "Olonne-sur-Mer", "stop_name": "Nantes", "type": "Gare accessible", "transport": "TER", "transport_legende": "\ud83d\udeb2 \u2764\ufe0f Train TER \ud83d\ude86"}, "geometry": {"type": "Point", "coordinates": [-1.542077, 47.217491]}}]}