{"type": "FeatureCollection", "features": [{"type": "Feature", "properties": {"start": "Pagny", "stop_name": "Pagny", "type": "Gare s\u00e9lectionn\u00e9e", "transport": "TER", "transport_legende": "\ud83d\udeb2 \u2764\ufe0f Train TER \ud83d\ude86"}, "geometry": {"type": "Point", "coordinates": [5.201054, 47.046249]}}, {"type": "Feature", "properties": {"start": "Pagny", "stop_name": "Seurre", "type": "Gare accessible", "transport": "TER", "transport_legende": "\ud83d\udeb2 \u2764\ufe0f Train TER \ud83d\ude86"}, "geometry": {"type": "Point", "coordinates": [5.151071, 46.996404]}}, {"type": "Feature", "properties": {"start": "Pagny", "stop_name": "Saint-Jean-de-Losne", "type": "Gare accessible", "transport": "TER", "transport_legende": "\ud83d\udeb2 \u2764\ufe0f Train TER \ud83d\ude86"}, "geometry": {"type": "Point", "coordinates": [5.244298, 47.099795]}}, {"type": "Feature", "properties": {"start": "Pagny", "stop_name": "Brazey-en-Plaine", "type": "Gare accessible", "transport": "TER", "transport_legende": "\ud83d\udeb2 \u2764\ufe0f Train TER \ud83d\ude86"}, "geometry": {"type": "Point", "coordinates": [5.21239, 47.131491]}}, {"type": "Feature", "properties": {"start": "Pagny", "stop_name": "Aiserey", "type": "Gare accessible", "transport": "TER", "transport_legende": "\ud83d\udeb2 \u2764\ufe0f Train TER \ud83d\ude86"}, "geometry": {"type": "Point", "coordinates": [5.158352, 47.170645]}}, {"type": "Feature", "properties": {"start": "Pagny", "stop_name": "Saulon", "type": "Gare accessible", "transport": "TER", "transport_legende": "\ud83d\udeb2 \u2764\ufe0f Train TER \ud83d\ude86"}, "geometry": {"type": "Point", "coordinates": [5.104631, 47.224246]}}, {"type": "Feature", "properties": {"start": "Pagny", "stop_name": "Ouges", "type": "Gare accessible", "transport": "TER", "transport_legende": "\ud83d\udeb2 \u2764\ufe0f Train TER \ud83d\ude86"}, "geometry": {"type": "Point", "coordinates": [5.072808, 47.255843]}}, {"type": "Feature", "properties": {"start": "Pagny", "stop_name": "Dijon", "type": "Gare accessible", "transport": "TER", "transport_legende": "\ud83d\udeb2 \u2764\ufe0f Train TER \ud83d\ude86"}, "geometry": {"type": "Point", "coordinates": [5.027256, 47.323411]}}, {"type": "Feature", "properties": {"start": "Pagny", "stop_name": "Bourg-en-Bresse", "type": "Gare accessible", "transport": "TER", "transport_legende": "\ud83d\udeb2 \u2764\ufe0f Train TER \ud83d\ude86"}, "geometry": {"type": "Point", "coordinates": [5.215011, 46.200111]}}, {"type": "Feature", "properties": {"start": "Pagny", "stop_name": "Saint-Amour", "type": "Gare accessible", "transport": "TER", "transport_legende": "\ud83d\udeb2 \u2764\ufe0f Train TER \ud83d\ude86"}, "geometry": {"type": "Point", "coordinates": [5.334427, 46.433733]}}, {"type": "Feature", "properties": {"start": "Pagny", "stop_name": "Louhans", "type": "Gare accessible", "transport": "TER", "transport_legende": "\ud83d\udeb2 \u2764\ufe0f Train TER \ud83d\ude86"}, "geometry": {"type": "Point", "coordinates": [5.21753, 46.630929]}}, {"type": "Feature", "properties": {"start": "Pagny", "stop_name": "Mervans", "type": "Gare accessible", "transport": "TER", "transport_legende": "\ud83d\udeb2 \u2764\ufe0f Train TER \ud83d\ude86"}, "geometry": {"type": "Point", "coordinates": [5.179594, 46.798891]}}, {"type": "Feature", "properties": {"start": "Pagny", "stop_name": "Chaugey", "type": "Gare accessible", "transport": "TER", "transport_legende": "\ud83d\udeb2 \u2764\ufe0f Train TER \ud83d\ude86"}, "geometry": {"type": "Point", "coordinates": [5.255191, 47.087204]}}, {"type": "Feature", "properties": {"start": "Pagny", "stop_name": "Longecourt", "type": "Gare accessible", "transport": "TER", "transport_legende": "\ud83d\udeb2 \u2764\ufe0f Train TER \ud83d\ude86"}, "geometry": {"type": "Point", "coordinates": [5.134775, 47.193863]}}]}