{"type": "FeatureCollection", "features": [{"type": "Feature", "properties": {"start": "Peyrehorade", "stop_name": "Peyrehorade", "type": "Gare s\u00e9lectionn\u00e9e", "transport": "TER", "nombre_trajet_moyen": 4.46, "transport_legende": "\ud83d\udeb2 \u2764\ufe0f Train TER \ud83d\ude86"}, "geometry": {"type": "Point", "coordinates": [-1.115794, 43.546683]}}, {"type": "Feature", "properties": {"start": "Peyrehorade", "stop_name": "Pau", "type": "Gare accessible", "transport": "TER", "nombre_trajet_moyen": 4.46, "transport_legende": "\ud83d\udeb2 \u2764\ufe0f Train TER \ud83d\ude86"}, "geometry": {"type": "Point", "coordinates": [-0.369675, 43.291711]}}, {"type": "Feature", "properties": {"start": "Peyrehorade", "stop_name": "Artix", "type": "Gare accessible", "transport": "TER", "nombre_trajet_moyen": 4.46, "transport_legende": "\ud83d\udeb2 \u2764\ufe0f Train TER \ud83d\ude86"}, "geometry": {"type": "Point", "coordinates": [-0.570082, 43.393195]}}, {"type": "Feature", "properties": {"start": "Peyrehorade", "stop_name": "Orthez", "type": "Gare accessible", "transport": "TER", "nombre_trajet_moyen": 4.46, "transport_legende": "\ud83d\udeb2 \u2764\ufe0f Train TER \ud83d\ude86"}, "geometry": {"type": "Point", "coordinates": [-0.76776, 43.484242]}}, {"type": "Feature", "properties": {"start": "Peyrehorade", "stop_name": "Puyo\u00f4", "type": "Gare accessible", "transport": "TER", "nombre_trajet_moyen": 4.46, "transport_legende": "\ud83d\udeb2 \u2764\ufe0f Train TER \ud83d\ude86"}, "geometry": {"type": "Point", "coordinates": [-0.910812, 43.524682]}}, {"type": "Feature", "properties": {"start": "Peyrehorade", "stop_name": "Urt", "type": "Gare accessible", "transport": "TER", "nombre_trajet_moyen": 4.46, "transport_legende": "\ud83d\udeb2 \u2764\ufe0f Train TER \ud83d\ude86"}, "geometry": {"type": "Point", "coordinates": [-1.300529, 43.499213]}}, {"type": "Feature", "properties": {"start": "Peyrehorade", "stop_name": "Bayonne", "type": "Gare accessible", "transport": "TER", "nombre_trajet_moyen": 4.46, "transport_legende": "\ud83d\udeb2 \u2764\ufe0f Train TER \ud83d\ude86"}, "geometry": {"type": "Point", "coordinates": [-1.470368, 43.496793]}}, {"type": "Feature", "properties": {"start": "Peyrehorade", "stop_name": "Assat", "type": "Gare accessible", "transport": "TER", "nombre_trajet_moyen": 1.7, "transport_legende": "\ud83d\udeb2 \u2764\ufe0f Train TER \ud83d\ude86"}, "geometry": {"type": "Point", "coordinates": [-0.295018, 43.254399]}}, {"type": "Feature", "properties": {"start": "Peyrehorade", "stop_name": "Coarraze - Nay", "type": "Gare accessible", "transport": "TER", "nombre_trajet_moyen": 1.7, "transport_legende": "\ud83d\udeb2 \u2764\ufe0f Train TER \ud83d\ude86"}, "geometry": {"type": "Point", "coordinates": [-0.241699, 43.18183]}}, {"type": "Feature", "properties": {"start": "Peyrehorade", "stop_name": "Montaut B\u00e9tharram", "type": "Gare accessible", "transport": "TER", "nombre_trajet_moyen": 1.7, "transport_legende": "\ud83d\udeb2 \u2764\ufe0f Train TER \ud83d\ude86"}, "geometry": {"type": "Point", "coordinates": [-0.198247, 43.126997]}}, {"type": "Feature", "properties": {"start": "Peyrehorade", "stop_name": "Saint-P\u00e9-de-Bigorre", "type": "Gare accessible", "transport": "TER", "nombre_trajet_moyen": 1.7, "transport_legende": "\ud83d\udeb2 \u2764\ufe0f Train TER \ud83d\ude86"}, "geometry": {"type": "Point", "coordinates": [-0.161423, 43.101483]}}, {"type": "Feature", "properties": {"start": "Peyrehorade", "stop_name": "Lourdes", "type": "Gare accessible", "transport": "TER", "nombre_trajet_moyen": 1.7, "transport_legende": "\ud83d\udeb2 \u2764\ufe0f Train TER \ud83d\ude86"}, "geometry": {"type": "Point", "coordinates": [-0.042186, 43.100429]}}, {"type": "Feature", "properties": {"start": "Peyrehorade", "stop_name": "Ossun", "type": "Gare accessible", "transport": "TER", "nombre_trajet_moyen": 1.35, "transport_legende": "\ud83d\udeb2 \u2764\ufe0f Train TER \ud83d\ude86"}, "geometry": {"type": "Point", "coordinates": [-0.021725, 43.183237]}}, {"type": "Feature", "properties": {"start": "Peyrehorade", "stop_name": "Tarbes", "type": "Gare accessible", "transport": "TER", "nombre_trajet_moyen": 1.7, "transport_legende": "\ud83d\udeb2 \u2764\ufe0f Train TER \ud83d\ude86"}, "geometry": {"type": "Point", "coordinates": [0.069442, 43.239863]}}, {"type": "Feature", "properties": {"start": "Peyrehorade", "stop_name": "Biarritz", "type": "Gare accessible", "transport": "TER", "nombre_trajet_moyen": 0.7, "transport_legende": "\ud83d\udeb2 \u2764\ufe0f Train TER \ud83d\ude86"}, "geometry": {"type": "Point", "coordinates": [-1.545937, 43.459387]}}, {"type": "Feature", "properties": {"start": "Peyrehorade", "stop_name": "Gu\u00e9thary", "type": "Gare accessible", "transport": "TER", "nombre_trajet_moyen": 0.7, "transport_legende": "\ud83d\udeb2 \u2764\ufe0f Train TER \ud83d\ude86"}, "geometry": {"type": "Point", "coordinates": [-1.609972, 43.425238]}}, {"type": "Feature", "properties": {"start": "Peyrehorade", "stop_name": "Saint-Jean-de-Luz - Ciboure", "type": "Gare accessible", "transport": "TER", "nombre_trajet_moyen": 0.7, "transport_legende": "\ud83d\udeb2 \u2764\ufe0f Train TER \ud83d\ude86"}, "geometry": {"type": "Point", "coordinates": [-1.661181, 43.385862]}}, {"type": "Feature", "properties": {"start": "Peyrehorade", "stop_name": "Les Deux Jumeaux", "type": "Gare accessible", "transport": "TER", "nombre_trajet_moyen": 0.7, "transport_legende": "\ud83d\udeb2 \u2764\ufe0f Train TER \ud83d\ude86"}, "geometry": {"type": "Point", "coordinates": [-1.764527, 43.370066]}}, {"type": "Feature", "properties": {"start": "Peyrehorade", "stop_name": "Hendaye", "type": "Gare accessible", "transport": "TER", "nombre_trajet_moyen": 0.7, "transport_legende": "\ud83d\udeb2 \u2764\ufe0f Train TER \ud83d\ude86"}, "geometry": {"type": "Point", "coordinates": [-1.781724, 43.353132]}}]}