{"type": "FeatureCollection", "features": [{"type": "Feature", "properties": {"start": "Planco\u00ebt", "stop_name": "Planco\u00ebt", "type": "Gare s\u00e9lectionn\u00e9e", "transport": "TER", "transport_legende": "\ud83d\udeb2 \u2764\ufe0f Train TER \ud83d\ude86"}, "geometry": {"type": "Point", "coordinates": [-2.228921, 48.521679]}}, {"type": "Feature", "properties": {"start": "Planco\u00ebt", "stop_name": "Dinan", "type": "Gare accessible", "transport": "TER", "transport_legende": "\ud83d\udeb2 \u2764\ufe0f Train TER \ud83d\ude86"}, "geometry": {"type": "Point", "coordinates": [-2.053425, 48.456715]}}, {"type": "Feature", "properties": {"start": "Planco\u00ebt", "stop_name": "Corseul - Languenan", "type": "Gare accessible", "transport": "TER", "transport_legende": "\ud83d\udeb2 \u2764\ufe0f Train TER \ud83d\ude86"}, "geometry": {"type": "Point", "coordinates": [-2.141728, 48.496186]}}, {"type": "Feature", "properties": {"start": "Planco\u00ebt", "stop_name": "Land\u00e9bia", "type": "Gare accessible", "transport": "TER", "transport_legende": "\ud83d\udeb2 \u2764\ufe0f Train TER \ud83d\ude86"}, "geometry": {"type": "Point", "coordinates": [-2.331372, 48.507421]}}, {"type": "Feature", "properties": {"start": "Planco\u00ebt", "stop_name": "Lamballe", "type": "Gare accessible", "transport": "TER", "transport_legende": "\ud83d\udeb2 \u2764\ufe0f Train TER \ud83d\ude86"}, "geometry": {"type": "Point", "coordinates": [-2.511546, 48.46606]}}, {"type": "Feature", "properties": {"start": "Planco\u00ebt", "stop_name": "Yffiniac", "type": "Gare accessible", "transport": "TER", "transport_legende": "\ud83d\udeb2 \u2764\ufe0f Train TER \ud83d\ude86"}, "geometry": {"type": "Point", "coordinates": [-2.652447, 48.470083]}}, {"type": "Feature", "properties": {"start": "Planco\u00ebt", "stop_name": "Saint-Brieuc", "type": "Gare accessible", "transport": "TER", "transport_legende": "\ud83d\udeb2 \u2764\ufe0f Train TER \ud83d\ude86"}, "geometry": {"type": "Point", "coordinates": [-2.765, 48.50758]}}]}