{"type": "FeatureCollection", "features": [{"type": "Feature", "properties": {"start": "Pont-\u00e0-Mousson", "stop_name": "Pont-\u00e0-Mousson", "type": "Gare s\u00e9lectionn\u00e9e", "transport": "TER", "nombre_trajet_moyen": 19.13, "transport_legende": "\ud83d\udeb2 \u2764\ufe0f Train TER \ud83d\ude86"}, "geometry": {"type": "Point", "coordinates": [6.051021, 48.900348]}}, {"type": "Feature", "properties": {"start": "Pont-\u00e0-Mousson", "stop_name": "Nancy", "type": "Gare accessible", "transport": "TER", "nombre_trajet_moyen": 19.13, "transport_legende": "\ud83d\udeb2 \u2764\ufe0f Train TER \ud83d\ude86"}, "geometry": {"type": "Point", "coordinates": [6.174579, 48.689857]}}, {"type": "Feature", "properties": {"start": "Pont-\u00e0-Mousson", "stop_name": "Champigneulles", "type": "Gare accessible", "transport": "TER", "nombre_trajet_moyen": 5.29, "transport_legende": "\ud83d\udeb2 \u2764\ufe0f Train TER \ud83d\ude86"}, "geometry": {"type": "Point", "coordinates": [6.168952, 48.735025]}}, {"type": "Feature", "properties": {"start": "Pont-\u00e0-Mousson", "stop_name": "Frouard", "type": "Gare accessible", "transport": "TER", "nombre_trajet_moyen": 7.76, "transport_legende": "\ud83d\udeb2 \u2764\ufe0f Train TER \ud83d\ude86"}, "geometry": {"type": "Point", "coordinates": [6.143927, 48.755428]}}, {"type": "Feature", "properties": {"start": "Pont-\u00e0-Mousson", "stop_name": "Pompey", "type": "Gare accessible", "transport": "TER", "nombre_trajet_moyen": 7.76, "transport_legende": "\ud83d\udeb2 \u2764\ufe0f Train TER \ud83d\ude86"}, "geometry": {"type": "Point", "coordinates": [6.13061, 48.77304]}}, {"type": "Feature", "properties": {"start": "Pont-\u00e0-Mousson", "stop_name": "Marbache", "type": "Gare accessible", "transport": "TER", "nombre_trajet_moyen": 5.91, "transport_legende": "\ud83d\udeb2 \u2764\ufe0f Train TER \ud83d\ude86"}, "geometry": {"type": "Point", "coordinates": [6.108779, 48.801156]}}, {"type": "Feature", "properties": {"start": "Pont-\u00e0-Mousson", "stop_name": "Belleville", "type": "Gare accessible", "transport": "TER", "nombre_trajet_moyen": 4.37, "transport_legende": "\ud83d\udeb2 \u2764\ufe0f Train TER \ud83d\ude86"}, "geometry": {"type": "Point", "coordinates": [6.101779, 48.819245]}}, {"type": "Feature", "properties": {"start": "Pont-\u00e0-Mousson", "stop_name": "Dieulouard", "type": "Gare accessible", "transport": "TER", "nombre_trajet_moyen": 7.76, "transport_legende": "\ud83d\udeb2 \u2764\ufe0f Train TER \ud83d\ude86"}, "geometry": {"type": "Point", "coordinates": [6.071505, 48.843826]}}, {"type": "Feature", "properties": {"start": "Pont-\u00e0-Mousson", "stop_name": "Metz", "type": "Gare accessible", "transport": "TER", "nombre_trajet_moyen": 16.82, "transport_legende": "\ud83d\udeb2 \u2764\ufe0f Train TER \ud83d\ude86"}, "geometry": {"type": "Point", "coordinates": [6.177052, 49.109466]}}, {"type": "Feature", "properties": {"start": "Pont-\u00e0-Mousson", "stop_name": "Ars-sur-Moselle", "type": "Gare accessible", "transport": "TER", "nombre_trajet_moyen": 7.76, "transport_legende": "\ud83d\udeb2 \u2764\ufe0f Train TER \ud83d\ude86"}, "geometry": {"type": "Point", "coordinates": [6.077646, 49.074475]}}, {"type": "Feature", "properties": {"start": "Pont-\u00e0-Mousson", "stop_name": "Ancy-sur-Moselle", "type": "Gare accessible", "transport": "TER", "nombre_trajet_moyen": 7.49, "transport_legende": "\ud83d\udeb2 \u2764\ufe0f Train TER \ud83d\ude86"}, "geometry": {"type": "Point", "coordinates": [6.062342, 49.057714]}}, {"type": "Feature", "properties": {"start": "Pont-\u00e0-Mousson", "stop_name": "Nov\u00e9ant-sur-Moselle", "type": "Gare accessible", "transport": "TER", "nombre_trajet_moyen": 7.76, "transport_legende": "\ud83d\udeb2 \u2764\ufe0f Train TER \ud83d\ude86"}, "geometry": {"type": "Point", "coordinates": [6.052051, 49.028717]}}, {"type": "Feature", "properties": {"start": "Pont-\u00e0-Mousson", "stop_name": "Pagny-sur-Moselle", "type": "Gare accessible", "transport": "TER", "nombre_trajet_moyen": 16.82, "transport_legende": "\ud83d\udeb2 \u2764\ufe0f Train TER \ud83d\ude86"}, "geometry": {"type": "Point", "coordinates": [6.025035, 48.9852]}}, {"type": "Feature", "properties": {"start": "Pont-\u00e0-Mousson", "stop_name": "Vandi\u00e8res", "type": "Gare accessible", "transport": "TER", "nombre_trajet_moyen": 4.47, "transport_legende": "\ud83d\udeb2 \u2764\ufe0f Train TER \ud83d\ude86"}, "geometry": {"type": "Point", "coordinates": [6.037921, 48.951493]}}, {"type": "Feature", "properties": {"start": "Pont-\u00e0-Mousson", "stop_name": "Onville", "type": "Gare accessible", "transport": "TER", "nombre_trajet_moyen": 3.76, "transport_legende": "\ud83d\udeb2 \u2764\ufe0f Train TER \ud83d\ude86"}, "geometry": {"type": "Point", "coordinates": [5.979092, 49.013667]}}, {"type": "Feature", "properties": {"start": "Pont-\u00e0-Mousson", "stop_name": "Conflans - Jarny", "type": "Gare accessible", "transport": "TER", "nombre_trajet_moyen": 3.76, "transport_legende": "\ud83d\udeb2 \u2764\ufe0f Train TER \ud83d\ude86"}, "geometry": {"type": "Point", "coordinates": [5.867933, 49.166118]}}, {"type": "Feature", "properties": {"start": "Pont-\u00e0-Mousson", "stop_name": "Baroncourt", "type": "Gare accessible", "transport": "TER", "nombre_trajet_moyen": 3.49, "transport_legende": "\ud83d\udeb2 \u2764\ufe0f Train TER \ud83d\ude86"}, "geometry": {"type": "Point", "coordinates": [5.699708, 49.284534]}}, {"type": "Feature", "properties": {"start": "Pont-\u00e0-Mousson", "stop_name": "Longuyon", "type": "Gare accessible", "transport": "TER", "nombre_trajet_moyen": 3.49, "transport_legende": "\ud83d\udeb2 \u2764\ufe0f Train TER \ud83d\ude86"}, "geometry": {"type": "Point", "coordinates": [5.604551, 49.444412]}}, {"type": "Feature", "properties": {"start": "Pont-\u00e0-Mousson", "stop_name": "Longwy", "type": "Gare accessible", "transport": "TER", "nombre_trajet_moyen": 3.49, "transport_legende": "\ud83d\udeb2 \u2764\ufe0f Train TER \ud83d\ude86"}, "geometry": {"type": "Point", "coordinates": [5.76956, 49.513004]}}, {"type": "Feature", "properties": {"start": "Pont-\u00e0-Mousson", "stop_name": "\u00c9tain", "type": "Gare accessible", "transport": "TER", "nombre_trajet_moyen": 0.26, "transport_legende": "\ud83d\udeb2 \u2764\ufe0f Train TER \ud83d\ude86"}, "geometry": {"type": "Point", "coordinates": [5.639808, 49.207491]}}, {"type": "Feature", "properties": {"start": "Pont-\u00e0-Mousson", "stop_name": "Verdun", "type": "Gare accessible", "transport": "TER", "nombre_trajet_moyen": 0.26, "transport_legende": "\ud83d\udeb2 \u2764\ufe0f Train TER \ud83d\ude86"}, "geometry": {"type": "Point", "coordinates": [5.379672, 49.165441]}}, {"type": "Feature", "properties": {"start": "Pont-\u00e0-Mousson", "stop_name": "\u00c9pinal", "type": "Gare accessible", "transport": "TER", "nombre_trajet_moyen": 2.11, "transport_legende": "\ud83d\udeb2 \u2764\ufe0f Train TER \ud83d\ude86"}, "geometry": {"type": "Point", "coordinates": [6.441787, 48.178005]}}, {"type": "Feature", "properties": {"start": "Pont-\u00e0-Mousson", "stop_name": "Thaon", "type": "Gare accessible", "transport": "TER", "nombre_trajet_moyen": 2.11, "transport_legende": "\ud83d\udeb2 \u2764\ufe0f Train TER \ud83d\ude86"}, "geometry": {"type": "Point", "coordinates": [6.416337, 48.244686]}}, {"type": "Feature", "properties": {"start": "Pont-\u00e0-Mousson", "stop_name": "Igney", "type": "Gare accessible", "transport": "TER", "nombre_trajet_moyen": 1.42, "transport_legende": "\ud83d\udeb2 \u2764\ufe0f Train TER \ud83d\ude86"}, "geometry": {"type": "Point", "coordinates": [6.39969, 48.270747]}}, {"type": "Feature", "properties": {"start": "Pont-\u00e0-Mousson", "stop_name": "Ch\u00e2tel - Nomexy", "type": "Gare accessible", "transport": "TER", "nombre_trajet_moyen": 2.11, "transport_legende": "\ud83d\udeb2 \u2764\ufe0f Train TER \ud83d\ude86"}, "geometry": {"type": "Point", "coordinates": [6.388008, 48.307114]}}, {"type": "Feature", "properties": {"start": "Pont-\u00e0-Mousson", "stop_name": "Vincey", "type": "Gare accessible", "transport": "TER", "nombre_trajet_moyen": 1.42, "transport_legende": "\ud83d\udeb2 \u2764\ufe0f Train TER \ud83d\ude86"}, "geometry": {"type": "Point", "coordinates": [6.335801, 48.343424]}}, {"type": "Feature", "properties": {"start": "Pont-\u00e0-Mousson", "stop_name": "Charmes", "type": "Gare accessible", "transport": "TER", "nombre_trajet_moyen": 2.11, "transport_legende": "\ud83d\udeb2 \u2764\ufe0f Train TER \ud83d\ude86"}, "geometry": {"type": "Point", "coordinates": [6.301537, 48.378483]}}, {"type": "Feature", "properties": {"start": "Pont-\u00e0-Mousson", "stop_name": "Bayon", "type": "Gare accessible", "transport": "TER", "nombre_trajet_moyen": 2.11, "transport_legende": "\ud83d\udeb2 \u2764\ufe0f Train TER \ud83d\ude86"}, "geometry": {"type": "Point", "coordinates": [6.32286, 48.468045]}}, {"type": "Feature", "properties": {"start": "Pont-\u00e0-Mousson", "stop_name": "Einvaux", "type": "Gare accessible", "transport": "TER", "nombre_trajet_moyen": 1.42, "transport_legende": "\ud83d\udeb2 \u2764\ufe0f Train TER \ud83d\ude86"}, "geometry": {"type": "Point", "coordinates": [6.393244, 48.503597]}}, {"type": "Feature", "properties": {"start": "Pont-\u00e0-Mousson", "stop_name": "Remiremont", "type": "Gare accessible", "transport": "TER", "nombre_trajet_moyen": 0.69, "transport_legende": "\ud83d\udeb2 \u2764\ufe0f Train TER \ud83d\ude86"}, "geometry": {"type": "Point", "coordinates": [6.598879, 48.016342]}}, {"type": "Feature", "properties": {"start": "Pont-\u00e0-Mousson", "stop_name": "Saint-Nabord", "type": "Gare accessible", "transport": "TER", "nombre_trajet_moyen": 0.69, "transport_legende": "\ud83d\udeb2 \u2764\ufe0f Train TER \ud83d\ude86"}, "geometry": {"type": "Point", "coordinates": [6.581572, 48.045742]}}, {"type": "Feature", "properties": {"start": "Pont-\u00e0-Mousson", "stop_name": "\u00c9loyes", "type": "Gare accessible", "transport": "TER", "nombre_trajet_moyen": 0.69, "transport_legende": "\ud83d\udeb2 \u2764\ufe0f Train TER \ud83d\ude86"}, "geometry": {"type": "Point", "coordinates": [6.600101, 48.087196]}}, {"type": "Feature", "properties": {"start": "Pont-\u00e0-Mousson", "stop_name": "Pouxeux", "type": "Gare accessible", "transport": "TER", "nombre_trajet_moyen": 0.69, "transport_legende": "\ud83d\udeb2 \u2764\ufe0f Train TER \ud83d\ude86"}, "geometry": {"type": "Point", "coordinates": [6.569532, 48.108806]}}, {"type": "Feature", "properties": {"start": "Pont-\u00e0-Mousson", "stop_name": "Arches Gare", "type": "Gare accessible", "transport": "TER", "nombre_trajet_moyen": 0.69, "transport_legende": "\ud83d\udeb2 \u2764\ufe0f Train TER \ud83d\ude86"}, "geometry": {"type": "Point", "coordinates": [6.528105, 48.118896]}}, {"type": "Feature", "properties": {"start": "Pont-\u00e0-Mousson", "stop_name": "Blainville - Damelevi\u00e8res", "type": "Gare accessible", "transport": "TER", "nombre_trajet_moyen": 1.33, "transport_legende": "\ud83d\udeb2 \u2764\ufe0f Train TER \ud83d\ude86"}, "geometry": {"type": "Point", "coordinates": [6.386948, 48.564799]}}, {"type": "Feature", "properties": {"start": "Pont-\u00e0-Mousson", "stop_name": "Varang\u00e9ville - Saint-Nicolas", "type": "Gare accessible", "transport": "TER", "nombre_trajet_moyen": 1.33, "transport_legende": "\ud83d\udeb2 \u2764\ufe0f Train TER \ud83d\ude86"}, "geometry": {"type": "Point", "coordinates": [6.313142, 48.635215]}}, {"type": "Feature", "properties": {"start": "Pont-\u00e0-Mousson", "stop_name": "Lun\u00e9ville", "type": "Gare accessible", "transport": "TER", "nombre_trajet_moyen": 0.64, "transport_legende": "\ud83d\udeb2 \u2764\ufe0f Train TER \ud83d\ude86"}, "geometry": {"type": "Point", "coordinates": [6.496997, 48.58799]}}, {"type": "Feature", "properties": {"start": "Pont-\u00e0-Mousson", "stop_name": "Rosi\u00e8res-aux-Salines", "type": "Gare accessible", "transport": "TER", "nombre_trajet_moyen": 0.64, "transport_legende": "\ud83d\udeb2 \u2764\ufe0f Train TER \ud83d\ude86"}, "geometry": {"type": "Point", "coordinates": [6.350631, 48.605441]}}, {"type": "Feature", "properties": {"start": "Pont-\u00e0-Mousson", "stop_name": "Dombasle-sur-Meurthe", "type": "Gare accessible", "transport": "TER", "nombre_trajet_moyen": 0.64, "transport_legende": "\ud83d\udeb2 \u2764\ufe0f Train TER \ud83d\ude86"}, "geometry": {"type": "Point", "coordinates": [6.343566, 48.623332]}}, {"type": "Feature", "properties": {"start": "Pont-\u00e0-Mousson", "stop_name": "Thionville", "type": "Gare accessible", "transport": "TER", "nombre_trajet_moyen": 9.57, "transport_legende": "\ud83d\udeb2 \u2764\ufe0f Train TER \ud83d\ude86"}, "geometry": {"type": "Point", "coordinates": [6.168582, 49.353965]}}, {"type": "Feature", "properties": {"start": "Pont-\u00e0-Mousson", "stop_name": "Uckange", "type": "Gare accessible", "transport": "TER", "nombre_trajet_moyen": 9.57, "transport_legende": "\ud83d\udeb2 \u2764\ufe0f Train TER \ud83d\ude86"}, "geometry": {"type": "Point", "coordinates": [6.1566, 49.303459]}}, {"type": "Feature", "properties": {"start": "Pont-\u00e0-Mousson", "stop_name": "Hagondange", "type": "Gare accessible", "transport": "TER", "nombre_trajet_moyen": 9.57, "transport_legende": "\ud83d\udeb2 \u2764\ufe0f Train TER \ud83d\ude86"}, "geometry": {"type": "Point", "coordinates": [6.16448, 49.25356]}}, {"type": "Feature", "properties": {"start": "Pont-\u00e0-Mousson", "stop_name": "Bettembourg", "type": "Gare accessible", "transport": "TER", "nombre_trajet_moyen": 8.41, "transport_legende": "\ud83d\udeb2 \u2764\ufe0f Train TER \ud83d\ude86"}, "geometry": {"type": "Point", "coordinates": [6.101111, 49.516111]}}, {"type": "Feature", "properties": {"start": "Pont-\u00e0-Mousson", "stop_name": "Howald", "type": "Gare accessible", "transport": "TER", "nombre_trajet_moyen": 5.2, "transport_legende": "\ud83d\udeb2 \u2764\ufe0f Train TER \ud83d\ude86"}, "geometry": {"type": "Point", "coordinates": [6.13232, 49.58032]}}, {"type": "Feature", "properties": {"start": "Pont-\u00e0-Mousson", "stop_name": "Luxembourg", "type": "Gare accessible", "transport": "TER", "nombre_trajet_moyen": 5.71, "transport_legende": "\ud83d\udeb2 \u2764\ufe0f Train TER \ud83d\ude86"}, "geometry": {"type": "Point", "coordinates": [6.134722, 49.599722]}}, {"type": "Feature", "properties": {"start": "Pont-\u00e0-Mousson", "stop_name": "Metz Nord", "type": "Gare accessible", "transport": "TER", "nombre_trajet_moyen": 1.02, "transport_legende": "\ud83d\udeb2 \u2764\ufe0f Train TER \ud83d\ude86"}, "geometry": {"type": "Point", "coordinates": [6.167538, 49.136865]}}, {"type": "Feature", "properties": {"start": "Pont-\u00e0-Mousson", "stop_name": "Woippy", "type": "Gare accessible", "transport": "TER", "nombre_trajet_moyen": 1.02, "transport_legende": "\ud83d\udeb2 \u2764\ufe0f Train TER \ud83d\ude86"}, "geometry": {"type": "Point", "coordinates": [6.155621, 49.148797]}}, {"type": "Feature", "properties": {"start": "Pont-\u00e0-Mousson", "stop_name": "Maizi\u00e8res-l\u00e8s-Metz", "type": "Gare accessible", "transport": "TER", "nombre_trajet_moyen": 1.02, "transport_legende": "\ud83d\udeb2 \u2764\ufe0f Train TER \ud83d\ude86"}, "geometry": {"type": "Point", "coordinates": [6.158727, 49.215536]}}, {"type": "Feature", "properties": {"start": "Pont-\u00e0-Mousson", "stop_name": "Hettange-Grande", "type": "Gare accessible", "transport": "TER", "nombre_trajet_moyen": 1.41, "transport_legende": "\ud83d\udeb2 \u2764\ufe0f Train TER \ud83d\ude86"}, "geometry": {"type": "Point", "coordinates": [6.156759, 49.407685]}}, {"type": "Feature", "properties": {"start": "Pont-\u00e0-Mousson", "stop_name": "Walygator parc", "type": "Gare accessible", "transport": "TER", "nombre_trajet_moyen": 0.25, "transport_legende": "\ud83d\udeb2 \u2764\ufe0f Train TER \ud83d\ude86"}, "geometry": {"type": "Point", "coordinates": [6.15946, 49.22492]}}]}