{"type": "FeatureCollection", "features": [{"type": "Feature", "properties": {"start": "Pont-du-Ch\u00e2teau", "stop_name": "Pont-du-Ch\u00e2teau", "type": "Gare s\u00e9lectionn\u00e9e", "transport": "TER", "transport_legende": "\ud83d\udeb2 \u2764\ufe0f Train TER \ud83d\ude86"}, "geometry": {"type": "Point", "coordinates": [3.238384, 45.788529]}}, {"type": "Feature", "properties": {"start": "Pont-du-Ch\u00e2teau", "stop_name": "Clermont-Ferrand", "type": "Gare accessible", "transport": "TER", "transport_legende": "\ud83d\udeb2 \u2764\ufe0f Train TER \ud83d\ude86"}, "geometry": {"type": "Point", "coordinates": [3.100543, 45.778945]}}, {"type": "Feature", "properties": {"start": "Pont-du-Ch\u00e2teau", "stop_name": "Aulnat A\u00e9roport", "type": "Gare accessible", "transport": "TER", "transport_legende": "\ud83d\udeb2 \u2764\ufe0f Train TER \ud83d\ude86"}, "geometry": {"type": "Point", "coordinates": [3.161442, 45.791865]}}, {"type": "Feature", "properties": {"start": "Pont-du-Ch\u00e2teau", "stop_name": "Vertaizon", "type": "Gare accessible", "transport": "TER", "transport_legende": "\ud83d\udeb2 \u2764\ufe0f Train TER \ud83d\ude86"}, "geometry": {"type": "Point", "coordinates": [3.288241, 45.784579]}}, {"type": "Feature", "properties": {"start": "Pont-du-Ch\u00e2teau", "stop_name": "Lezoux", "type": "Gare accessible", "transport": "TER", "transport_legende": "\ud83d\udeb2 \u2764\ufe0f Train TER \ud83d\ude86"}, "geometry": {"type": "Point", "coordinates": [3.385986, 45.821218]}}, {"type": "Feature", "properties": {"start": "Pont-du-Ch\u00e2teau", "stop_name": "Pont de Dore", "type": "Gare accessible", "transport": "TER", "transport_legende": "\ud83d\udeb2 \u2764\ufe0f Train TER \ud83d\ude86"}, "geometry": {"type": "Point", "coordinates": [3.49045, 45.842875]}}, {"type": "Feature", "properties": {"start": "Pont-du-Ch\u00e2teau", "stop_name": "Thiers", "type": "Gare accessible", "transport": "TER", "transport_legende": "\ud83d\udeb2 \u2764\ufe0f Train TER \ud83d\ude86"}, "geometry": {"type": "Point", "coordinates": [3.543099, 45.861093]}}]}