{"type": "FeatureCollection", "features": [{"type": "Feature", "properties": {"start": "Saint-Jean-de-Verges Centre", "stop_name": "Saint-Jean-de-Verges Centre", "type": "Gare s\u00e9lectionn\u00e9e", "transport": "TER", "transport_legende": "\ud83d\udeb2 \u2764\ufe0f Train TER \ud83d\ude86"}, "geometry": {"type": "Point", "coordinates": [1.61074, 43.013679]}}, {"type": "Feature", "properties": {"start": "Saint-Jean-de-Verges Centre", "stop_name": "Foix", "type": "Gare accessible", "transport": "TER", "transport_legende": "\ud83d\udeb2 \u2764\ufe0f Train TER \ud83d\ude86"}, "geometry": {"type": "Point", "coordinates": [1.60704, 42.969707]}}, {"type": "Feature", "properties": {"start": "Saint-Jean-de-Verges Centre", "stop_name": "Varilhes", "type": "Gare accessible", "transport": "TER", "transport_legende": "\ud83d\udeb2 \u2764\ufe0f Train TER \ud83d\ude86"}, "geometry": {"type": "Point", "coordinates": [1.628318, 43.041594]}}, {"type": "Feature", "properties": {"start": "Saint-Jean-de-Verges Centre", "stop_name": "Pamiers", "type": "Gare accessible", "transport": "TER", "transport_legende": "\ud83d\udeb2 \u2764\ufe0f Train TER \ud83d\ude86"}, "geometry": {"type": "Point", "coordinates": [1.619451, 43.116207]}}, {"type": "Feature", "properties": {"start": "Saint-Jean-de-Verges Centre", "stop_name": "Le Vernet", "type": "Gare accessible", "transport": "TER", "transport_legende": "\ud83d\udeb2 \u2764\ufe0f Train TER \ud83d\ude86"}, "geometry": {"type": "Point", "coordinates": [1.609749, 43.184272]}}, {"type": "Feature", "properties": {"start": "Saint-Jean-de-Verges Centre", "stop_name": "Saverdun", "type": "Gare accessible", "transport": "TER", "transport_legende": "\ud83d\udeb2 \u2764\ufe0f Train TER \ud83d\ude86"}, "geometry": {"type": "Point", "coordinates": [1.570636, 43.239335]}}, {"type": "Feature", "properties": {"start": "Saint-Jean-de-Verges Centre", "stop_name": "Cintegabelle-Rond-Point", "type": "Gare accessible", "transport": "TER", "transport_legende": "\ud83d\udeb2 \u2764\ufe0f Train TER \ud83d\ude86"}, "geometry": {"type": "Point", "coordinates": [1.521177, 43.305381]}}, {"type": "Feature", "properties": {"start": "Saint-Jean-de-Verges Centre", "stop_name": "Auterive", "type": "Gare accessible", "transport": "TER", "transport_legende": "\ud83d\udeb2 \u2764\ufe0f Train TER \ud83d\ude86"}, "geometry": {"type": "Point", "coordinates": [1.468831, 43.348993]}}, {"type": "Feature", "properties": {"start": "Saint-Jean-de-Verges Centre", "stop_name": "Venerque - Le Vernet", "type": "Gare accessible", "transport": "TER", "transport_legende": "\ud83d\udeb2 \u2764\ufe0f Train TER \ud83d\ude86"}, "geometry": {"type": "Point", "coordinates": [1.425956, 43.433359]}}, {"type": "Feature", "properties": {"start": "Saint-Jean-de-Verges Centre", "stop_name": "Pins-Justaret", "type": "Gare accessible", "transport": "TER", "transport_legende": "\ud83d\udeb2 \u2764\ufe0f Train TER \ud83d\ude86"}, "geometry": {"type": "Point", "coordinates": [1.399645, 43.479213]}}, {"type": "Feature", "properties": {"start": "Saint-Jean-de-Verges Centre", "stop_name": "Portet Saint-Simon", "type": "Gare accessible", "transport": "TER", "transport_legende": "\ud83d\udeb2 \u2764\ufe0f Train TER \ud83d\ude86"}, "geometry": {"type": "Point", "coordinates": [1.389243, 43.527904]}}, {"type": "Feature", "properties": {"start": "Saint-Jean-de-Verges Centre", "stop_name": "Toulouse Matabiau", "type": "Gare accessible", "transport": "TER", "transport_legende": "\ud83d\udeb2 \u2764\ufe0f Train TER \ud83d\ude86"}, "geometry": {"type": "Point", "coordinates": [1.453616, 43.611206]}}]}