{"type": "FeatureCollection", "features": [{"type": "Feature", "properties": {"start": "Saint-Antoine", "stop_name": "Saint-Antoine", "type": "Gare s\u00e9lectionn\u00e9e", "transport": "TER", "nombre_trajet_moyen": 8.23, "transport_legende": "\ud83d\udeb2 \u2764\ufe0f Train TER \ud83d\ude86"}, "geometry": {"type": "Point", "coordinates": [5.35781, 43.369599]}}, {"type": "Feature", "properties": {"start": "Saint-Antoine", "stop_name": "Marseille Saint-Charles", "type": "Gare accessible", "transport": "TER", "nombre_trajet_moyen": 8.23, "transport_legende": "\ud83d\udeb2 \u2764\ufe0f Train TER \ud83d\ude86"}, "geometry": {"type": "Point", "coordinates": [5.380407, 43.302666]}}, {"type": "Feature", "properties": {"start": "Saint-Antoine", "stop_name": "Simiane", "type": "Gare accessible", "transport": "TER", "nombre_trajet_moyen": 8.23, "transport_legende": "\ud83d\udeb2 \u2764\ufe0f Train TER \ud83d\ude86"}, "geometry": {"type": "Point", "coordinates": [5.426058, 43.434751]}}, {"type": "Feature", "properties": {"start": "Saint-Antoine", "stop_name": "Gardanne", "type": "Gare accessible", "transport": "TER", "nombre_trajet_moyen": 8.23, "transport_legende": "\ud83d\udeb2 \u2764\ufe0f Train TER \ud83d\ude86"}, "geometry": {"type": "Point", "coordinates": [5.463324, 43.456023]}}, {"type": "Feature", "properties": {"start": "Saint-Antoine", "stop_name": "Aix-en-Provence", "type": "Gare accessible", "transport": "TER", "nombre_trajet_moyen": 8.23, "transport_legende": "\ud83d\udeb2 \u2764\ufe0f Train TER \ud83d\ude86"}, "geometry": {"type": "Point", "coordinates": [5.44533, 43.522903]}}, {"type": "Feature", "properties": {"start": "Saint-Antoine", "stop_name": "Meyrargues", "type": "Gare accessible", "transport": "TER", "nombre_trajet_moyen": 7.52, "transport_legende": "\ud83d\udeb2 \u2764\ufe0f Train TER \ud83d\ude86"}, "geometry": {"type": "Point", "coordinates": [5.539566, 43.644037]}}, {"type": "Feature", "properties": {"start": "Saint-Antoine", "stop_name": "Manosque - Gr\u00e9oux-les-Bains", "type": "Gare accessible", "transport": "TER", "nombre_trajet_moyen": 5.75, "transport_legende": "\ud83d\udeb2 \u2764\ufe0f Train TER \ud83d\ude86"}, "geometry": {"type": "Point", "coordinates": [5.793324, 43.823194]}}, {"type": "Feature", "properties": {"start": "Saint-Antoine", "stop_name": "La Brillanne - Oraison", "type": "Gare accessible", "transport": "TER", "nombre_trajet_moyen": 5.75, "transport_legende": "\ud83d\udeb2 \u2764\ufe0f Train TER \ud83d\ude86"}, "geometry": {"type": "Point", "coordinates": [5.892371, 43.924823]}}, {"type": "Feature", "properties": {"start": "Saint-Antoine", "stop_name": "Ch\u00e2teau-Arnoux-Saint-Auban", "type": "Gare accessible", "transport": "TER", "nombre_trajet_moyen": 5.75, "transport_legende": "\ud83d\udeb2 \u2764\ufe0f Train TER \ud83d\ude86"}, "geometry": {"type": "Point", "coordinates": [5.997435, 44.061463]}}, {"type": "Feature", "properties": {"start": "Saint-Antoine", "stop_name": "Sisteron", "type": "Gare accessible", "transport": "TER", "nombre_trajet_moyen": 5.75, "transport_legende": "\ud83d\udeb2 \u2764\ufe0f Train TER \ud83d\ude86"}, "geometry": {"type": "Point", "coordinates": [5.946575, 44.19022]}}, {"type": "Feature", "properties": {"start": "Saint-Antoine", "stop_name": "Laragne", "type": "Gare accessible", "transport": "TER", "nombre_trajet_moyen": 5.2, "transport_legende": "\ud83d\udeb2 \u2764\ufe0f Train TER \ud83d\ude86"}, "geometry": {"type": "Point", "coordinates": [5.819042, 44.316504]}}, {"type": "Feature", "properties": {"start": "Saint-Antoine", "stop_name": "Serres", "type": "Gare accessible", "transport": "TER", "nombre_trajet_moyen": 5.2, "transport_legende": "\ud83d\udeb2 \u2764\ufe0f Train TER \ud83d\ude86"}, "geometry": {"type": "Point", "coordinates": [5.71847, 44.424687]}}, {"type": "Feature", "properties": {"start": "Saint-Antoine", "stop_name": "Veynes D\u00e9voluy", "type": "Gare accessible", "transport": "TER", "nombre_trajet_moyen": 5.2, "transport_legende": "\ud83d\udeb2 \u2764\ufe0f Train TER \ud83d\ude86"}, "geometry": {"type": "Point", "coordinates": [5.815807, 44.532019]}}, {"type": "Feature", "properties": {"start": "Saint-Antoine", "stop_name": "Gap", "type": "Gare accessible", "transport": "TER", "nombre_trajet_moyen": 5.2, "transport_legende": "\ud83d\udeb2 \u2764\ufe0f Train TER \ud83d\ude86"}, "geometry": {"type": "Point", "coordinates": [6.085669, 44.563714]}}, {"type": "Feature", "properties": {"start": "Saint-Antoine", "stop_name": "Chorges", "type": "Gare accessible", "transport": "TER", "nombre_trajet_moyen": 3.53, "transport_legende": "\ud83d\udeb2 \u2764\ufe0f Train TER \ud83d\ude86"}, "geometry": {"type": "Point", "coordinates": [6.271889, 44.545842]}}, {"type": "Feature", "properties": {"start": "Saint-Antoine", "stop_name": "Embrun", "type": "Gare accessible", "transport": "TER", "nombre_trajet_moyen": 3.53, "transport_legende": "\ud83d\udeb2 \u2764\ufe0f Train TER \ud83d\ude86"}, "geometry": {"type": "Point", "coordinates": [6.496753, 44.567012]}}, {"type": "Feature", "properties": {"start": "Saint-Antoine", "stop_name": "Mont-Dauphin - Guillestre", "type": "Gare accessible", "transport": "TER", "nombre_trajet_moyen": 3.53, "transport_legende": "\ud83d\udeb2 \u2764\ufe0f Train TER \ud83d\ude86"}, "geometry": {"type": "Point", "coordinates": [6.61561, 44.674625]}}, {"type": "Feature", "properties": {"start": "Saint-Antoine", "stop_name": "L'Argenti\u00e8re les \u00c9crins", "type": "Gare accessible", "transport": "TER", "nombre_trajet_moyen": 3.53, "transport_legende": "\ud83d\udeb2 \u2764\ufe0f Train TER \ud83d\ude86"}, "geometry": {"type": "Point", "coordinates": [6.556408, 44.791013]}}, {"type": "Feature", "properties": {"start": "Saint-Antoine", "stop_name": "Brian\u00e7on", "type": "Gare accessible", "transport": "TER", "nombre_trajet_moyen": 3.53, "transport_legende": "\ud83d\udeb2 \u2764\ufe0f Train TER \ud83d\ude86"}, "geometry": {"type": "Point", "coordinates": [6.632966, 44.889842]}}, {"type": "Feature", "properties": {"start": "Saint-Antoine", "stop_name": "Sept\u00e8mes", "type": "Gare accessible", "transport": "TER", "nombre_trajet_moyen": 5.69, "transport_legende": "\ud83d\udeb2 \u2764\ufe0f Train TER \ud83d\ude86"}, "geometry": {"type": "Point", "coordinates": [5.370158, 43.403151]}}, {"type": "Feature", "properties": {"start": "Saint-Antoine", "stop_name": "Sainte-Marthe en Provence", "type": "Gare accessible", "transport": "TER", "nombre_trajet_moyen": 5.69, "transport_legende": "\ud83d\udeb2 \u2764\ufe0f Train TER \ud83d\ude86"}, "geometry": {"type": "Point", "coordinates": [5.390403, 43.33928]}}, {"type": "Feature", "properties": {"start": "Saint-Antoine", "stop_name": "Picon Busserine", "type": "Gare accessible", "transport": "TER", "nombre_trajet_moyen": 5.69, "transport_legende": "\ud83d\udeb2 \u2764\ufe0f Train TER \ud83d\ude86"}, "geometry": {"type": "Point", "coordinates": [5.392746, 43.330999]}}, {"type": "Feature", "properties": {"start": "Saint-Antoine", "stop_name": "Saint-Joseph le Castellas", "type": "Gare accessible", "transport": "TER", "nombre_trajet_moyen": 5.69, "transport_legende": "\ud83d\udeb2 \u2764\ufe0f Train TER \ud83d\ude86"}, "geometry": {"type": "Point", "coordinates": [5.377083, 43.351911]}}, {"type": "Feature", "properties": {"start": "Saint-Antoine", "stop_name": "Pertuis", "type": "Gare accessible", "transport": "TER", "nombre_trajet_moyen": 3.55, "transport_legende": "\ud83d\udeb2 \u2764\ufe0f Train TER \ud83d\ude86"}, "geometry": {"type": "Point", "coordinates": [5.503716, 43.684584]}}]}