{"type": "FeatureCollection", "features": [{"type": "Feature", "properties": {"start": "Saint-Jacques-de-la-Lande", "stop_name": "Saint-Jacques-de-la-Lande", "type": "Gare s\u00e9lectionn\u00e9e", "transport": "TER", "nombre_trajet_moyen": 1.89, "transport_legende": "\ud83d\udeb2 \u2764\ufe0f Train TER \ud83d\ude86"}, "geometry": {"type": "Point", "coordinates": [-1.714237, 48.067098]}}, {"type": "Feature", "properties": {"start": "Saint-Jacques-de-la-Lande", "stop_name": "Messac - Guipry", "type": "Gare accessible", "transport": "TER", "nombre_trajet_moyen": 1.89, "transport_legende": "\ud83d\udeb2 \u2764\ufe0f Train TER \ud83d\ude86"}, "geometry": {"type": "Point", "coordinates": [-1.81822, 47.82225]}}, {"type": "Feature", "properties": {"start": "Saint-Jacques-de-la-Lande", "stop_name": "Pl\u00e9ch\u00e2tel", "type": "Gare accessible", "transport": "TER", "nombre_trajet_moyen": 1.89, "transport_legende": "\ud83d\udeb2 \u2764\ufe0f Train TER \ud83d\ude86"}, "geometry": {"type": "Point", "coordinates": [-1.776352, 47.871861]}}, {"type": "Feature", "properties": {"start": "Saint-Jacques-de-la-Lande", "stop_name": "Saint-Senoux - Pl\u00e9ch\u00e2tel", "type": "Gare accessible", "transport": "TER", "nombre_trajet_moyen": 1.64, "transport_legende": "\ud83d\udeb2 \u2764\ufe0f Train TER \ud83d\ude86"}, "geometry": {"type": "Point", "coordinates": [-1.766138, 47.897837]}}, {"type": "Feature", "properties": {"start": "Saint-Jacques-de-la-Lande", "stop_name": "Guichen - Bourg-des-Comptes", "type": "Gare accessible", "transport": "TER", "nombre_trajet_moyen": 1.89, "transport_legende": "\ud83d\udeb2 \u2764\ufe0f Train TER \ud83d\ude86"}, "geometry": {"type": "Point", "coordinates": [-1.760184, 47.935096]}}, {"type": "Feature", "properties": {"start": "Saint-Jacques-de-la-Lande", "stop_name": "Laill\u00e9", "type": "Gare accessible", "transport": "TER", "nombre_trajet_moyen": 1.89, "transport_legende": "\ud83d\udeb2 \u2764\ufe0f Train TER \ud83d\ude86"}, "geometry": {"type": "Point", "coordinates": [-1.749252, 47.971069]}}, {"type": "Feature", "properties": {"start": "Saint-Jacques-de-la-Lande", "stop_name": "Bruz", "type": "Gare accessible", "transport": "TER", "nombre_trajet_moyen": 1.68, "transport_legende": "\ud83d\udeb2 \u2764\ufe0f Train TER \ud83d\ude86"}, "geometry": {"type": "Point", "coordinates": [-1.751587, 48.02858]}}, {"type": "Feature", "properties": {"start": "Saint-Jacques-de-la-Lande", "stop_name": "Ker Lann", "type": "Gare accessible", "transport": "TER", "nombre_trajet_moyen": 1.89, "transport_legende": "\ud83d\udeb2 \u2764\ufe0f Train TER \ud83d\ude86"}, "geometry": {"type": "Point", "coordinates": [-1.739831, 48.042986]}}, {"type": "Feature", "properties": {"start": "Saint-Jacques-de-la-Lande", "stop_name": "Rennes", "type": "Gare accessible", "transport": "TER", "nombre_trajet_moyen": 1.89, "transport_legende": "\ud83d\udeb2 \u2764\ufe0f Train TER \ud83d\ude86"}, "geometry": {"type": "Point", "coordinates": [-1.672744, 48.103517]}}, {"type": "Feature", "properties": {"start": "Saint-Jacques-de-la-Lande", "stop_name": "Fougeray - Langon", "type": "Gare accessible", "transport": "TER", "nombre_trajet_moyen": 0.14, "transport_legende": "\ud83d\udeb2 \u2764\ufe0f Train TER \ud83d\ude86"}, "geometry": {"type": "Point", "coordinates": [-1.851315, 47.729865]}}, {"type": "Feature", "properties": {"start": "Saint-Jacques-de-la-Lande", "stop_name": "Besl\u00e9", "type": "Gare accessible", "transport": "TER", "nombre_trajet_moyen": 0.14, "transport_legende": "\ud83d\udeb2 \u2764\ufe0f Train TER \ud83d\ude86"}, "geometry": {"type": "Point", "coordinates": [-1.870637, 47.698879]}}, {"type": "Feature", "properties": {"start": "Saint-Jacques-de-la-Lande", "stop_name": "Redon", "type": "Gare accessible", "transport": "TER", "nombre_trajet_moyen": 0.14, "transport_legende": "\ud83d\udeb2 \u2764\ufe0f Train TER \ud83d\ude86"}, "geometry": {"type": "Point", "coordinates": [-2.08777, 47.652004]}}, {"type": "Feature", "properties": {"start": "Saint-Jacques-de-la-Lande", "stop_name": "Malansac", "type": "Gare accessible", "transport": "TER", "nombre_trajet_moyen": 0.14, "transport_legende": "\ud83d\udeb2 \u2764\ufe0f Train TER \ud83d\ude86"}, "geometry": {"type": "Point", "coordinates": [-2.295869, 47.675559]}}, {"type": "Feature", "properties": {"start": "Saint-Jacques-de-la-Lande", "stop_name": "Questembert", "type": "Gare accessible", "transport": "TER", "nombre_trajet_moyen": 0.14, "transport_legende": "\ud83d\udeb2 \u2764\ufe0f Train TER \ud83d\ude86"}, "geometry": {"type": "Point", "coordinates": [-2.449621, 47.683021]}}, {"type": "Feature", "properties": {"start": "Saint-Jacques-de-la-Lande", "stop_name": "Vannes", "type": "Gare accessible", "transport": "TER", "nombre_trajet_moyen": 0.14, "transport_legende": "\ud83d\udeb2 \u2764\ufe0f Train TER \ud83d\ude86"}, "geometry": {"type": "Point", "coordinates": [-2.75245, 47.665169]}}]}