{"type": "FeatureCollection", "features": [{"type": "Feature", "properties": {"start": "Saintes", "stop_name": "Saintes", "type": "Gare s\u00e9lectionn\u00e9e", "transport": "TER", "nombre_trajet_moyen": 6.9, "transport_legende": "\ud83d\udeb2 \u2764\ufe0f Train TER \ud83d\ude86"}, "geometry": {"type": "Point", "coordinates": [-0.6179, 45.74874]}}, {"type": "Feature", "properties": {"start": "Saintes", "stop_name": "Royan", "type": "Gare accessible", "transport": "TER", "nombre_trajet_moyen": 5.22, "transport_legende": "\ud83d\udeb2 \u2764\ufe0f Train TER \ud83d\ude86"}, "geometry": {"type": "Point", "coordinates": [-1.016703, 45.625886]}}, {"type": "Feature", "properties": {"start": "Saintes", "stop_name": "Saujon", "type": "Gare accessible", "transport": "TER", "nombre_trajet_moyen": 5.22, "transport_legende": "\ud83d\udeb2 \u2764\ufe0f Train TER \ud83d\ude86"}, "geometry": {"type": "Point", "coordinates": [-0.930019, 45.666502]}}, {"type": "Feature", "properties": {"start": "Saintes", "stop_name": "Cognac", "type": "Gare accessible", "transport": "TER", "nombre_trajet_moyen": 4.46, "transport_legende": "\ud83d\udeb2 \u2764\ufe0f Train TER \ud83d\ude86"}, "geometry": {"type": "Point", "coordinates": [-0.326037, 45.684587]}}, {"type": "Feature", "properties": {"start": "Saintes", "stop_name": "Jarnac", "type": "Gare accessible", "transport": "TER", "nombre_trajet_moyen": 4.46, "transport_legende": "\ud83d\udeb2 \u2764\ufe0f Train TER \ud83d\ude86"}, "geometry": {"type": "Point", "coordinates": [-0.17736, 45.671147]}}, {"type": "Feature", "properties": {"start": "Saintes", "stop_name": "Ch\u00e2teauneuf-sur-Charente", "type": "Gare accessible", "transport": "TER", "nombre_trajet_moyen": 4.46, "transport_legende": "\ud83d\udeb2 \u2764\ufe0f Train TER \ud83d\ude86"}, "geometry": {"type": "Point", "coordinates": [-0.050217, 45.59978]}}, {"type": "Feature", "properties": {"start": "Saintes", "stop_name": "Angoul\u00eame", "type": "Gare accessible", "transport": "TER", "nombre_trajet_moyen": 4.46, "transport_legende": "\ud83d\udeb2 \u2764\ufe0f Train TER \ud83d\ude86"}, "geometry": {"type": "Point", "coordinates": [0.164608, 45.653572]}}, {"type": "Feature", "properties": {"start": "Saintes", "stop_name": "La Rochelle Porte Dauphine", "type": "Gare accessible", "transport": "TER", "nombre_trajet_moyen": 3.78, "transport_legende": "\ud83d\udeb2 \u2764\ufe0f Train TER \ud83d\ude86"}, "geometry": {"type": "Point", "coordinates": [-1.151875, 46.167616]}}, {"type": "Feature", "properties": {"start": "Saintes", "stop_name": "La Rochelle", "type": "Gare accessible", "transport": "TER", "nombre_trajet_moyen": 4.77, "transport_legende": "\ud83d\udeb2 \u2764\ufe0f Train TER \ud83d\ude86"}, "geometry": {"type": "Point", "coordinates": [-1.145853, 46.152705]}}, {"type": "Feature", "properties": {"start": "Saintes", "stop_name": "Aytr\u00e9 Plage", "type": "Gare accessible", "transport": "TER", "nombre_trajet_moyen": 2.8, "transport_legende": "\ud83d\udeb2 \u2764\ufe0f Train TER \ud83d\ude86"}, "geometry": {"type": "Point", "coordinates": [-1.128293, 46.12761]}}, {"type": "Feature", "properties": {"start": "Saintes", "stop_name": "Angoulins sur Mer", "type": "Gare accessible", "transport": "TER", "nombre_trajet_moyen": 2.8, "transport_legende": "\ud83d\udeb2 \u2764\ufe0f Train TER \ud83d\ude86"}, "geometry": {"type": "Point", "coordinates": [-1.115622, 46.107785]}}, {"type": "Feature", "properties": {"start": "Saintes", "stop_name": "Ch\u00e2telaillon", "type": "Gare accessible", "transport": "TER", "nombre_trajet_moyen": 4.77, "transport_legende": "\ud83d\udeb2 \u2764\ufe0f Train TER \ud83d\ude86"}, "geometry": {"type": "Point", "coordinates": [-1.091118, 46.078282]}}, {"type": "Feature", "properties": {"start": "Saintes", "stop_name": "Saint-Laurent-de-la-Pr\u00e9e - Fouras", "type": "Gare accessible", "transport": "TER", "nombre_trajet_moyen": 2.8, "transport_legende": "\ud83d\udeb2 \u2764\ufe0f Train TER \ud83d\ude86"}, "geometry": {"type": "Point", "coordinates": [-1.026912, 45.992563]}}, {"type": "Feature", "properties": {"start": "Saintes", "stop_name": "Rochefort", "type": "Gare accessible", "transport": "TER", "nombre_trajet_moyen": 4.77, "transport_legende": "\ud83d\udeb2 \u2764\ufe0f Train TER \ud83d\ude86"}, "geometry": {"type": "Point", "coordinates": [-0.963556, 45.947189]}}, {"type": "Feature", "properties": {"start": "Saintes", "stop_name": "Saint-Savinien", "type": "Gare accessible", "transport": "TER", "nombre_trajet_moyen": 2.8, "transport_legende": "\ud83d\udeb2 \u2764\ufe0f Train TER \ud83d\ude86"}, "geometry": {"type": "Point", "coordinates": [-0.677878, 45.876038]}}, {"type": "Feature", "properties": {"start": "Saintes", "stop_name": "Bordeaux Saint-Jean", "type": "Gare accessible", "transport": "TER", "nombre_trajet_moyen": 3.81, "transport_legende": "\ud83d\udeb2 \u2764\ufe0f Train TER \ud83d\ude86"}, "geometry": {"type": "Point", "coordinates": [-0.556697, 44.825873]}}, {"type": "Feature", "properties": {"start": "Saintes", "stop_name": "Cenon", "type": "Gare accessible", "transport": "TER", "nombre_trajet_moyen": 3.81, "transport_legende": "\ud83d\udeb2 \u2764\ufe0f Train TER \ud83d\ude86"}, "geometry": {"type": "Point", "coordinates": [-0.533649, 44.856347]}}, {"type": "Feature", "properties": {"start": "Saintes", "stop_name": "Saint-Andr\u00e9-de-Cubzac", "type": "Gare accessible", "transport": "TER", "nombre_trajet_moyen": 3.81, "transport_legende": "\ud83d\udeb2 \u2764\ufe0f Train TER \ud83d\ude86"}, "geometry": {"type": "Point", "coordinates": [-0.44048, 44.99122]}}, {"type": "Feature", "properties": {"start": "Saintes", "stop_name": "Saint-Mariens - Saint-Yzan", "type": "Gare accessible", "transport": "TER", "nombre_trajet_moyen": 3.81, "transport_legende": "\ud83d\udeb2 \u2764\ufe0f Train TER \ud83d\ude86"}, "geometry": {"type": "Point", "coordinates": [-0.391834, 45.139057]}}, {"type": "Feature", "properties": {"start": "Saintes", "stop_name": "Montendre", "type": "Gare accessible", "transport": "TER", "nombre_trajet_moyen": 3.81, "transport_legende": "\ud83d\udeb2 \u2764\ufe0f Train TER \ud83d\ude86"}, "geometry": {"type": "Point", "coordinates": [-0.396233, 45.280514]}}, {"type": "Feature", "properties": {"start": "Saintes", "stop_name": "Jonzac", "type": "Gare accessible", "transport": "TER", "nombre_trajet_moyen": 3.81, "transport_legende": "\ud83d\udeb2 \u2764\ufe0f Train TER \ud83d\ude86"}, "geometry": {"type": "Point", "coordinates": [-0.44164, 45.438746]}}, {"type": "Feature", "properties": {"start": "Saintes", "stop_name": "Pons", "type": "Gare accessible", "transport": "TER", "nombre_trajet_moyen": 3.81, "transport_legende": "\ud83d\udeb2 \u2764\ufe0f Train TER \ud83d\ude86"}, "geometry": {"type": "Point", "coordinates": [-0.539021, 45.578213]}}, {"type": "Feature", "properties": {"start": "Saintes", "stop_name": "Bussac", "type": "Gare accessible", "transport": "TER", "nombre_trajet_moyen": 0.69, "transport_legende": "\ud83d\udeb2 \u2764\ufe0f Train TER \ud83d\ude86"}, "geometry": {"type": "Point", "coordinates": [-0.368249, 45.212034]}}, {"type": "Feature", "properties": {"start": "Saintes", "stop_name": "Saint-Jean-d'Ang\u00e9ly", "type": "Gare accessible", "transport": "TER", "nombre_trajet_moyen": 3.79, "transport_legende": "\ud83d\udeb2 \u2764\ufe0f Train TER \ud83d\ude86"}, "geometry": {"type": "Point", "coordinates": [-0.510006, 45.940759]}}, {"type": "Feature", "properties": {"start": "Saintes", "stop_name": "Loulay", "type": "Gare accessible", "transport": "TER", "nombre_trajet_moyen": 1.67, "transport_legende": "\ud83d\udeb2 \u2764\ufe0f Train TER \ud83d\ude86"}, "geometry": {"type": "Point", "coordinates": [-0.501798, 46.043527]}}, {"type": "Feature", "properties": {"start": "Saintes", "stop_name": "Villeneuve-la-Comtesse", "type": "Gare accessible", "transport": "TER", "nombre_trajet_moyen": 1.98, "transport_legende": "\ud83d\udeb2 \u2764\ufe0f Train TER \ud83d\ude86"}, "geometry": {"type": "Point", "coordinates": [-0.512922, 46.098637]}}, {"type": "Feature", "properties": {"start": "Saintes", "stop_name": "Priss\u00e9-la-Charri\u00e8re", "type": "Gare accessible", "transport": "TER", "nombre_trajet_moyen": 1.67, "transport_legende": "\ud83d\udeb2 \u2764\ufe0f Train TER \ud83d\ude86"}, "geometry": {"type": "Point", "coordinates": [-0.492754, 46.153021]}}, {"type": "Feature", "properties": {"start": "Saintes", "stop_name": "Beauvoir-sur-Niort", "type": "Gare accessible", "transport": "TER", "nombre_trajet_moyen": 3.79, "transport_legende": "\ud83d\udeb2 \u2764\ufe0f Train TER \ud83d\ude86"}, "geometry": {"type": "Point", "coordinates": [-0.468873, 46.17687]}}, {"type": "Feature", "properties": {"start": "Saintes", "stop_name": "Marigny", "type": "Gare accessible", "transport": "TER", "nombre_trajet_moyen": 1.67, "transport_legende": "\ud83d\udeb2 \u2764\ufe0f Train TER \ud83d\ude86"}, "geometry": {"type": "Point", "coordinates": [-0.428404, 46.199083]}}, {"type": "Feature", "properties": {"start": "Saintes", "stop_name": "Fors", "type": "Gare accessible", "transport": "TER", "nombre_trajet_moyen": 2.98, "transport_legende": "\ud83d\udeb2 \u2764\ufe0f Train TER \ud83d\ude86"}, "geometry": {"type": "Point", "coordinates": [-0.406931, 46.234552]}}, {"type": "Feature", "properties": {"start": "Saintes", "stop_name": "Niort", "type": "Gare accessible", "transport": "TER", "nombre_trajet_moyen": 3.79, "transport_legende": "\ud83d\udeb2 \u2764\ufe0f Train TER \ud83d\ude86"}, "geometry": {"type": "Point", "coordinates": [-0.454639, 46.319491]}}, {"type": "Feature", "properties": {"start": "Saintes", "stop_name": "Saint-Hilaire - Brizambourg", "type": "Gare accessible", "transport": "TER", "nombre_trajet_moyen": 1.82, "transport_legende": "\ud83d\udeb2 \u2764\ufe0f Train TER \ud83d\ude86"}, "geometry": {"type": "Point", "coordinates": [-0.534758, 45.850174]}}, {"type": "Feature", "properties": {"start": "Saintes", "stop_name": "Beillant", "type": "Gare accessible", "transport": "TER", "nombre_trajet_moyen": 0.69, "transport_legende": "\ud83d\udeb2 \u2764\ufe0f Train TER \ud83d\ude86"}, "geometry": {"type": "Point", "coordinates": [-0.526508, 45.7008]}}, {"type": "Feature", "properties": {"start": "Saintes", "stop_name": "Bords", "type": "Gare accessible", "transport": "TER", "nombre_trajet_moyen": 2.8, "transport_legende": "\ud83d\udeb2 \u2764\ufe0f Train TER \ud83d\ude86"}, "geometry": {"type": "Point", "coordinates": [-0.798115, 45.894237]}}, {"type": "Feature", "properties": {"start": "Saintes", "stop_name": "Tonnay-Charente", "type": "Gare accessible", "transport": "TER", "nombre_trajet_moyen": 2.8, "transport_legende": "\ud83d\udeb2 \u2764\ufe0f Train TER \ud83d\ude86"}, "geometry": {"type": "Point", "coordinates": [-0.897789, 45.943401]}}]}