{"type": "FeatureCollection", "features": [{"type": "Feature", "properties": {"start": "Sarrebruck", "stop_name": "Sarrebruck", "type": "Gare s\u00e9lectionn\u00e9e", "transport": "TER", "nombre_trajet_moyen": 8.23, "transport_legende": "\ud83d\udeb2 \u2764\ufe0f Train TER \ud83d\ude86"}, "geometry": {"type": "Point", "coordinates": [6.991, 49.241]}}, {"type": "Feature", "properties": {"start": "Sarrebruck", "stop_name": "Sarreguemines", "type": "Gare accessible", "transport": "TER", "nombre_trajet_moyen": 1.93, "transport_legende": "\ud83d\udeb2 \u2764\ufe0f Train TER \ud83d\ude86"}, "geometry": {"type": "Point", "coordinates": [7.068576, 49.10738]}}, {"type": "Feature", "properties": {"start": "Sarrebruck", "stop_name": "Kalhausen Gare", "type": "Gare accessible", "transport": "TER", "nombre_trajet_moyen": 1.93, "transport_legende": "\ud83d\udeb2 \u2764\ufe0f Train TER \ud83d\ude86"}, "geometry": {"type": "Point", "coordinates": [7.125438, 49.035033]}}, {"type": "Feature", "properties": {"start": "Sarrebruck", "stop_name": "Oermingen", "type": "Gare accessible", "transport": "TER", "nombre_trajet_moyen": 1.93, "transport_legende": "\ud83d\udeb2 \u2764\ufe0f Train TER \ud83d\ude86"}, "geometry": {"type": "Point", "coordinates": [7.131732, 49.000372]}}, {"type": "Feature", "properties": {"start": "Sarrebruck", "stop_name": "Diemeringen", "type": "Gare accessible", "transport": "TER", "nombre_trajet_moyen": 1.93, "transport_legende": "\ud83d\udeb2 \u2764\ufe0f Train TER \ud83d\ude86"}, "geometry": {"type": "Point", "coordinates": [7.185252, 48.940533]}}, {"type": "Feature", "properties": {"start": "Sarrebruck", "stop_name": "Tieffenbach - Struth", "type": "Gare accessible", "transport": "TER", "nombre_trajet_moyen": 1.93, "transport_legende": "\ud83d\udeb2 \u2764\ufe0f Train TER \ud83d\ude86"}, "geometry": {"type": "Point", "coordinates": [7.255418, 48.90636]}}, {"type": "Feature", "properties": {"start": "Sarrebruck", "stop_name": "Wingen-sur-Moder", "type": "Gare accessible", "transport": "TER", "nombre_trajet_moyen": 1.93, "transport_legende": "\ud83d\udeb2 \u2764\ufe0f Train TER \ud83d\ude86"}, "geometry": {"type": "Point", "coordinates": [7.380538, 48.920092]}}, {"type": "Feature", "properties": {"start": "Sarrebruck", "stop_name": "Ingwiller", "type": "Gare accessible", "transport": "TER", "nombre_trajet_moyen": 1.93, "transport_legende": "\ud83d\udeb2 \u2764\ufe0f Train TER \ud83d\ude86"}, "geometry": {"type": "Point", "coordinates": [7.477162, 48.872407]}}, {"type": "Feature", "properties": {"start": "Sarrebruck", "stop_name": "Obermodern", "type": "Gare accessible", "transport": "TER", "nombre_trajet_moyen": 1.93, "transport_legende": "\ud83d\udeb2 \u2764\ufe0f Train TER \ud83d\ude86"}, "geometry": {"type": "Point", "coordinates": [7.547135, 48.842587]}}, {"type": "Feature", "properties": {"start": "Sarrebruck", "stop_name": "Mommenheim", "type": "Gare accessible", "transport": "TER", "nombre_trajet_moyen": 1.93, "transport_legende": "\ud83d\udeb2 \u2764\ufe0f Train TER \ud83d\ude86"}, "geometry": {"type": "Point", "coordinates": [7.642303, 48.755951]}}, {"type": "Feature", "properties": {"start": "Sarrebruck", "stop_name": "B\u00e9ning-l\u00e8s-Saint-Avold", "type": "Gare accessible", "transport": "TER", "nombre_trajet_moyen": 3.6, "transport_legende": "\ud83d\udeb2 \u2764\ufe0f Train TER \ud83d\ude86"}, "geometry": {"type": "Point", "coordinates": [6.82848, 49.138056]}}, {"type": "Feature", "properties": {"start": "Sarrebruck", "stop_name": "Forbach", "type": "Gare accessible", "transport": "TER", "nombre_trajet_moyen": 6.93, "transport_legende": "\ud83d\udeb2 \u2764\ufe0f Train TER \ud83d\ude86"}, "geometry": {"type": "Point", "coordinates": [6.901318, 49.189228]}}, {"type": "Feature", "properties": {"start": "Sarrebruck", "stop_name": "Metz", "type": "Gare accessible", "transport": "TER", "nombre_trajet_moyen": 3.6, "transport_legende": "\ud83d\udeb2 \u2764\ufe0f Train TER \ud83d\ude86"}, "geometry": {"type": "Point", "coordinates": [6.177052, 49.109466]}}, {"type": "Feature", "properties": {"start": "Sarrebruck", "stop_name": "R\u00e9milly", "type": "Gare accessible", "transport": "TER", "nombre_trajet_moyen": 3.6, "transport_legende": "\ud83d\udeb2 \u2764\ufe0f Train TER \ud83d\ude86"}, "geometry": {"type": "Point", "coordinates": [6.395097, 49.014025]}}, {"type": "Feature", "properties": {"start": "Sarrebruck", "stop_name": "Faulquemont", "type": "Gare accessible", "transport": "TER", "nombre_trajet_moyen": 3.6, "transport_legende": "\ud83d\udeb2 \u2764\ufe0f Train TER \ud83d\ude86"}, "geometry": {"type": "Point", "coordinates": [6.603751, 49.045386]}}, {"type": "Feature", "properties": {"start": "Sarrebruck", "stop_name": "Saint-Avold", "type": "Gare accessible", "transport": "TER", "nombre_trajet_moyen": 3.6, "transport_legende": "\ud83d\udeb2 \u2764\ufe0f Train TER \ud83d\ude86"}, "geometry": {"type": "Point", "coordinates": [6.720614, 49.085873]}}, {"type": "Feature", "properties": {"start": "Sarrebruck", "stop_name": "Hombourg-Haut", "type": "Gare accessible", "transport": "TER", "nombre_trajet_moyen": 2.68, "transport_legende": "\ud83d\udeb2 \u2764\ufe0f Train TER \ud83d\ude86"}, "geometry": {"type": "Point", "coordinates": [6.77427, 49.126109]}}, {"type": "Feature", "properties": {"start": "Sarrebruck", "stop_name": "Strasbourg", "type": "Gare accessible", "transport": "TER", "nombre_trajet_moyen": 1.84, "transport_legende": "\ud83d\udeb2 \u2764\ufe0f Train TER \ud83d\ude86"}, "geometry": {"type": "Point", "coordinates": [7.734793, 48.584532]}}, {"type": "Feature", "properties": {"start": "Sarrebruck", "stop_name": "Herny", "type": "Gare accessible", "transport": "TER", "nombre_trajet_moyen": 1.18, "transport_legende": "\ud83d\udeb2 \u2764\ufe0f Train TER \ud83d\ude86"}, "geometry": {"type": "Point", "coordinates": [6.476856, 49.003632]}}, {"type": "Feature", "properties": {"start": "Sarrebruck", "stop_name": "Teting-sur-Nied", "type": "Gare accessible", "transport": "TER", "nombre_trajet_moyen": 0.14, "transport_legende": "\ud83d\udeb2 \u2764\ufe0f Train TER \ud83d\ude86"}, "geometry": {"type": "Point", "coordinates": [6.664627, 49.051605]}}]}