{"type": "FeatureCollection", "features": [{"type": "Feature", "properties": {"start": "Schwindratzheim G\u00e9n\u00e9ral Leclerc", "stop_name": "Schwindratzheim G\u00e9n\u00e9ral Leclerc", "type": "Gare s\u00e9lectionn\u00e9e", "transport": "TER", "nombre_trajet_moyen": 0.9, "transport_legende": "\ud83d\udeb2 \u2764\ufe0f Train TER \ud83d\ude86"}, "geometry": {"type": "Point", "coordinates": [7.600012, 48.754103]}}, {"type": "Feature", "properties": {"start": "Schwindratzheim G\u00e9n\u00e9ral Leclerc", "stop_name": "Strasbourg", "type": "Gare accessible", "transport": "TER", "nombre_trajet_moyen": 0.9, "transport_legende": "\ud83d\udeb2 \u2764\ufe0f Train TER \ud83d\ude86"}, "geometry": {"type": "Point", "coordinates": [7.734793, 48.584532]}}, {"type": "Feature", "properties": {"start": "Schwindratzheim G\u00e9n\u00e9ral Leclerc", "stop_name": "Stephansfeld H\u00f4pital", "type": "Gare accessible", "transport": "TER", "nombre_trajet_moyen": 0.9, "transport_legende": "\ud83d\udeb2 \u2764\ufe0f Train TER \ud83d\ude86"}, "geometry": {"type": "Point", "coordinates": [7.706163, 48.717012]}}, {"type": "Feature", "properties": {"start": "Schwindratzheim G\u00e9n\u00e9ral Leclerc", "stop_name": "Brumath Mairie", "type": "Gare accessible", "transport": "TER", "nombre_trajet_moyen": 0.9, "transport_legende": "\ud83d\udeb2 \u2764\ufe0f Train TER \ud83d\ude86"}, "geometry": {"type": "Point", "coordinates": [7.708523, 48.730876]}}, {"type": "Feature", "properties": {"start": "Schwindratzheim G\u00e9n\u00e9ral Leclerc", "stop_name": "Mommenheim", "type": "Gare accessible", "transport": "TER", "nombre_trajet_moyen": 0.9, "transport_legende": "\ud83d\udeb2 \u2764\ufe0f Train TER \ud83d\ude86"}, "geometry": {"type": "Point", "coordinates": [7.642303, 48.755951]}}, {"type": "Feature", "properties": {"start": "Schwindratzheim G\u00e9n\u00e9ral Leclerc", "stop_name": "Hochfelden", "type": "Gare accessible", "transport": "TER", "nombre_trajet_moyen": 0.9, "transport_legende": "\ud83d\udeb2 \u2764\ufe0f Train TER \ud83d\ude86"}, "geometry": {"type": "Point", "coordinates": [7.572281, 48.755416]}}, {"type": "Feature", "properties": {"start": "Schwindratzheim G\u00e9n\u00e9ral Leclerc", "stop_name": "Wilwisheim Haute-Mont\u00e9e", "type": "Gare accessible", "transport": "TER", "nombre_trajet_moyen": 0.9, "transport_legende": "\ud83d\udeb2 \u2764\ufe0f Train TER \ud83d\ude86"}, "geometry": {"type": "Point", "coordinates": [7.506757, 48.748004]}}, {"type": "Feature", "properties": {"start": "Schwindratzheim G\u00e9n\u00e9ral Leclerc", "stop_name": "Dettwiller", "type": "Gare accessible", "transport": "TER", "nombre_trajet_moyen": 0.9, "transport_legende": "\ud83d\udeb2 \u2764\ufe0f Train TER \ud83d\ude86"}, "geometry": {"type": "Point", "coordinates": [7.465077, 48.751916]}}, {"type": "Feature", "properties": {"start": "Schwindratzheim G\u00e9n\u00e9ral Leclerc", "stop_name": "Saverne", "type": "Gare accessible", "transport": "TER", "nombre_trajet_moyen": 0.9, "transport_legende": "\ud83d\udeb2 \u2764\ufe0f Train TER \ud83d\ude86"}, "geometry": {"type": "Point", "coordinates": [7.362055, 48.744483]}}]}