{"type": "FeatureCollection", "features": [{"type": "Feature", "properties": {"start": "Tanus", "stop_name": "Tanus", "type": "Gare s\u00e9lectionn\u00e9e", "transport": "TER", "transport_legende": "\ud83d\udeb2 \u2764\ufe0f Train TER \ud83d\ude86"}, "geometry": {"type": "Point", "coordinates": [2.314921, 44.100443]}}, {"type": "Feature", "properties": {"start": "Tanus", "stop_name": "Rodez", "type": "Gare accessible", "transport": "TER", "transport_legende": "\ud83d\udeb2 \u2764\ufe0f Train TER \ud83d\ude86"}, "geometry": {"type": "Point", "coordinates": [2.58056, 44.362633]}}, {"type": "Feature", "properties": {"start": "Tanus", "stop_name": "Luc-Primaube", "type": "Gare accessible", "transport": "TER", "transport_legende": "\ud83d\udeb2 \u2764\ufe0f Train TER \ud83d\ude86"}, "geometry": {"type": "Point", "coordinates": [2.554776, 44.2915]}}, {"type": "Feature", "properties": {"start": "Tanus", "stop_name": "Baraqueville", "type": "Gare accessible", "transport": "TER", "transport_legende": "\ud83d\udeb2 \u2764\ufe0f Train TER \ud83d\ude86"}, "geometry": {"type": "Point", "coordinates": [2.4274, 44.270512]}}, {"type": "Feature", "properties": {"start": "Tanus", "stop_name": "Naucelle", "type": "Gare accessible", "transport": "TER", "transport_legende": "\ud83d\udeb2 \u2764\ufe0f Train TER \ud83d\ude86"}, "geometry": {"type": "Point", "coordinates": [2.363259, 44.185439]}}, {"type": "Feature", "properties": {"start": "Tanus", "stop_name": "Carmaux", "type": "Gare accessible", "transport": "TER", "transport_legende": "\ud83d\udeb2 \u2764\ufe0f Train TER \ud83d\ude86"}, "geometry": {"type": "Point", "coordinates": [2.152401, 44.048782]}}, {"type": "Feature", "properties": {"start": "Tanus", "stop_name": "Albi Madeleine", "type": "Gare accessible", "transport": "TER", "transport_legende": "\ud83d\udeb2 \u2764\ufe0f Train TER \ud83d\ude86"}, "geometry": {"type": "Point", "coordinates": [2.141209, 43.938137]}}, {"type": "Feature", "properties": {"start": "Tanus", "stop_name": "Albi Ville", "type": "Gare accessible", "transport": "TER", "transport_legende": "\ud83d\udeb2 \u2764\ufe0f Train TER \ud83d\ude86"}, "geometry": {"type": "Point", "coordinates": [2.137958, 43.92238]}}, {"type": "Feature", "properties": {"start": "Tanus", "stop_name": "Gaillac", "type": "Gare accessible", "transport": "TER", "transport_legende": "\ud83d\udeb2 \u2764\ufe0f Train TER \ud83d\ude86"}, "geometry": {"type": "Point", "coordinates": [1.89483, 43.905984]}}, {"type": "Feature", "properties": {"start": "Tanus", "stop_name": "Lisle-sur-Tarn", "type": "Gare accessible", "transport": "TER", "transport_legende": "\ud83d\udeb2 \u2764\ufe0f Train TER \ud83d\ude86"}, "geometry": {"type": "Point", "coordinates": [1.80823, 43.85639]}}, {"type": "Feature", "properties": {"start": "Tanus", "stop_name": "Rabastens - Coufouleux", "type": "Gare accessible", "transport": "TER", "transport_legende": "\ud83d\udeb2 \u2764\ufe0f Train TER \ud83d\ude86"}, "geometry": {"type": "Point", "coordinates": [1.730455, 43.819654]}}, {"type": "Feature", "properties": {"start": "Tanus", "stop_name": "Saint-Sulpice", "type": "Gare accessible", "transport": "TER", "transport_legende": "\ud83d\udeb2 \u2764\ufe0f Train TER \ud83d\ude86"}, "geometry": {"type": "Point", "coordinates": [1.680702, 43.775073]}}, {"type": "Feature", "properties": {"start": "Tanus", "stop_name": "Toulouse Matabiau", "type": "Gare accessible", "transport": "TER", "transport_legende": "\ud83d\udeb2 \u2764\ufe0f Train TER \ud83d\ude86"}, "geometry": {"type": "Point", "coordinates": [1.453616, 43.611206]}}]}