{"type": "FeatureCollection", "features": [{"type": "Feature", "properties": {"start": "Torpes - Boussi\u00e8res", "stop_name": "Torpes - Boussi\u00e8res", "type": "Gare s\u00e9lectionn\u00e9e", "transport": "TER", "transport_legende": "\ud83d\udeb2 \u2764\ufe0f Train TER \ud83d\ude86"}, "geometry": {"type": "Point", "coordinates": [5.888715, 47.163801]}}, {"type": "Feature", "properties": {"start": "Torpes - Boussi\u00e8res", "stop_name": "Lons-le-Saunier", "type": "Gare accessible", "transport": "TER", "transport_legende": "\ud83d\udeb2 \u2764\ufe0f Train TER \ud83d\ude86"}, "geometry": {"type": "Point", "coordinates": [5.551108, 46.66858]}}, {"type": "Feature", "properties": {"start": "Torpes - Boussi\u00e8res", "stop_name": "Domblans - Voiteur", "type": "Gare accessible", "transport": "TER", "transport_legende": "\ud83d\udeb2 \u2764\ufe0f Train TER \ud83d\ude86"}, "geometry": {"type": "Point", "coordinates": [5.597875, 46.762774]}}, {"type": "Feature", "properties": {"start": "Torpes - Boussi\u00e8res", "stop_name": "Saint-Lothain", "type": "Gare accessible", "transport": "TER", "transport_legende": "\ud83d\udeb2 \u2764\ufe0f Train TER \ud83d\ude86"}, "geometry": {"type": "Point", "coordinates": [5.643985, 46.823181]}}, {"type": "Feature", "properties": {"start": "Torpes - Boussi\u00e8res", "stop_name": "Poligny", "type": "Gare accessible", "transport": "TER", "transport_legende": "\ud83d\udeb2 \u2764\ufe0f Train TER \ud83d\ude86"}, "geometry": {"type": "Point", "coordinates": [5.700268, 46.844207]}}, {"type": "Feature", "properties": {"start": "Torpes - Boussi\u00e8res", "stop_name": "Arbois", "type": "Gare accessible", "transport": "TER", "transport_legende": "\ud83d\udeb2 \u2764\ufe0f Train TER \ud83d\ude86"}, "geometry": {"type": "Point", "coordinates": [5.764837, 46.912467]}}, {"type": "Feature", "properties": {"start": "Torpes - Boussi\u00e8res", "stop_name": "Mouchard", "type": "Gare accessible", "transport": "TER", "transport_legende": "\ud83d\udeb2 \u2764\ufe0f Train TER \ud83d\ude86"}, "geometry": {"type": "Point", "coordinates": [5.799698, 46.976865]}}, {"type": "Feature", "properties": {"start": "Torpes - Boussi\u00e8res", "stop_name": "Arc-et-Senans", "type": "Gare accessible", "transport": "TER", "transport_legende": "\ud83d\udeb2 \u2764\ufe0f Train TER \ud83d\ude86"}, "geometry": {"type": "Point", "coordinates": [5.77683, 47.030473]}}, {"type": "Feature", "properties": {"start": "Torpes - Boussi\u00e8res", "stop_name": "Liesle", "type": "Gare accessible", "transport": "TER", "transport_legende": "\ud83d\udeb2 \u2764\ufe0f Train TER \ud83d\ude86"}, "geometry": {"type": "Point", "coordinates": [5.820565, 47.058825]}}, {"type": "Feature", "properties": {"start": "Torpes - Boussi\u00e8res", "stop_name": "Byans", "type": "Gare accessible", "transport": "TER", "transport_legende": "\ud83d\udeb2 \u2764\ufe0f Train TER \ud83d\ude86"}, "geometry": {"type": "Point", "coordinates": [5.85218, 47.118586]}}, {"type": "Feature", "properties": {"start": "Torpes - Boussi\u00e8res", "stop_name": "Montferrand - Thoraise", "type": "Gare accessible", "transport": "TER", "transport_legende": "\ud83d\udeb2 \u2764\ufe0f Train TER \ud83d\ude86"}, "geometry": {"type": "Point", "coordinates": [5.907538, 47.184628]}}, {"type": "Feature", "properties": {"start": "Torpes - Boussi\u00e8res", "stop_name": "Franois", "type": "Gare accessible", "transport": "TER", "transport_legende": "\ud83d\udeb2 \u2764\ufe0f Train TER \ud83d\ude86"}, "geometry": {"type": "Point", "coordinates": [5.937233, 47.22751]}}, {"type": "Feature", "properties": {"start": "Torpes - Boussi\u00e8res", "stop_name": "Besan\u00e7on Viotte", "type": "Gare accessible", "transport": "TER", "transport_legende": "\ud83d\udeb2 \u2764\ufe0f Train TER \ud83d\ude86"}, "geometry": {"type": "Point", "coordinates": [6.021943, 47.247049]}}, {"type": "Feature", "properties": {"start": "Torpes - Boussi\u00e8res", "stop_name": "Baume-les-Dames", "type": "Gare accessible", "transport": "TER", "transport_legende": "\ud83d\udeb2 \u2764\ufe0f Train TER \ud83d\ude86"}, "geometry": {"type": "Point", "coordinates": [6.359649, 47.353972]}}, {"type": "Feature", "properties": {"start": "Torpes - Boussi\u00e8res", "stop_name": "Clerval", "type": "Gare accessible", "transport": "TER", "transport_legende": "\ud83d\udeb2 \u2764\ufe0f Train TER \ud83d\ude86"}, "geometry": {"type": "Point", "coordinates": [6.492282, 47.396601]}}, {"type": "Feature", "properties": {"start": "Torpes - Boussi\u00e8res", "stop_name": "L'Isle-sur-le-Doubs", "type": "Gare accessible", "transport": "TER", "transport_legende": "\ud83d\udeb2 \u2764\ufe0f Train TER \ud83d\ude86"}, "geometry": {"type": "Point", "coordinates": [6.581261, 47.447378]}}, {"type": "Feature", "properties": {"start": "Torpes - Boussi\u00e8res", "stop_name": "Montb\u00e9liard", "type": "Gare accessible", "transport": "TER", "transport_legende": "\ud83d\udeb2 \u2764\ufe0f Train TER \ud83d\ude86"}, "geometry": {"type": "Point", "coordinates": [6.801336, 47.51055]}}, {"type": "Feature", "properties": {"start": "Torpes - Boussi\u00e8res", "stop_name": "H\u00e9ricourt", "type": "Gare accessible", "transport": "TER", "transport_legende": "\ud83d\udeb2 \u2764\ufe0f Train TER \ud83d\ude86"}, "geometry": {"type": "Point", "coordinates": [6.769388, 47.572971]}}, {"type": "Feature", "properties": {"start": "Torpes - Boussi\u00e8res", "stop_name": "Belfort-Ville", "type": "Gare accessible", "transport": "TER", "transport_legende": "\ud83d\udeb2 \u2764\ufe0f Train TER \ud83d\ude86"}, "geometry": {"type": "Point", "coordinates": [6.854053, 47.633278]}}, {"type": "Feature", "properties": {"start": "Torpes - Boussi\u00e8res", "stop_name": "Saint-Amour", "type": "Gare accessible", "transport": "TER", "transport_legende": "\ud83d\udeb2 \u2764\ufe0f Train TER \ud83d\ude86"}, "geometry": {"type": "Point", "coordinates": [5.334427, 46.433733]}}, {"type": "Feature", "properties": {"start": "Torpes - Boussi\u00e8res", "stop_name": "Bourg-en-Bresse", "type": "Gare accessible", "transport": "TER", "transport_legende": "\ud83d\udeb2 \u2764\ufe0f Train TER \ud83d\ude86"}, "geometry": {"type": "Point", "coordinates": [5.215011, 46.200111]}}]}