{"type": "FeatureCollection", "features": [{"type": "Feature", "properties": {"start": "Varetz", "stop_name": "Varetz", "type": "Gare s\u00e9lectionn\u00e9e", "transport": "TER", "nombre_trajet_moyen": 2.7, "transport_legende": "\ud83d\udeb2 \u2764\ufe0f Train TER \ud83d\ude86"}, "geometry": {"type": "Point", "coordinates": [1.447454, 45.191122]}}, {"type": "Feature", "properties": {"start": "Varetz", "stop_name": "Brive-la-Gaillarde", "type": "Gare accessible", "transport": "TER", "nombre_trajet_moyen": 2.7, "transport_legende": "\ud83d\udeb2 \u2764\ufe0f Train TER \ud83d\ude86"}, "geometry": {"type": "Point", "coordinates": [1.528634, 45.152601]}}, {"type": "Feature", "properties": {"start": "Varetz", "stop_name": "Le Burg", "type": "Gare accessible", "transport": "TER", "nombre_trajet_moyen": 2.7, "transport_legende": "\ud83d\udeb2 \u2764\ufe0f Train TER \ud83d\ude86"}, "geometry": {"type": "Point", "coordinates": [1.429814, 45.215796]}}, {"type": "Feature", "properties": {"start": "Varetz", "stop_name": "Saint-Aulaire", "type": "Gare accessible", "transport": "TER", "nombre_trajet_moyen": 2.7, "transport_legende": "\ud83d\udeb2 \u2764\ufe0f Train TER \ud83d\ude86"}, "geometry": {"type": "Point", "coordinates": [1.398697, 45.248841]}}, {"type": "Feature", "properties": {"start": "Varetz", "stop_name": "Objat", "type": "Gare accessible", "transport": "TER", "nombre_trajet_moyen": 2.7, "transport_legende": "\ud83d\udeb2 \u2764\ufe0f Train TER \ud83d\ude86"}, "geometry": {"type": "Point", "coordinates": [1.406982, 45.264695]}}]}