{"type": "FeatureCollection", "features": [{"type": "Feature", "properties": {"start": "Vienne", "stop_name": "Vienne", "type": "Gare s\u00e9lectionn\u00e9e", "transport": "TER", "nombre_trajet_moyen": 21.42, "transport_legende": "\ud83d\udeb2 \u2764\ufe0f Train TER \ud83d\ude86"}, "geometry": {"type": "Point", "coordinates": [4.874274, 45.521231]}}, {"type": "Feature", "properties": {"start": "Vienne", "stop_name": "Marseille Saint-Charles", "type": "Gare accessible", "transport": "TER", "nombre_trajet_moyen": 2.91, "transport_legende": "\ud83d\udeb2 \u2764\ufe0f Train TER \ud83d\ude86"}, "geometry": {"type": "Point", "coordinates": [5.380407, 43.302666]}}, {"type": "Feature", "properties": {"start": "Vienne", "stop_name": "Vitrolles A\u00e9roport Marseille P", "type": "Gare accessible", "transport": "TER", "nombre_trajet_moyen": 2.91, "transport_legende": "\ud83d\udeb2 \u2764\ufe0f Train TER \ud83d\ude86"}, "geometry": {"type": "Point", "coordinates": [5.237122, 43.441734]}}, {"type": "Feature", "properties": {"start": "Vienne", "stop_name": "Miramas", "type": "Gare accessible", "transport": "TER", "nombre_trajet_moyen": 2.91, "transport_legende": "\ud83d\udeb2 \u2764\ufe0f Train TER \ud83d\ude86"}, "geometry": {"type": "Point", "coordinates": [4.999565, 43.580737]}}, {"type": "Feature", "properties": {"start": "Vienne", "stop_name": "Saint-Martin-de-Crau", "type": "Gare accessible", "transport": "TER", "nombre_trajet_moyen": 2.91, "transport_legende": "\ud83d\udeb2 \u2764\ufe0f Train TER \ud83d\ude86"}, "geometry": {"type": "Point", "coordinates": [4.800331, 43.622351]}}, {"type": "Feature", "properties": {"start": "Vienne", "stop_name": "Arles", "type": "Gare accessible", "transport": "TER", "nombre_trajet_moyen": 2.91, "transport_legende": "\ud83d\udeb2 \u2764\ufe0f Train TER \ud83d\ude86"}, "geometry": {"type": "Point", "coordinates": [4.632105, 43.684863]}}, {"type": "Feature", "properties": {"start": "Vienne", "stop_name": "Avignon Centre", "type": "Gare accessible", "transport": "TER", "nombre_trajet_moyen": 12.21, "transport_legende": "\ud83d\udeb2 \u2764\ufe0f Train TER \ud83d\ude86"}, "geometry": {"type": "Point", "coordinates": [4.805269, 43.941923]}}, {"type": "Feature", "properties": {"start": "Vienne", "stop_name": "Orange", "type": "Gare accessible", "transport": "TER", "nombre_trajet_moyen": 12.21, "transport_legende": "\ud83d\udeb2 \u2764\ufe0f Train TER \ud83d\ude86"}, "geometry": {"type": "Point", "coordinates": [4.820058, 44.137485]}}, {"type": "Feature", "properties": {"start": "Vienne", "stop_name": "Boll\u00e8ne la Croisi\u00e8re", "type": "Gare accessible", "transport": "TER", "nombre_trajet_moyen": 12.21, "transport_legende": "\ud83d\udeb2 \u2764\ufe0f Train TER \ud83d\ude86"}, "geometry": {"type": "Point", "coordinates": [4.708055, 44.27154]}}, {"type": "Feature", "properties": {"start": "Vienne", "stop_name": "Pierrelatte", "type": "Gare accessible", "transport": "TER", "nombre_trajet_moyen": 12.41, "transport_legende": "\ud83d\udeb2 \u2764\ufe0f Train TER \ud83d\ude86"}, "geometry": {"type": "Point", "coordinates": [4.703798, 44.374634]}}, {"type": "Feature", "properties": {"start": "Vienne", "stop_name": "Mont\u00e9limar", "type": "Gare accessible", "transport": "TER", "nombre_trajet_moyen": 12.41, "transport_legende": "\ud83d\udeb2 \u2764\ufe0f Train TER \ud83d\ude86"}, "geometry": {"type": "Point", "coordinates": [4.744726, 44.558936]}}, {"type": "Feature", "properties": {"start": "Vienne", "stop_name": "Valence Ville", "type": "Gare accessible", "transport": "TER", "nombre_trajet_moyen": 19.59, "transport_legende": "\ud83d\udeb2 \u2764\ufe0f Train TER \ud83d\ude86"}, "geometry": {"type": "Point", "coordinates": [4.893288, 44.928081]}}, {"type": "Feature", "properties": {"start": "Vienne", "stop_name": "Tain-l'Hermitage - Tournon", "type": "Gare accessible", "transport": "TER", "nombre_trajet_moyen": 19.51, "transport_legende": "\ud83d\udeb2 \u2764\ufe0f Train TER \ud83d\ude86"}, "geometry": {"type": "Point", "coordinates": [4.839708, 45.072178]}}, {"type": "Feature", "properties": {"start": "Vienne", "stop_name": "Saint-Vallier sur Rh\u00f4ne", "type": "Gare accessible", "transport": "TER", "nombre_trajet_moyen": 17.46, "transport_legende": "\ud83d\udeb2 \u2764\ufe0f Train TER \ud83d\ude86"}, "geometry": {"type": "Point", "coordinates": [4.814302, 45.185678]}}, {"type": "Feature", "properties": {"start": "Vienne", "stop_name": "Saint-Rambert-d'Albon", "type": "Gare accessible", "transport": "TER", "nombre_trajet_moyen": 17.46, "transport_legende": "\ud83d\udeb2 \u2764\ufe0f Train TER \ud83d\ude86"}, "geometry": {"type": "Point", "coordinates": [4.810739, 45.29776]}}, {"type": "Feature", "properties": {"start": "Vienne", "stop_name": "Le P\u00e9age-de-Roussillon", "type": "Gare accessible", "transport": "TER", "nombre_trajet_moyen": 19.59, "transport_legende": "\ud83d\udeb2 \u2764\ufe0f Train TER \ud83d\ude86"}, "geometry": {"type": "Point", "coordinates": [4.795406, 45.371724]}}, {"type": "Feature", "properties": {"start": "Vienne", "stop_name": "Saint-Clair - Les Roches", "type": "Gare accessible", "transport": "TER", "nombre_trajet_moyen": 17.55, "transport_legende": "\ud83d\udeb2 \u2764\ufe0f Train TER \ud83d\ude86"}, "geometry": {"type": "Point", "coordinates": [4.769669, 45.450303]}}, {"type": "Feature", "properties": {"start": "Vienne", "stop_name": "Lyon Part Dieu", "type": "Gare accessible", "transport": "TER", "nombre_trajet_moyen": 15.14, "transport_legende": "\ud83d\udeb2 \u2764\ufe0f Train TER \ud83d\ude86"}, "geometry": {"type": "Point", "coordinates": [4.859409, 45.760596]}}, {"type": "Feature", "properties": {"start": "Vienne", "stop_name": "Lyon Jean Mac\u00e9", "type": "Gare accessible", "transport": "TER", "nombre_trajet_moyen": 11.14, "transport_legende": "\ud83d\udeb2 \u2764\ufe0f Train TER \ud83d\ude86"}, "geometry": {"type": "Point", "coordinates": [4.841499, 45.74503]}}, {"type": "Feature", "properties": {"start": "Vienne", "stop_name": "Lyon Perrache", "type": "Gare accessible", "transport": "TER", "nombre_trajet_moyen": 11.2, "transport_legende": "\ud83d\udeb2 \u2764\ufe0f Train TER \ud83d\ude86"}, "geometry": {"type": "Point", "coordinates": [4.825777, 45.748508]}}, {"type": "Feature", "properties": {"start": "Vienne", "stop_name": "Lyon Vaise", "type": "Gare accessible", "transport": "TER", "nombre_trajet_moyen": 7.09, "transport_legende": "\ud83d\udeb2 \u2764\ufe0f Train TER \ud83d\ude86"}, "geometry": {"type": "Point", "coordinates": [4.804186, 45.77976]}}, {"type": "Feature", "properties": {"start": "Vienne", "stop_name": "Saint-Germain-au-Mont-d'Or", "type": "Gare accessible", "transport": "TER", "nombre_trajet_moyen": 7.09, "transport_legende": "\ud83d\udeb2 \u2764\ufe0f Train TER \ud83d\ude86"}, "geometry": {"type": "Point", "coordinates": [4.804206, 45.888431]}}, {"type": "Feature", "properties": {"start": "Vienne", "stop_name": "Anse", "type": "Gare accessible", "transport": "TER", "nombre_trajet_moyen": 7.09, "transport_legende": "\ud83d\udeb2 \u2764\ufe0f Train TER \ud83d\ude86"}, "geometry": {"type": "Point", "coordinates": [4.719824, 45.939351]}}, {"type": "Feature", "properties": {"start": "Vienne", "stop_name": "Villefranche-sur-Sa\u00f4ne", "type": "Gare accessible", "transport": "TER", "nombre_trajet_moyen": 7.09, "transport_legende": "\ud83d\udeb2 \u2764\ufe0f Train TER \ud83d\ude86"}, "geometry": {"type": "Point", "coordinates": [4.720798, 45.984482]}}, {"type": "Feature", "properties": {"start": "Vienne", "stop_name": "Saint-Georges-de-Reneins", "type": "Gare accessible", "transport": "TER", "nombre_trajet_moyen": 5.14, "transport_legende": "\ud83d\udeb2 \u2764\ufe0f Train TER \ud83d\ude86"}, "geometry": {"type": "Point", "coordinates": [4.718888, 46.06221]}}, {"type": "Feature", "properties": {"start": "Vienne", "stop_name": "Belleville sur S\u00e2one", "type": "Gare accessible", "transport": "TER", "nombre_trajet_moyen": 5.14, "transport_legende": "\ud83d\udeb2 \u2764\ufe0f Train TER \ud83d\ude86"}, "geometry": {"type": "Point", "coordinates": [4.729011, 46.111952]}}, {"type": "Feature", "properties": {"start": "Vienne", "stop_name": "Roman\u00e8che-Thorins-Maison Blanche", "type": "Gare accessible", "transport": "TER", "nombre_trajet_moyen": 5.14, "transport_legende": "\ud83d\udeb2 \u2764\ufe0f Train TER \ud83d\ude86"}, "geometry": {"type": "Point", "coordinates": [4.741973, 46.176344]}}, {"type": "Feature", "properties": {"start": "Vienne", "stop_name": "Pontanevaux", "type": "Gare accessible", "transport": "TER", "nombre_trajet_moyen": 5.14, "transport_legende": "\ud83d\udeb2 \u2764\ufe0f Train TER \ud83d\ude86"}, "geometry": {"type": "Point", "coordinates": [4.772881, 46.213047]}}, {"type": "Feature", "properties": {"start": "Vienne", "stop_name": "Cr\u00eaches-sur-Sa\u00f4ne", "type": "Gare accessible", "transport": "TER", "nombre_trajet_moyen": 5.14, "transport_legende": "\ud83d\udeb2 \u2764\ufe0f Train TER \ud83d\ude86"}, "geometry": {"type": "Point", "coordinates": [4.784047, 46.246154]}}, {"type": "Feature", "properties": {"start": "Vienne", "stop_name": "M\u00e2con", "type": "Gare accessible", "transport": "TER", "nombre_trajet_moyen": 5.14, "transport_legende": "\ud83d\udeb2 \u2764\ufe0f Train TER \ud83d\ude86"}, "geometry": {"type": "Point", "coordinates": [4.824887, 46.302572]}}, {"type": "Feature", "properties": {"start": "Vienne", "stop_name": "Albigny - Neuville", "type": "Gare accessible", "transport": "TER", "nombre_trajet_moyen": 4.76, "transport_legende": "\ud83d\udeb2 \u2764\ufe0f Train TER \ud83d\ude86"}, "geometry": {"type": "Point", "coordinates": [4.832852, 45.874897]}}, {"type": "Feature", "properties": {"start": "Vienne", "stop_name": "Quincieux", "type": "Gare accessible", "transport": "TER", "nombre_trajet_moyen": 4.76, "transport_legende": "\ud83d\udeb2 \u2764\ufe0f Train TER \ud83d\ude86"}, "geometry": {"type": "Point", "coordinates": [4.77857, 45.906914]}}, {"type": "Feature", "properties": {"start": "Vienne", "stop_name": "Donz\u00e8re", "type": "Gare accessible", "transport": "TER", "nombre_trajet_moyen": 7.35, "transport_legende": "\ud83d\udeb2 \u2764\ufe0f Train TER \ud83d\ude86"}, "geometry": {"type": "Point", "coordinates": [4.704626, 44.443365]}}, {"type": "Feature", "properties": {"start": "Vienne", "stop_name": "Loriol", "type": "Gare accessible", "transport": "TER", "nombre_trajet_moyen": 7.11, "transport_legende": "\ud83d\udeb2 \u2764\ufe0f Train TER \ud83d\ude86"}, "geometry": {"type": "Point", "coordinates": [4.817213, 44.754515]}}, {"type": "Feature", "properties": {"start": "Vienne", "stop_name": "Livron", "type": "Gare accessible", "transport": "TER", "nombre_trajet_moyen": 7.11, "transport_legende": "\ud83d\udeb2 \u2764\ufe0f Train TER \ud83d\ude86"}, "geometry": {"type": "Point", "coordinates": [4.830559, 44.779617]}}, {"type": "Feature", "properties": {"start": "Vienne", "stop_name": "Collonges - Fontaines", "type": "Gare accessible", "transport": "TER", "nombre_trajet_moyen": 4.76, "transport_legende": "\ud83d\udeb2 \u2764\ufe0f Train TER \ud83d\ude86"}, "geometry": {"type": "Point", "coordinates": [4.84665, 45.829128]}}, {"type": "Feature", "properties": {"start": "Vienne", "stop_name": "Couzon-au-Mont-d'Or", "type": "Gare accessible", "transport": "TER", "nombre_trajet_moyen": 4.76, "transport_legende": "\ud83d\udeb2 \u2764\ufe0f Train TER \ud83d\ude86"}, "geometry": {"type": "Point", "coordinates": [4.82948, 45.84876]}}, {"type": "Feature", "properties": {"start": "Vienne", "stop_name": "Sorgues - Ch\u00e2teauneuf-du-Pape", "type": "Gare accessible", "transport": "TER", "nombre_trajet_moyen": 6.93, "transport_legende": "\ud83d\udeb2 \u2764\ufe0f Train TER \ud83d\ude86"}, "geometry": {"type": "Point", "coordinates": [4.875612, 44.005427]}}, {"type": "Feature", "properties": {"start": "Vienne", "stop_name": "Courth\u00e9zon", "type": "Gare accessible", "transport": "TER", "nombre_trajet_moyen": 5.19, "transport_legende": "\ud83d\udeb2 \u2764\ufe0f Train TER \ud83d\ude86"}, "geometry": {"type": "Point", "coordinates": [4.888178, 44.089999]}}, {"type": "Feature", "properties": {"start": "Vienne", "stop_name": "B\u00e9darrides", "type": "Gare accessible", "transport": "TER", "nombre_trajet_moyen": 4.25, "transport_legende": "\ud83d\udeb2 \u2764\ufe0f Train TER \ud83d\ude86"}, "geometry": {"type": "Point", "coordinates": [4.89325, 44.040843]}}, {"type": "Feature", "properties": {"start": "Vienne", "stop_name": "Saint-Fons", "type": "Gare accessible", "transport": "TER", "nombre_trajet_moyen": 4.71, "transport_legende": "\ud83d\udeb2 \u2764\ufe0f Train TER \ud83d\ude86"}, "geometry": {"type": "Point", "coordinates": [4.852564, 45.70579]}}, {"type": "Feature", "properties": {"start": "Vienne", "stop_name": "Feyzin", "type": "Gare accessible", "transport": "TER", "nombre_trajet_moyen": 4.71, "transport_legende": "\ud83d\udeb2 \u2764\ufe0f Train TER \ud83d\ude86"}, "geometry": {"type": "Point", "coordinates": [4.853043, 45.665676]}}, {"type": "Feature", "properties": {"start": "Vienne", "stop_name": "S\u00e9r\u00e9zin", "type": "Gare accessible", "transport": "TER", "nombre_trajet_moyen": 4.71, "transport_legende": "\ud83d\udeb2 \u2764\ufe0f Train TER \ud83d\ude86"}, "geometry": {"type": "Point", "coordinates": [4.81812, 45.627264]}}, {"type": "Feature", "properties": {"start": "Vienne", "stop_name": "Chasse-sur-Rh\u00f4ne", "type": "Gare accessible", "transport": "TER", "nombre_trajet_moyen": 4.71, "transport_legende": "\ud83d\udeb2 \u2764\ufe0f Train TER \ud83d\ude86"}, "geometry": {"type": "Point", "coordinates": [4.794848, 45.582406]}}, {"type": "Feature", "properties": {"start": "Vienne", "stop_name": "Estressin", "type": "Gare accessible", "transport": "TER", "nombre_trajet_moyen": 4.71, "transport_legende": "\ud83d\udeb2 \u2764\ufe0f Train TER \ud83d\ude86"}, "geometry": {"type": "Point", "coordinates": [4.868563, 45.539829]}}]}