{"type": "FeatureCollection", "features": [{"type": "Feature", "properties": {"start": "Voiron Gare Routi\u00e8re", "stop_name": "Voiron Gare Routi\u00e8re", "type": "Gare s\u00e9lectionn\u00e9e", "transport": "TER", "nombre_trajet_moyen": 0.08, "transport_legende": "\ud83d\udeb2 \u2764\ufe0f Train TER \ud83d\ude86"}, "geometry": {"type": "Point", "coordinates": [5.593347, 45.364856]}}, {"type": "Feature", "properties": {"start": "Voiron Gare Routi\u00e8re", "stop_name": "Grenoble", "type": "Gare accessible", "transport": "TER", "nombre_trajet_moyen": 0.08, "transport_legende": "\ud83d\udeb2 \u2764\ufe0f Train TER \ud83d\ude86"}, "geometry": {"type": "Point", "coordinates": [5.714366, 45.192693]}}, {"type": "Feature", "properties": {"start": "Voiron Gare Routi\u00e8re", "stop_name": "Bourgoin-Jallieu", "type": "Gare accessible", "transport": "TER", "nombre_trajet_moyen": 0.08, "transport_legende": "\ud83d\udeb2 \u2764\ufe0f Train TER \ud83d\ude86"}, "geometry": {"type": "Point", "coordinates": [5.273362, 45.583982]}}, {"type": "Feature", "properties": {"start": "Voiron Gare Routi\u00e8re", "stop_name": "Lyon-Part-Dieu Gare Routi\u00e8re", "type": "Gare accessible", "transport": "TER", "nombre_trajet_moyen": 0.08, "transport_legende": "\ud83d\udeb2 \u2764\ufe0f Train TER \ud83d\ude86"}, "geometry": {"type": "Point", "coordinates": [4.862984, 45.761064]}}, {"type": "Feature", "properties": {"start": "Voiron Gare Routi\u00e8re", "stop_name": "Voreppe", "type": "Gare accessible", "transport": "TER", "nombre_trajet_moyen": 0.08, "transport_legende": "\ud83d\udeb2 \u2764\ufe0f Train TER \ud83d\ude86"}, "geometry": {"type": "Point", "coordinates": [5.632119, 45.290415]}}, {"type": "Feature", "properties": {"start": "Voiron Gare Routi\u00e8re", "stop_name": "Moirans", "type": "Gare accessible", "transport": "TER", "nombre_trajet_moyen": 0.08, "transport_legende": "\ud83d\udeb2 \u2764\ufe0f Train TER \ud83d\ude86"}, "geometry": {"type": "Point", "coordinates": [5.581934, 45.32216]}}, {"type": "Feature", "properties": {"start": "Voiron Gare Routi\u00e8re", "stop_name": "Saint-Andr\u00e9-le-Gaz", "type": "Gare accessible", "transport": "TER", "nombre_trajet_moyen": 0.08, "transport_legende": "\ud83d\udeb2 \u2764\ufe0f Train TER \ud83d\ude86"}, "geometry": {"type": "Point", "coordinates": [5.524254, 45.544529]}}, {"type": "Feature", "properties": {"start": "Voiron Gare Routi\u00e8re", "stop_name": "Virieu sur Bourbre", "type": "Gare accessible", "transport": "TER", "nombre_trajet_moyen": 0.08, "transport_legende": "\ud83d\udeb2 \u2764\ufe0f Train TER \ud83d\ude86"}, "geometry": {"type": "Point", "coordinates": [5.47213, 45.491758]}}, {"type": "Feature", "properties": {"start": "Voiron Gare Routi\u00e8re", "stop_name": "Ch\u00e2bons", "type": "Gare accessible", "transport": "TER", "nombre_trajet_moyen": 0.08, "transport_legende": "\ud83d\udeb2 \u2764\ufe0f Train TER \ud83d\ude86"}, "geometry": {"type": "Point", "coordinates": [5.428099, 45.438407]}}, {"type": "Feature", "properties": {"start": "Voiron Gare Routi\u00e8re", "stop_name": "Le Grand-Lemps", "type": "Gare accessible", "transport": "TER", "nombre_trajet_moyen": 0.08, "transport_legende": "\ud83d\udeb2 \u2764\ufe0f Train TER \ud83d\ude86"}, "geometry": {"type": "Point", "coordinates": [5.42314, 45.396676]}}, {"type": "Feature", "properties": {"start": "Voiron Gare Routi\u00e8re", "stop_name": "Rives", "type": "Gare accessible", "transport": "TER", "nombre_trajet_moyen": 0.08, "transport_legende": "\ud83d\udeb2 \u2764\ufe0f Train TER \ud83d\ude86"}, "geometry": {"type": "Point", "coordinates": [5.491895, 45.357594]}}, {"type": "Feature", "properties": {"start": "Voiron Gare Routi\u00e8re", "stop_name": "R\u00e9aumont - Saint-Cassien", "type": "Gare accessible", "transport": "TER", "nombre_trajet_moyen": 0.08, "transport_legende": "\ud83d\udeb2 \u2764\ufe0f Train TER \ud83d\ude86"}, "geometry": {"type": "Point", "coordinates": [5.534859, 45.368821]}}]}