{"type": "FeatureCollection", "features": [{"type": "Feature", "properties": {"start": "Weyersheim Rue R\u00e9publique", "stop_name": "Weyersheim Rue R\u00e9publique", "type": "Gare s\u00e9lectionn\u00e9e", "transport": "TER", "nombre_trajet_moyen": 1.13, "transport_legende": "\ud83d\udeb2 \u2764\ufe0f Train TER \ud83d\ude86"}, "geometry": {"type": "Point", "coordinates": [7.800244, 48.717811]}}, {"type": "Feature", "properties": {"start": "Weyersheim Rue R\u00e9publique", "stop_name": "Strasbourg", "type": "Gare accessible", "transport": "TER", "nombre_trajet_moyen": 1.13, "transport_legende": "\ud83d\udeb2 \u2764\ufe0f Train TER \ud83d\ude86"}, "geometry": {"type": "Point", "coordinates": [7.734793, 48.584532]}}, {"type": "Feature", "properties": {"start": "Weyersheim Rue R\u00e9publique", "stop_name": "Hoerdt Mairie", "type": "Gare accessible", "transport": "TER", "nombre_trajet_moyen": 1.13, "transport_legende": "\ud83d\udeb2 \u2764\ufe0f Train TER \ud83d\ude86"}, "geometry": {"type": "Point", "coordinates": [7.784133, 48.69819]}}, {"type": "Feature", "properties": {"start": "Weyersheim Rue R\u00e9publique", "stop_name": "Bischwiller", "type": "Gare accessible", "transport": "TER", "nombre_trajet_moyen": 1.13, "transport_legende": "\ud83d\udeb2 \u2764\ufe0f Train TER \ud83d\ude86"}, "geometry": {"type": "Point", "coordinates": [7.851654, 48.765753]}}, {"type": "Feature", "properties": {"start": "Weyersheim Rue R\u00e9publique", "stop_name": "Kaltenhouse Rue de Bischwiller", "type": "Gare accessible", "transport": "TER", "nombre_trajet_moyen": 1.13, "transport_legende": "\ud83d\udeb2 \u2764\ufe0f Train TER \ud83d\ude86"}, "geometry": {"type": "Point", "coordinates": [7.836572, 48.789926]}}, {"type": "Feature", "properties": {"start": "Weyersheim Rue R\u00e9publique", "stop_name": "Haguenau", "type": "Gare accessible", "transport": "TER", "nombre_trajet_moyen": 1.13, "transport_legende": "\ud83d\udeb2 \u2764\ufe0f Train TER \ud83d\ude86"}, "geometry": {"type": "Point", "coordinates": [7.782757, 48.813486]}}, {"type": "Feature", "properties": {"start": "Weyersheim Rue R\u00e9publique", "stop_name": "Haguenau Statuette", "type": "Gare accessible", "transport": "TER", "nombre_trajet_moyen": 0.78, "transport_legende": "\ud83d\udeb2 \u2764\ufe0f Train TER \ud83d\ude86"}, "geometry": {"type": "Point", "coordinates": [7.798091, 48.804194]}}, {"type": "Feature", "properties": {"start": "Weyersheim Rue R\u00e9publique", "stop_name": "Marienthal Basilique Notre-Dame", "type": "Gare accessible", "transport": "TER", "nombre_trajet_moyen": 0.78, "transport_legende": "\ud83d\udeb2 \u2764\ufe0f Train TER \ud83d\ude86"}, "geometry": {"type": "Point", "coordinates": [7.816475, 48.780133]}}, {"type": "Feature", "properties": {"start": "Weyersheim Rue R\u00e9publique", "stop_name": "Marienthal", "type": "Gare accessible", "transport": "TER", "nombre_trajet_moyen": 0.78, "transport_legende": "\ud83d\udeb2 \u2764\ufe0f Train TER \ud83d\ude86"}, "geometry": {"type": "Point", "coordinates": [7.823352, 48.781868]}}, {"type": "Feature", "properties": {"start": "Weyersheim Rue R\u00e9publique", "stop_name": "Bischwiller Vestra", "type": "Gare accessible", "transport": "TER", "nombre_trajet_moyen": 1.13, "transport_legende": "\ud83d\udeb2 \u2764\ufe0f Train TER \ud83d\ude86"}, "geometry": {"type": "Point", "coordinates": [7.847867, 48.770589]}}, {"type": "Feature", "properties": {"start": "Weyersheim Rue R\u00e9publique", "stop_name": "Bischwiller \u00c9glise Catholique", "type": "Gare accessible", "transport": "TER", "nombre_trajet_moyen": 1.13, "transport_legende": "\ud83d\udeb2 \u2764\ufe0f Train TER \ud83d\ude86"}, "geometry": {"type": "Point", "coordinates": [7.859784, 48.764098]}}, {"type": "Feature", "properties": {"start": "Weyersheim Rue R\u00e9publique", "stop_name": "Kurtzenhouse CMDP", "type": "Gare accessible", "transport": "TER", "nombre_trajet_moyen": 1.13, "transport_legende": "\ud83d\udeb2 \u2764\ufe0f Train TER \ud83d\ude86"}, "geometry": {"type": "Point", "coordinates": [7.812572, 48.742614]}}, {"type": "Feature", "properties": {"start": "Weyersheim Rue R\u00e9publique", "stop_name": "Kurtzenhouse Mairie", "type": "Gare accessible", "transport": "TER", "nombre_trajet_moyen": 1.13, "transport_legende": "\ud83d\udeb2 \u2764\ufe0f Train TER \ud83d\ude86"}, "geometry": {"type": "Point", "coordinates": [7.806639, 48.739129]}}, {"type": "Feature", "properties": {"start": "Weyersheim Rue R\u00e9publique", "stop_name": "Hoerdt Maison de Retraite", "type": "Gare accessible", "transport": "TER", "nombre_trajet_moyen": 1.13, "transport_legende": "\ud83d\udeb2 \u2764\ufe0f Train TER \ud83d\ude86"}, "geometry": {"type": "Point", "coordinates": [7.782193, 48.692017]}}]}