{"type": "FeatureCollection", "features": [{"type": "Feature", "properties": {"start": "Zillisheim Auberge Mohn", "stop_name": "Zillisheim Auberge Mohn", "type": "Gare s\u00e9lectionn\u00e9e", "transport": "TER", "transport_legende": "\ud83d\udeb2 \u2764\ufe0f Train TER \ud83d\ude86"}, "geometry": {"type": "Point", "coordinates": [7.294209, 47.693805]}}, {"type": "Feature", "properties": {"start": "Zillisheim Auberge Mohn", "stop_name": "Altkirch", "type": "Gare accessible", "transport": "TER", "transport_legende": "\ud83d\udeb2 \u2764\ufe0f Train TER \ud83d\ude86"}, "geometry": {"type": "Point", "coordinates": [7.23905, 47.627017]}}, {"type": "Feature", "properties": {"start": "Zillisheim Auberge Mohn", "stop_name": "Illfurth Croisement Gare-CD68", "type": "Gare accessible", "transport": "TER", "transport_legende": "\ud83d\udeb2 \u2764\ufe0f Train TER \ud83d\ude86"}, "geometry": {"type": "Point", "coordinates": [7.266448, 47.674465]}}, {"type": "Feature", "properties": {"start": "Zillisheim Auberge Mohn", "stop_name": "Mulhouse", "type": "Gare accessible", "transport": "TER", "transport_legende": "\ud83d\udeb2 \u2764\ufe0f Train TER \ud83d\ude86"}, "geometry": {"type": "Point", "coordinates": [7.34316, 47.742691]}}, {"type": "Feature", "properties": {"start": "Zillisheim Auberge Mohn", "stop_name": "Dannemarie", "type": "Gare accessible", "transport": "TER", "transport_legende": "\ud83d\udeb2 \u2764\ufe0f Train TER \ud83d\ude86"}, "geometry": {"type": "Point", "coordinates": [7.124828, 47.627743]}}, {"type": "Feature", "properties": {"start": "Zillisheim Auberge Mohn", "stop_name": "Montreux-Vieux", "type": "Gare accessible", "transport": "TER", "transport_legende": "\ud83d\udeb2 \u2764\ufe0f Train TER \ud83d\ude86"}, "geometry": {"type": "Point", "coordinates": [7.025505, 47.61792]}}, {"type": "Feature", "properties": {"start": "Zillisheim Auberge Mohn", "stop_name": "Belfort-Ville", "type": "Gare accessible", "transport": "TER", "transport_legende": "\ud83d\udeb2 \u2764\ufe0f Train TER \ud83d\ude86"}, "geometry": {"type": "Point", "coordinates": [6.854053, 47.633278]}}]}