{"type": "FeatureCollection", "features": [{"type": "Feature", "properties": {"start": "\u00c9chirolles", "stop_name": "\u00c9chirolles", "type": "Gare s\u00e9lectionn\u00e9e", "transport": "TER", "transport_legende": "\ud83d\udeb2 \u2764\ufe0f Train TER \ud83d\ude86"}, "geometry": {"type": "Point", "coordinates": [5.718943, 45.153022]}}, {"type": "Feature", "properties": {"start": "\u00c9chirolles", "stop_name": "Chamb\u00e9ry - Challes-les-Eaux", "type": "Gare accessible", "transport": "TER", "transport_legende": "\ud83d\udeb2 \u2764\ufe0f Train TER \ud83d\ude86"}, "geometry": {"type": "Point", "coordinates": [5.919547, 45.571302]}}, {"type": "Feature", "properties": {"start": "\u00c9chirolles", "stop_name": "Montm\u00e9lian", "type": "Gare accessible", "transport": "TER", "transport_legende": "\ud83d\udeb2 \u2764\ufe0f Train TER \ud83d\ude86"}, "geometry": {"type": "Point", "coordinates": [6.043175, 45.503082]}}, {"type": "Feature", "properties": {"start": "\u00c9chirolles", "stop_name": "Pontcharra sur Br\u00e9da", "type": "Gare accessible", "transport": "TER", "transport_legende": "\ud83d\udeb2 \u2764\ufe0f Train TER \ud83d\ude86"}, "geometry": {"type": "Point", "coordinates": [6.007859, 45.434091]}}, {"type": "Feature", "properties": {"start": "\u00c9chirolles", "stop_name": "Goncelin", "type": "Gare accessible", "transport": "TER", "transport_legende": "\ud83d\udeb2 \u2764\ufe0f Train TER \ud83d\ude86"}, "geometry": {"type": "Point", "coordinates": [5.974103, 45.341962]}}, {"type": "Feature", "properties": {"start": "\u00c9chirolles", "stop_name": "Brignoud", "type": "Gare accessible", "transport": "TER", "transport_legende": "\ud83d\udeb2 \u2764\ufe0f Train TER \ud83d\ude86"}, "geometry": {"type": "Point", "coordinates": [5.90145, 45.262494]}}, {"type": "Feature", "properties": {"start": "\u00c9chirolles", "stop_name": "Lancey", "type": "Gare accessible", "transport": "TER", "transport_legende": "\ud83d\udeb2 \u2764\ufe0f Train TER \ud83d\ude86"}, "geometry": {"type": "Point", "coordinates": [5.880963, 45.234497]}}, {"type": "Feature", "properties": {"start": "\u00c9chirolles", "stop_name": "Grenoble Universit\u00e9s - Gi\u00e8res", "type": "Gare accessible", "transport": "TER", "transport_legende": "\ud83d\udeb2 \u2764\ufe0f Train TER \ud83d\ude86"}, "geometry": {"type": "Point", "coordinates": [5.784731, 45.184971]}}, {"type": "Feature", "properties": {"start": "\u00c9chirolles", "stop_name": "Grenoble", "type": "Gare accessible", "transport": "TER", "transport_legende": "\ud83d\udeb2 \u2764\ufe0f Train TER \ud83d\ude86"}, "geometry": {"type": "Point", "coordinates": [5.714366, 45.192693]}}, {"type": "Feature", "properties": {"start": "\u00c9chirolles", "stop_name": "Valence Ville", "type": "Gare accessible", "transport": "TER", "transport_legende": "\ud83d\udeb2 \u2764\ufe0f Train TER \ud83d\ude86"}, "geometry": {"type": "Point", "coordinates": [4.893288, 44.928081]}}, {"type": "Feature", "properties": {"start": "\u00c9chirolles", "stop_name": "Valence TGV Rh\u00f4ne-Alpes Sud", "type": "Gare accessible", "transport": "TER", "transport_legende": "\ud83d\udeb2 \u2764\ufe0f Train TER \ud83d\ude86"}, "geometry": {"type": "Point", "coordinates": [4.978652, 44.991907]}}, {"type": "Feature", "properties": {"start": "\u00c9chirolles", "stop_name": "Romans - Bourg-de-P\u00e9age", "type": "Gare accessible", "transport": "TER", "transport_legende": "\ud83d\udeb2 \u2764\ufe0f Train TER \ud83d\ude86"}, "geometry": {"type": "Point", "coordinates": [5.049574, 45.048862]}}, {"type": "Feature", "properties": {"start": "\u00c9chirolles", "stop_name": "Saint-Hilaire - Saint-Nazaire", "type": "Gare accessible", "transport": "TER", "transport_legende": "\ud83d\udeb2 \u2764\ufe0f Train TER \ud83d\ude86"}, "geometry": {"type": "Point", "coordinates": [5.243845, 45.071342]}}, {"type": "Feature", "properties": {"start": "\u00c9chirolles", "stop_name": "Saint-Marcellin", "type": "Gare accessible", "transport": "TER", "transport_legende": "\ud83d\udeb2 \u2764\ufe0f Train TER \ud83d\ude86"}, "geometry": {"type": "Point", "coordinates": [5.323654, 45.150885]}}, {"type": "Feature", "properties": {"start": "\u00c9chirolles", "stop_name": "Vinay", "type": "Gare accessible", "transport": "TER", "transport_legende": "\ud83d\udeb2 \u2764\ufe0f Train TER \ud83d\ude86"}, "geometry": {"type": "Point", "coordinates": [5.410091, 45.207966]}}, {"type": "Feature", "properties": {"start": "\u00c9chirolles", "stop_name": "Poli\u00e9nas", "type": "Gare accessible", "transport": "TER", "transport_legende": "\ud83d\udeb2 \u2764\ufe0f Train TER \ud83d\ude86"}, "geometry": {"type": "Point", "coordinates": [5.473585, 45.256006]}}, {"type": "Feature", "properties": {"start": "\u00c9chirolles", "stop_name": "Tullins Fures", "type": "Gare accessible", "transport": "TER", "transport_legende": "\ud83d\udeb2 \u2764\ufe0f Train TER \ud83d\ude86"}, "geometry": {"type": "Point", "coordinates": [5.492174, 45.300905]}}, {"type": "Feature", "properties": {"start": "\u00c9chirolles", "stop_name": "Moirans la Galifette", "type": "Gare accessible", "transport": "TER", "transport_legende": "\ud83d\udeb2 \u2764\ufe0f Train TER \ud83d\ude86"}, "geometry": {"type": "Point", "coordinates": [5.564929, 45.323995]}}, {"type": "Feature", "properties": {"start": "\u00c9chirolles", "stop_name": "Moirans", "type": "Gare accessible", "transport": "TER", "transport_legende": "\ud83d\udeb2 \u2764\ufe0f Train TER \ud83d\ude86"}, "geometry": {"type": "Point", "coordinates": [5.581934, 45.32216]}}, {"type": "Feature", "properties": {"start": "\u00c9chirolles", "stop_name": "Saint-\u00c9gr\u00e8ve Saint-Robert", "type": "Gare accessible", "transport": "TER", "transport_legende": "\ud83d\udeb2 \u2764\ufe0f Train TER \ud83d\ude86"}, "geometry": {"type": "Point", "coordinates": [5.671263, 45.235719]}}, {"type": "Feature", "properties": {"start": "\u00c9chirolles", "stop_name": "Saint-Andr\u00e9-le-Gaz", "type": "Gare accessible", "transport": "TER", "transport_legende": "\ud83d\udeb2 \u2764\ufe0f Train TER \ud83d\ude86"}, "geometry": {"type": "Point", "coordinates": [5.524254, 45.544529]}}, {"type": "Feature", "properties": {"start": "\u00c9chirolles", "stop_name": "Virieu sur Bourbre", "type": "Gare accessible", "transport": "TER", "transport_legende": "\ud83d\udeb2 \u2764\ufe0f Train TER \ud83d\ude86"}, "geometry": {"type": "Point", "coordinates": [5.47213, 45.491758]}}, {"type": "Feature", "properties": {"start": "\u00c9chirolles", "stop_name": "Ch\u00e2bons", "type": "Gare accessible", "transport": "TER", "transport_legende": "\ud83d\udeb2 \u2764\ufe0f Train TER \ud83d\ude86"}, "geometry": {"type": "Point", "coordinates": [5.428099, 45.438407]}}, {"type": "Feature", "properties": {"start": "\u00c9chirolles", "stop_name": "Le Grand-Lemps", "type": "Gare accessible", "transport": "TER", "transport_legende": "\ud83d\udeb2 \u2764\ufe0f Train TER \ud83d\ude86"}, "geometry": {"type": "Point", "coordinates": [5.42314, 45.396676]}}, {"type": "Feature", "properties": {"start": "\u00c9chirolles", "stop_name": "Rives", "type": "Gare accessible", "transport": "TER", "transport_legende": "\ud83d\udeb2 \u2764\ufe0f Train TER \ud83d\ude86"}, "geometry": {"type": "Point", "coordinates": [5.491895, 45.357594]}}, {"type": "Feature", "properties": {"start": "\u00c9chirolles", "stop_name": "R\u00e9aumont - Saint-Cassien", "type": "Gare accessible", "transport": "TER", "transport_legende": "\ud83d\udeb2 \u2764\ufe0f Train TER \ud83d\ude86"}, "geometry": {"type": "Point", "coordinates": [5.534859, 45.368821]}}, {"type": "Feature", "properties": {"start": "\u00c9chirolles", "stop_name": "Voiron", "type": "Gare accessible", "transport": "TER", "transport_legende": "\ud83d\udeb2 \u2764\ufe0f Train TER \ud83d\ude86"}, "geometry": {"type": "Point", "coordinates": [5.594959, 45.364034]}}, {"type": "Feature", "properties": {"start": "\u00c9chirolles", "stop_name": "Voreppe", "type": "Gare accessible", "transport": "TER", "transport_legende": "\ud83d\udeb2 \u2764\ufe0f Train TER \ud83d\ude86"}, "geometry": {"type": "Point", "coordinates": [5.632119, 45.290415]}}]}