{"type": "FeatureCollection", "features": [{"type": "Feature", "properties": {"start": "\u00c9taples - Le Touquet", "stop_name": "\u00c9taples - Le Touquet", "type": "Gare s\u00e9lectionn\u00e9e", "transport": "TER", "transport_legende": "\ud83d\udeb2 \u2764\ufe0f Train TER \ud83d\ude86"}, "geometry": {"type": "Point", "coordinates": [1.642582, 50.516544]}}, {"type": "Feature", "properties": {"start": "\u00c9taples - Le Touquet", "stop_name": "Calais Ville", "type": "Gare accessible", "transport": "TER", "transport_legende": "\ud83d\udeb2 \u2764\ufe0f Train TER \ud83d\ude86"}, "geometry": {"type": "Point", "coordinates": [1.850885, 50.953466]}}, {"type": "Feature", "properties": {"start": "\u00c9taples - Le Touquet", "stop_name": "Boulogne sur Mer", "type": "Gare accessible", "transport": "TER", "transport_legende": "\ud83d\udeb2 \u2764\ufe0f Train TER \ud83d\ude86"}, "geometry": {"type": "Point", "coordinates": [1.609714, 50.715613]}}, {"type": "Feature", "properties": {"start": "\u00c9taples - Le Touquet", "stop_name": "Rang-du-Fliers - Verton - Berck", "type": "Gare accessible", "transport": "TER", "transport_legende": "\ud83d\udeb2 \u2764\ufe0f Train TER \ud83d\ude86"}, "geometry": {"type": "Point", "coordinates": [1.648048, 50.415845]}}, {"type": "Feature", "properties": {"start": "\u00c9taples - Le Touquet", "stop_name": "Rue", "type": "Gare accessible", "transport": "TER", "transport_legende": "\ud83d\udeb2 \u2764\ufe0f Train TER \ud83d\ude86"}, "geometry": {"type": "Point", "coordinates": [1.675697, 50.273147]}}, {"type": "Feature", "properties": {"start": "\u00c9taples - Le Touquet", "stop_name": "Noyelles-sur-Mer", "type": "Gare accessible", "transport": "TER", "transport_legende": "\ud83d\udeb2 \u2764\ufe0f Train TER \ud83d\ude86"}, "geometry": {"type": "Point", "coordinates": [1.70453, 50.187305]}}, {"type": "Feature", "properties": {"start": "\u00c9taples - Le Touquet", "stop_name": "Abbeville", "type": "Gare accessible", "transport": "TER", "transport_legende": "\ud83d\udeb2 \u2764\ufe0f Train TER \ud83d\ude86"}, "geometry": {"type": "Point", "coordinates": [1.824538, 50.102175]}}, {"type": "Feature", "properties": {"start": "\u00c9taples - Le Touquet", "stop_name": "Amiens", "type": "Gare accessible", "transport": "TER", "transport_legende": "\ud83d\udeb2 \u2764\ufe0f Train TER \ud83d\ude86"}, "geometry": {"type": "Point", "coordinates": [2.308277, 49.890584]}}, {"type": "Feature", "properties": {"start": "\u00c9taples - Le Touquet", "stop_name": "Longueau", "type": "Gare accessible", "transport": "TER", "transport_legende": "\ud83d\udeb2 \u2764\ufe0f Train TER \ud83d\ude86"}, "geometry": {"type": "Point", "coordinates": [2.352233, 49.863407]}}, {"type": "Feature", "properties": {"start": "\u00c9taples - Le Touquet", "stop_name": "Paris Gare du Nord", "type": "Gare accessible", "transport": "TER", "transport_legende": "\ud83d\udeb2 \u2764\ufe0f Train TER \ud83d\ude86"}, "geometry": {"type": "Point", "coordinates": [2.354851, 48.880136]}}, {"type": "Feature", "properties": {"start": "\u00c9taples - Le Touquet", "stop_name": "Saint-Just-en-Chauss\u00e9e", "type": "Gare accessible", "transport": "TER", "transport_legende": "\ud83d\udeb2 \u2764\ufe0f Train TER \ud83d\ude86"}, "geometry": {"type": "Point", "coordinates": [2.42949, 49.50364]}}, {"type": "Feature", "properties": {"start": "\u00c9taples - Le Touquet", "stop_name": "Clermont de l'Oise", "type": "Gare accessible", "transport": "TER", "transport_legende": "\ud83d\udeb2 \u2764\ufe0f Train TER \ud83d\ude86"}, "geometry": {"type": "Point", "coordinates": [2.417663, 49.385278]}}, {"type": "Feature", "properties": {"start": "\u00c9taples - Le Touquet", "stop_name": "Creil", "type": "Gare accessible", "transport": "TER", "transport_legende": "\ud83d\udeb2 \u2764\ufe0f Train TER \ud83d\ude86"}, "geometry": {"type": "Point", "coordinates": [2.469293, 49.263775]}}, {"type": "Feature", "properties": {"start": "\u00c9taples - Le Touquet", "stop_name": "Marquise - Rinxent", "type": "Gare accessible", "transport": "TER", "transport_legende": "\ud83d\udeb2 \u2764\ufe0f Train TER \ud83d\ude86"}, "geometry": {"type": "Point", "coordinates": [1.729786, 50.805686]}}, {"type": "Feature", "properties": {"start": "\u00c9taples - Le Touquet", "stop_name": "Hesdigneul", "type": "Gare accessible", "transport": "TER", "transport_legende": "\ud83d\udeb2 \u2764\ufe0f Train TER \ud83d\ude86"}, "geometry": {"type": "Point", "coordinates": [1.666998, 50.661095]}}, {"type": "Feature", "properties": {"start": "\u00c9taples - Le Touquet", "stop_name": "Arras", "type": "Gare accessible", "transport": "TER", "transport_legende": "\ud83d\udeb2 \u2764\ufe0f Train TER \ud83d\ude86"}, "geometry": {"type": "Point", "coordinates": [2.781314, 50.286971]}}, {"type": "Feature", "properties": {"start": "\u00c9taples - Le Touquet", "stop_name": "Maroeuil", "type": "Gare accessible", "transport": "TER", "transport_legende": "\ud83d\udeb2 \u2764\ufe0f Train TER \ud83d\ude86"}, "geometry": {"type": "Point", "coordinates": [2.698498, 50.322431]}}, {"type": "Feature", "properties": {"start": "\u00c9taples - Le Touquet", "stop_name": "Fr\u00e9vin-Capelle", "type": "Gare accessible", "transport": "TER", "transport_legende": "\ud83d\udeb2 \u2764\ufe0f Train TER \ud83d\ude86"}, "geometry": {"type": "Point", "coordinates": [2.63317, 50.347208]}}, {"type": "Feature", "properties": {"start": "\u00c9taples - Le Touquet", "stop_name": "Aubigny-en-Artois", "type": "Gare accessible", "transport": "TER", "transport_legende": "\ud83d\udeb2 \u2764\ufe0f Train TER \ud83d\ude86"}, "geometry": {"type": "Point", "coordinates": [2.592519, 50.3529]}}, {"type": "Feature", "properties": {"start": "\u00c9taples - Le Touquet", "stop_name": "Savy-Berlette", "type": "Gare accessible", "transport": "TER", "transport_legende": "\ud83d\udeb2 \u2764\ufe0f Train TER \ud83d\ude86"}, "geometry": {"type": "Point", "coordinates": [2.558068, 50.353862]}}, {"type": "Feature", "properties": {"start": "\u00c9taples - Le Touquet", "stop_name": "Tincques", "type": "Gare accessible", "transport": "TER", "transport_legende": "\ud83d\udeb2 \u2764\ufe0f Train TER \ud83d\ude86"}, "geometry": {"type": "Point", "coordinates": [2.49804, 50.357153]}}, {"type": "Feature", "properties": {"start": "\u00c9taples - Le Touquet", "stop_name": "Saint-Pol-sur-Ternoise", "type": "Gare accessible", "transport": "TER", "transport_legende": "\ud83d\udeb2 \u2764\ufe0f Train TER \ud83d\ude86"}, "geometry": {"type": "Point", "coordinates": [2.33934, 50.379156]}}, {"type": "Feature", "properties": {"start": "\u00c9taples - Le Touquet", "stop_name": "Anvin", "type": "Gare accessible", "transport": "TER", "transport_legende": "\ud83d\udeb2 \u2764\ufe0f Train TER \ud83d\ude86"}, "geometry": {"type": "Point", "coordinates": [2.255089, 50.446779]}}, {"type": "Feature", "properties": {"start": "\u00c9taples - Le Touquet", "stop_name": "Auchy-l\u00e8s-Hesdin", "type": "Gare accessible", "transport": "TER", "transport_legende": "\ud83d\udeb2 \u2764\ufe0f Train TER \ud83d\ude86"}, "geometry": {"type": "Point", "coordinates": [2.102353, 50.396249]}}, {"type": "Feature", "properties": {"start": "\u00c9taples - Le Touquet", "stop_name": "Hesdin", "type": "Gare accessible", "transport": "TER", "transport_legende": "\ud83d\udeb2 \u2764\ufe0f Train TER \ud83d\ude86"}, "geometry": {"type": "Point", "coordinates": [2.0353, 50.378181]}}, {"type": "Feature", "properties": {"start": "\u00c9taples - Le Touquet", "stop_name": "Beaurainville", "type": "Gare accessible", "transport": "TER", "transport_legende": "\ud83d\udeb2 \u2764\ufe0f Train TER \ud83d\ude86"}, "geometry": {"type": "Point", "coordinates": [1.895193, 50.422895]}}, {"type": "Feature", "properties": {"start": "\u00c9taples - Le Touquet", "stop_name": "Montreuil sur Mer", "type": "Gare accessible", "transport": "TER", "transport_legende": "\ud83d\udeb2 \u2764\ufe0f Train TER \ud83d\ude86"}, "geometry": {"type": "Point", "coordinates": [1.768935, 50.466155]}}, {"type": "Feature", "properties": {"start": "\u00c9taples - Le Touquet", "stop_name": "Brimeux", "type": "Gare accessible", "transport": "TER", "transport_legende": "\ud83d\udeb2 \u2764\ufe0f Train TER \ud83d\ude86"}, "geometry": {"type": "Point", "coordinates": [1.833896, 50.446741]}}, {"type": "Feature", "properties": {"start": "\u00c9taples - Le Touquet", "stop_name": "Maresquel", "type": "Gare accessible", "transport": "TER", "transport_legende": "\ud83d\udeb2 \u2764\ufe0f Train TER \ud83d\ude86"}, "geometry": {"type": "Point", "coordinates": [1.930836, 50.408076]}}, {"type": "Feature", "properties": {"start": "\u00c9taples - Le Touquet", "stop_name": "Aubin-Saint-Vaast", "type": "Gare accessible", "transport": "TER", "transport_legende": "\ud83d\udeb2 \u2764\ufe0f Train TER \ud83d\ude86"}, "geometry": {"type": "Point", "coordinates": [1.969989, 50.394778]}}, {"type": "Feature", "properties": {"start": "\u00c9taples - Le Touquet", "stop_name": "Blangy-sur-Ternoise", "type": "Gare accessible", "transport": "TER", "transport_legende": "\ud83d\udeb2 \u2764\ufe0f Train TER \ud83d\ude86"}, "geometry": {"type": "Point", "coordinates": [2.1723, 50.424662]}}, {"type": "Feature", "properties": {"start": "\u00c9taples - Le Touquet", "stop_name": "Les Fontinettes", "type": "Gare accessible", "transport": "TER", "transport_legende": "\ud83d\udeb2 \u2764\ufe0f Train TER \ud83d\ude86"}, "geometry": {"type": "Point", "coordinates": [1.849858, 50.941002]}}, {"type": "Feature", "properties": {"start": "\u00c9taples - Le Touquet", "stop_name": "Calais - Fr\u00e9thun", "type": "Gare accessible", "transport": "TER", "transport_legende": "\ud83d\udeb2 \u2764\ufe0f Train TER \ud83d\ude86"}, "geometry": {"type": "Point", "coordinates": [1.811178, 50.901247]}}, {"type": "Feature", "properties": {"start": "\u00c9taples - Le Touquet", "stop_name": "Wimille - Wimereux", "type": "Gare accessible", "transport": "TER", "transport_legende": "\ud83d\udeb2 \u2764\ufe0f Train TER \ud83d\ude86"}, "geometry": {"type": "Point", "coordinates": [1.613609, 50.763642]}}, {"type": "Feature", "properties": {"start": "\u00c9taples - Le Touquet", "stop_name": "Boulogne - Tintelleries", "type": "Gare accessible", "transport": "TER", "transport_legende": "\ud83d\udeb2 \u2764\ufe0f Train TER \ud83d\ude86"}, "geometry": {"type": "Point", "coordinates": [1.609036, 50.727284]}}, {"type": "Feature", "properties": {"start": "\u00c9taples - Le Touquet", "stop_name": "Neufch\u00e2tel-Hardelot", "type": "Gare accessible", "transport": "TER", "transport_legende": "\ud83d\udeb2 \u2764\ufe0f Train TER \ud83d\ude86"}, "geometry": {"type": "Point", "coordinates": [1.643352, 50.623564]}}, {"type": "Feature", "properties": {"start": "\u00c9taples - Le Touquet", "stop_name": "Dannes - Camiers", "type": "Gare accessible", "transport": "TER", "transport_legende": "\ud83d\udeb2 \u2764\ufe0f Train TER \ud83d\ude86"}, "geometry": {"type": "Point", "coordinates": [1.614497, 50.575889]}}, {"type": "Feature", "properties": {"start": "\u00c9taples - Le Touquet", "stop_name": "Pihen", "type": "Gare accessible", "transport": "TER", "transport_legende": "\ud83d\udeb2 \u2764\ufe0f Train TER \ud83d\ude86"}, "geometry": {"type": "Point", "coordinates": [1.784602, 50.87275]}}, {"type": "Feature", "properties": {"start": "\u00c9taples - Le Touquet", "stop_name": "Caffiers", "type": "Gare accessible", "transport": "TER", "transport_legende": "\ud83d\udeb2 \u2764\ufe0f Train TER \ud83d\ude86"}, "geometry": {"type": "Point", "coordinates": [1.812401, 50.8498]}}, {"type": "Feature", "properties": {"start": "\u00c9taples - Le Touquet", "stop_name": "Le Haut Banc", "type": "Gare accessible", "transport": "TER", "transport_legende": "\ud83d\udeb2 \u2764\ufe0f Train TER \ud83d\ude86"}, "geometry": {"type": "Point", "coordinates": [1.772519, 50.816399]}}, {"type": "Feature", "properties": {"start": "\u00c9taples - Le Touquet", "stop_name": "Pont de Briques", "type": "Gare accessible", "transport": "TER", "transport_legende": "\ud83d\udeb2 \u2764\ufe0f Train TER \ud83d\ude86"}, "geometry": {"type": "Point", "coordinates": [1.627173, 50.682422]}}, {"type": "Feature", "properties": {"start": "\u00c9taples - Le Touquet", "stop_name": "Pernes - Camblain", "type": "Gare accessible", "transport": "TER", "transport_legende": "\ud83d\udeb2 \u2764\ufe0f Train TER \ud83d\ude86"}, "geometry": {"type": "Point", "coordinates": [2.431076, 50.480353]}}, {"type": "Feature", "properties": {"start": "\u00c9taples - Le Touquet", "stop_name": "Calonne-Ricouart", "type": "Gare accessible", "transport": "TER", "transport_legende": "\ud83d\udeb2 \u2764\ufe0f Train TER \ud83d\ude86"}, "geometry": {"type": "Point", "coordinates": [2.481062, 50.482799]}}, {"type": "Feature", "properties": {"start": "\u00c9taples - Le Touquet", "stop_name": "Vis \u00e0 Marles", "type": "Gare accessible", "transport": "TER", "transport_legende": "\ud83d\udeb2 \u2764\ufe0f Train TER \ud83d\ude86"}, "geometry": {"type": "Point", "coordinates": [2.517363, 50.50509]}}, {"type": "Feature", "properties": {"start": "\u00c9taples - Le Touquet", "stop_name": "B\u00e9thune", "type": "Gare accessible", "transport": "TER", "transport_legende": "\ud83d\udeb2 \u2764\ufe0f Train TER \ud83d\ude86"}, "geometry": {"type": "Point", "coordinates": [2.640509, 50.521454]}}, {"type": "Feature", "properties": {"start": "\u00c9taples - Le Touquet", "stop_name": "Saint-Roch (Somme)", "type": "Gare accessible", "transport": "TER", "transport_legende": "\ud83d\udeb2 \u2764\ufe0f Train TER \ud83d\ude86"}, "geometry": {"type": "Point", "coordinates": [2.28377, 49.893454]}}]}