{"type": "FeatureCollection", "features": [{"type": "Feature", "properties": {"stop_name": "Abancourt", "type": "Gare s\u00e9lectionn\u00e9e", "icone": "Icon2"}, "geometry": {"type": "Point", "coordinates": [1.774351, 49.685602]}}, {"type": "Feature", "properties": {"stop_name": "Rouen Rive Droite", "type": "Gare accessible", "icone": "Icon1"}, "geometry": {"type": "Point", "coordinates": [1.094103, 49.448663]}}, {"type": "Feature", "properties": {"stop_name": "Morgny", "type": "Gare accessible", "icone": "Icon1"}, "geometry": {"type": "Point", "coordinates": [1.247359, 49.522874]}}, {"type": "Feature", "properties": {"stop_name": "Mont\u00e9rolier - Buchy", "type": "Gare accessible", "icone": "Icon1"}, "geometry": {"type": "Point", "coordinates": [1.334721, 49.603165999999995]}}, {"type": "Feature", "properties": {"stop_name": "Serqueux", "type": "Gare accessible", "icone": "Icon1"}, "geometry": {"type": "Point", "coordinates": [1.539403, 49.631551]}}, {"type": "Feature", "properties": {"stop_name": "Formerie", "type": "Gare accessible", "icone": "Icon1"}, "geometry": {"type": "Point", "coordinates": [1.72285, 49.654191]}}, {"type": "Feature", "properties": {"stop_name": "Poix-de-Picardie", "type": "Gare accessible", "icone": "Icon1"}, "geometry": {"type": "Point", "coordinates": [1.989813, 49.777856]}}, {"type": "Feature", "properties": {"stop_name": "Saint-Roch", "type": "Gare accessible", "icone": "Icon1"}, "geometry": {"type": "Point", "coordinates": [2.283716, 49.89342]}}, {"type": "Feature", "properties": {"stop_name": "Amiens", "type": "Gare accessible", "icone": "Icon1"}, "geometry": {"type": "Point", "coordinates": [2.308277, 49.890584000000004]}}, {"type": "Feature", "properties": {"stop_name": "Feuqui\u00e8res - Broquiers", "type": "Gare accessible", "icone": "Icon1"}, "geometry": {"type": "Point", "coordinates": [1.830517, 49.654575]}}, {"type": "Feature", "properties": {"stop_name": "Grandvilliers", "type": "Gare accessible", "icone": "Icon1"}, "geometry": {"type": "Point", "coordinates": [1.938462, 49.659406]}}, {"type": "Feature", "properties": {"stop_name": "Marseille-en-Beauvaisis", "type": "Gare accessible", "icone": "Icon1"}, "geometry": {"type": "Point", "coordinates": [1.954654, 49.571067]}}, {"type": "Feature", "properties": {"stop_name": "Saint-Omer-en-Chauss\u00e9e", "type": "Gare accessible", "icone": "Icon1"}, "geometry": {"type": "Point", "coordinates": [1.997829, 49.531159]}}, {"type": "Feature", "properties": {"stop_name": "Milly-sur-Th\u00e9rain", "type": "Gare accessible", "icone": "Icon1"}, "geometry": {"type": "Point", "coordinates": [1.988603, 49.503869]}}, {"type": "Feature", "properties": {"stop_name": "Herchies", "type": "Gare accessible", "icone": "Icon1"}, "geometry": {"type": "Point", "coordinates": [2.010583, 49.488068]}}, {"type": "Feature", "properties": {"stop_name": "Beauvais", "type": "Gare accessible", "icone": "Icon1"}, "geometry": {"type": "Point", "coordinates": [2.088655, 49.426518]}}, {"type": "Feature", "properties": {"stop_name": "Rochy-Cond\u00e9", "type": "Gare accessible", "icone": "Icon1"}, "geometry": {"type": "Point", "coordinates": [2.172753, 49.398662]}}, {"type": "Feature", "properties": {"stop_name": "Montreuil-sur-Th\u00e9rain", "type": "Gare accessible", "icone": "Icon1"}, "geometry": {"type": "Point", "coordinates": [2.200726, 49.38133]}}, {"type": "Feature", "properties": {"stop_name": "Villers-Saint-S\u00e9pulcre", "type": "Gare accessible", "icone": "Icon1"}, "geometry": {"type": "Point", "coordinates": [2.220439, 49.368078000000004]}}, {"type": "Feature", "properties": {"stop_name": "Hermes - Berthecourt", "type": "Gare accessible", "icone": "Icon1"}, "geometry": {"type": "Point", "coordinates": [2.241726, 49.354423]}}, {"type": "Feature", "properties": {"stop_name": "Heilles - Mouchy", "type": "Gare accessible", "icone": "Icon1"}, "geometry": {"type": "Point", "coordinates": [2.272586, 49.340531]}}, {"type": "Feature", "properties": {"stop_name": "Mouy - Bury", "type": "Gare accessible", "icone": "Icon1"}, "geometry": {"type": "Point", "coordinates": [2.326409, 49.320514]}}, {"type": "Feature", "properties": {"stop_name": "Balagny Saint-\u00c9pin", "type": "Gare accessible", "icone": "Icon1"}, "geometry": {"type": "Point", "coordinates": [2.344063, 49.294309999999996]}}, {"type": "Feature", "properties": {"stop_name": "Cires-l\u00e8s-Mello", "type": "Gare accessible", "icone": "Icon1"}, "geometry": {"type": "Point", "coordinates": [2.360435, 49.271823]}}, {"type": "Feature", "properties": {"stop_name": "Cramoisy", "type": "Gare accessible", "icone": "Icon1"}, "geometry": {"type": "Point", "coordinates": [2.404885, 49.256565]}}, {"type": "Feature", "properties": {"stop_name": "Montataire", "type": "Gare accessible", "icone": "Icon1"}, "geometry": {"type": "Point", "coordinates": [2.436062, 49.251118]}}, {"type": "Feature", "properties": {"stop_name": "Creil", "type": "Gare accessible", "icone": "Icon1"}, "geometry": {"type": "Point", "coordinates": [2.469199, 49.2638]}}, {"type": "Feature", "properties": {"stop_name": "Aumale", "type": "Gare accessible", "icone": "Icon1"}, "geometry": {"type": "Point", "coordinates": [1.756069, 49.765115]}}, {"type": "Feature", "properties": {"stop_name": "Blangy-sur-Bresle", "type": "Gare accessible", "icone": "Icon1"}, "geometry": {"type": "Point", "coordinates": [1.625558, 49.932363]}}, {"type": "Feature", "properties": {"stop_name": "Longroy - Gamaches", "type": "Gare accessible", "icone": "Icon1"}, "geometry": {"type": "Point", "coordinates": [1.551899, 49.982444]}}, {"type": "Feature", "properties": {"stop_name": "Eu", "type": "Gare accessible", "icone": "Icon1"}, "geometry": {"type": "Point", "coordinates": [1.417087, 50.054139]}}, {"type": "Feature", "properties": {"stop_name": "Le Tr\u00e9port - Mers-les-Bains", "type": "Gare accessible", "icone": "Icon1"}, "geometry": {"type": "Point", "coordinates": [1.376078, 50.062715999999995]}}, {"type": "Feature", "properties": {"stop_name": "Lille Flandres", "type": "Gare accessible", "icone": "Icon1"}, "geometry": {"type": "Point", "coordinates": [3.06987, 50.636577]}}, {"type": "Feature", "properties": {"stop_name": "Douai", "type": "Gare accessible", "icone": "Icon1"}, "geometry": {"type": "Point", "coordinates": [3.089958, 50.371673]}}, {"type": "Feature", "properties": {"stop_name": "Arras", "type": "Gare accessible", "icone": "Icon1"}, "geometry": {"type": "Point", "coordinates": [2.781314, 50.286971]}}, {"type": "Feature", "properties": {"stop_name": "Albert", "type": "Gare accessible", "icone": "Icon1"}, "geometry": {"type": "Point", "coordinates": [2.644527, 50.005434]}}, {"type": "Feature", "properties": {"stop_name": "Corbie", "type": "Gare accessible", "icone": "Icon1"}, "geometry": {"type": "Point", "coordinates": [2.499666, 49.911615999999995]}}, {"type": "Feature", "properties": {"stop_name": "Achiet", "type": "Gare accessible", "icone": "Icon1"}, "geometry": {"type": "Point", "coordinates": [2.780147, 50.131741]}}, {"type": "Feature", "properties": {"stop_name": "Longuerue - Vieux-Manoir", "type": "Gare accessible", "icone": "Icon1"}, "geometry": {"type": "Point", "coordinates": [1.276228, 49.556678000000005]}}, {"type": "Feature", "properties": {"stop_name": "Sommery", "type": "Gare accessible", "icone": "Icon1"}, "geometry": {"type": "Point", "coordinates": [1.435304, 49.629664]}}, {"type": "Feature", "properties": {"stop_name": "Namps - Quevauvillers", "type": "Gare accessible", "icone": "Icon1"}, "geometry": {"type": "Point", "coordinates": [2.105376, 49.8083]}}, {"type": "Feature", "properties": {"stop_name": "Fouilloy", "type": "Gare accessible", "icone": "Icon1"}, "geometry": {"type": "Point", "coordinates": [1.825501, 49.736232]}}]}