{"type": "FeatureCollection", "features": [{"type": "Feature", "properties": {"stop_name": "Ambronay-Priay RD 1075", "type": "Gare s\u00e9lectionn\u00e9e"}, "geometry": {"type": "Point", "coordinates": [5.338143, 46.011590000000005]}}, {"type": "Feature", "properties": {"stop_name": "Amb\u00e9rieu-en-Bugey", "type": "Gare accessible"}, "geometry": {"type": "Point", "coordinates": [5.342402, 45.954014]}}, {"type": "Feature", "properties": {"stop_name": "Pont-d'Ain", "type": "Gare accessible"}, "geometry": {"type": "Point", "coordinates": [5.334332, 46.054009]}}, {"type": "Feature", "properties": {"stop_name": "Saint-Martin-du-Mont Le Farget", "type": "Gare accessible"}, "geometry": {"type": "Point", "coordinates": [5.323927, 46.072798999999996]}}, {"type": "Feature", "properties": {"stop_name": "La Vavrette Tossiat RD1075", "type": "Gare accessible"}, "geometry": {"type": "Point", "coordinates": [5.290295, 46.134615999999994]}}, {"type": "Feature", "properties": {"stop_name": "Bourg-en-Bresse Archives", "type": "Gare accessible"}, "geometry": {"type": "Point", "coordinates": [5.226676, 46.195328]}}, {"type": "Feature", "properties": {"stop_name": "Bourg-en-Bresse Gare Routi\u00e8re", "type": "Gare accessible"}, "geometry": {"type": "Point", "coordinates": [5.215381, 46.199498]}}]}