{"type": "FeatureCollection", "features": [{"type": "Feature", "properties": {"stop_name": "Aulnoye-Aymeries", "type": "Gare s\u00e9lectionn\u00e9e", "icone": "Icon2"}, "geometry": {"type": "Point", "coordinates": [3.84337, 50.19749]}}, {"type": "Feature", "properties": {"stop_name": "Paris Gare du Nord", "type": "Gare accessible", "icone": "Icon1"}, "geometry": {"type": "Point", "coordinates": [2.354851, 48.880136]}}, {"type": "Feature", "properties": {"stop_name": "Compi\u00e8gne", "type": "Gare accessible", "icone": "Icon1"}, "geometry": {"type": "Point", "coordinates": [2.823693, 49.421977000000005]}}, {"type": "Feature", "properties": {"stop_name": "Saint-Quentin", "type": "Gare accessible", "icone": "Icon1"}, "geometry": {"type": "Point", "coordinates": [3.296958, 49.840025]}}, {"type": "Feature", "properties": {"stop_name": "Maubeuge", "type": "Gare accessible", "icone": "Icon1"}, "geometry": {"type": "Point", "coordinates": [3.966368, 50.272801]}}, {"type": "Feature", "properties": {"stop_name": "Creil", "type": "Gare accessible", "icone": "Icon1"}, "geometry": {"type": "Point", "coordinates": [2.469199, 49.2638]}}, {"type": "Feature", "properties": {"stop_name": "Pont-Sainte-Maxence", "type": "Gare accessible", "icone": "Icon1"}, "geometry": {"type": "Point", "coordinates": [2.602893, 49.309736]}}, {"type": "Feature", "properties": {"stop_name": "Noyon", "type": "Gare accessible", "icone": "Icon1"}, "geometry": {"type": "Point", "coordinates": [3.006389, 49.577365]}}, {"type": "Feature", "properties": {"stop_name": "Chauny", "type": "Gare accessible", "icone": "Icon1"}, "geometry": {"type": "Point", "coordinates": [3.22354, 49.61119]}}, {"type": "Feature", "properties": {"stop_name": "Tergnier", "type": "Gare accessible", "icone": "Icon1"}, "geometry": {"type": "Point", "coordinates": [3.297253, 49.659129]}}, {"type": "Feature", "properties": {"stop_name": "Le Cateau", "type": "Gare accessible", "icone": "Icon1"}, "geometry": {"type": "Point", "coordinates": [3.540028, 50.091478]}}, {"type": "Feature", "properties": {"stop_name": "Mons", "type": "Gare accessible", "icone": "Icon1"}, "geometry": {"type": "Point", "coordinates": [3.942, 50.454]}}, {"type": "Feature", "properties": {"stop_name": "Jeumont", "type": "Gare accessible", "icone": "Icon1"}, "geometry": {"type": "Point", "coordinates": [4.08722, 50.296149]}}, {"type": "Feature", "properties": {"stop_name": "Hautmont", "type": "Gare accessible", "icone": "Icon1"}, "geometry": {"type": "Point", "coordinates": [3.915188, 50.253985]}}, {"type": "Feature", "properties": {"stop_name": "Berlaimont", "type": "Gare accessible", "icone": "Icon1"}, "geometry": {"type": "Point", "coordinates": [3.810518, 50.198046000000005]}}, {"type": "Feature", "properties": {"stop_name": "Le Quesnoy", "type": "Gare accessible", "icone": "Icon1"}, "geometry": {"type": "Point", "coordinates": [3.645565, 50.250229]}}, {"type": "Feature", "properties": {"stop_name": "Le Poirier Universit\u00e9", "type": "Gare accessible", "icone": "Icon1"}, "geometry": {"type": "Point", "coordinates": [3.502635, 50.330077]}}, {"type": "Feature", "properties": {"stop_name": "Valenciennes", "type": "Gare accessible", "icone": "Icon1"}, "geometry": {"type": "Point", "coordinates": [3.517124, 50.363186999999996]}}, {"type": "Feature", "properties": {"stop_name": "Recquignies", "type": "Gare accessible", "icone": "Icon1"}, "geometry": {"type": "Point", "coordinates": [4.04388, 50.284203000000005]}}, {"type": "Feature", "properties": {"stop_name": "Les Bons P\u00e8res", "type": "Gare accessible", "icone": "Icon1"}, "geometry": {"type": "Point", "coordinates": [4.010967, 50.279864]}}, {"type": "Feature", "properties": {"stop_name": "Louvroil", "type": "Gare accessible", "icone": "Icon1"}, "geometry": {"type": "Point", "coordinates": [3.953693, 50.268572999999996]}}, {"type": "Feature", "properties": {"stop_name": "Sous le Bois", "type": "Gare accessible", "icone": "Icon1"}, "geometry": {"type": "Point", "coordinates": [3.939623, 50.265584999999994]}}, {"type": "Feature", "properties": {"stop_name": "Hirson", "type": "Gare accessible", "icone": "Icon1"}, "geometry": {"type": "Point", "coordinates": [4.084285, 49.914558]}}, {"type": "Feature", "properties": {"stop_name": "Hirson \u00c9coles", "type": "Gare accessible", "icone": "Icon1"}, "geometry": {"type": "Point", "coordinates": [4.086152, 49.928847999999995]}}, {"type": "Feature", "properties": {"stop_name": "Anor", "type": "Gare accessible", "icone": "Icon1"}, "geometry": {"type": "Point", "coordinates": [4.093314, 49.984998]}}, {"type": "Feature", "properties": {"stop_name": "Fourmies", "type": "Gare accessible", "icone": "Icon1"}, "geometry": {"type": "Point", "coordinates": [4.053655, 50.015406]}}, {"type": "Feature", "properties": {"stop_name": "Sains-du-Nord", "type": "Gare accessible", "icone": "Icon1"}, "geometry": {"type": "Point", "coordinates": [4.001625, 50.088933000000004]}}, {"type": "Feature", "properties": {"stop_name": "Avesnelles", "type": "Gare accessible", "icone": "Icon1"}, "geometry": {"type": "Point", "coordinates": [3.948544, 50.118583]}}, {"type": "Feature", "properties": {"stop_name": "Avesnes", "type": "Gare accessible", "icone": "Icon1"}, "geometry": {"type": "Point", "coordinates": [3.932942, 50.126721999999994]}}, {"type": "Feature", "properties": {"stop_name": "Saint-Hilaire", "type": "Gare accessible", "icone": "Icon1"}, "geometry": {"type": "Point", "coordinates": [3.913514, 50.132106]}}, {"type": "Feature", "properties": {"stop_name": "Dompierre", "type": "Gare accessible", "icone": "Icon1"}, "geometry": {"type": "Point", "coordinates": [3.871144, 50.146144]}}, {"type": "Feature", "properties": {"stop_name": "Leval", "type": "Gare accessible", "icone": "Icon1"}, "geometry": {"type": "Point", "coordinates": [3.836661, 50.184557]}}, {"type": "Feature", "properties": {"stop_name": "Landrecies", "type": "Gare accessible", "icone": "Icon1"}, "geometry": {"type": "Point", "coordinates": [3.68212, 50.128129]}}, {"type": "Feature", "properties": {"stop_name": "Busigny", "type": "Gare accessible", "icone": "Icon1"}, "geometry": {"type": "Point", "coordinates": [3.446301, 50.039485]}}, {"type": "Feature", "properties": {"stop_name": "Ors", "type": "Gare accessible", "icone": "Icon1"}, "geometry": {"type": "Point", "coordinates": [3.626992, 50.103325]}}, {"type": "Feature", "properties": {"stop_name": "Hachette", "type": "Gare accessible", "icone": "Icon1"}, "geometry": {"type": "Point", "coordinates": [3.743127, 50.158207]}}, {"type": "Feature", "properties": {"stop_name": "Bohain", "type": "Gare accessible", "icone": "Icon1"}, "geometry": {"type": "Point", "coordinates": [3.443179, 49.988490999999996]}}, {"type": "Feature", "properties": {"stop_name": "Fresnoy-le-Grand", "type": "Gare accessible", "icone": "Icon1"}, "geometry": {"type": "Point", "coordinates": [3.432629, 49.950179]}}, {"type": "Feature", "properties": {"stop_name": "Saint-Amand-les-Eaux", "type": "Gare accessible", "icone": "Icon1"}, "geometry": {"type": "Point", "coordinates": [3.419371, 50.443342]}}, {"type": "Feature", "properties": {"stop_name": "Orchies", "type": "Gare accessible", "icone": "Icon1"}, "geometry": {"type": "Point", "coordinates": [3.248871, 50.477028000000004]}}, {"type": "Feature", "properties": {"stop_name": "Lille Flandres", "type": "Gare accessible", "icone": "Icon1"}, "geometry": {"type": "Point", "coordinates": [3.06987, 50.636577]}}, {"type": "Feature", "properties": {"stop_name": "Templeuve", "type": "Gare accessible", "icone": "Icon1"}, "geometry": {"type": "Point", "coordinates": [3.175668, 50.528694]}}, {"type": "Feature", "properties": {"stop_name": "Rosult", "type": "Gare accessible", "icone": "Icon1"}, "geometry": {"type": "Point", "coordinates": [3.348995, 50.456425]}}, {"type": "Feature", "properties": {"stop_name": "Landas", "type": "Gare accessible", "icone": "Icon1"}, "geometry": {"type": "Point", "coordinates": [3.290617, 50.468790000000006]}}, {"type": "Feature", "properties": {"stop_name": "Fretin", "type": "Gare accessible", "icone": "Icon1"}, "geometry": {"type": "Point", "coordinates": [3.149396, 50.55996]}}, {"type": "Feature", "properties": {"stop_name": "Lesquin", "type": "Gare accessible", "icone": "Icon1"}, "geometry": {"type": "Point", "coordinates": [3.117714, 50.590685]}}, {"type": "Feature", "properties": {"stop_name": "Charleville-M\u00e9zi\u00e8res", "type": "Gare accessible", "icone": "Icon1"}, "geometry": {"type": "Point", "coordinates": [4.724344, 49.76763]}}, {"type": "Feature", "properties": {"stop_name": "Liart", "type": "Gare accessible", "icone": "Icon1"}, "geometry": {"type": "Point", "coordinates": [4.335514, 49.77006]}}, {"type": "Feature", "properties": {"stop_name": "Laon", "type": "Gare accessible", "icone": "Icon1"}, "geometry": {"type": "Point", "coordinates": [3.62434, 49.570578000000005]}}, {"type": "Feature", "properties": {"stop_name": "Voyenne", "type": "Gare accessible", "icone": "Icon1"}, "geometry": {"type": "Point", "coordinates": [3.720213, 49.726128]}}, {"type": "Feature", "properties": {"stop_name": "Marle sur Serre", "type": "Gare accessible", "icone": "Icon1"}, "geometry": {"type": "Point", "coordinates": [3.769595, 49.747223]}}, {"type": "Feature", "properties": {"stop_name": "Vervins", "type": "Gare accessible", "icone": "Icon1"}, "geometry": {"type": "Point", "coordinates": [3.893631, 49.829924]}}, {"type": "Feature", "properties": {"stop_name": "La Bouteille", "type": "Gare accessible", "icone": "Icon1"}, "geometry": {"type": "Point", "coordinates": [3.981718, 49.859617]}}, {"type": "Feature", "properties": {"stop_name": "Origny-en-Thi\u00e9rache", "type": "Gare accessible", "icone": "Icon1"}, "geometry": {"type": "Point", "coordinates": [4.023971, 49.890781]}}, {"type": "Feature", "properties": {"stop_name": "Barenton-Bugny", "type": "Gare accessible", "icone": "Icon1"}, "geometry": {"type": "Point", "coordinates": [3.655991, 49.630790999999995]}}, {"type": "Feature", "properties": {"stop_name": "Verneuil-sur-Serre", "type": "Gare accessible", "icone": "Icon1"}, "geometry": {"type": "Point", "coordinates": [3.667755, 49.648709000000004]}}, {"type": "Feature", "properties": {"stop_name": "Dercy - Froidmont", "type": "Gare accessible", "icone": "Icon1"}, "geometry": {"type": "Point", "coordinates": [3.692071, 49.702751]}}]}