{"type": "FeatureCollection", "features": [{"type": "Feature", "properties": {"stop_name": "Bar-sur-Aube", "type": "Gare s\u00e9lectionn\u00e9e", "icone": "Icon2"}, "geometry": {"type": "Point", "coordinates": [4.706872, 48.238559]}}, {"type": "Feature", "properties": {"stop_name": "Paris Est", "type": "Gare accessible", "icone": "Icon1"}, "geometry": {"type": "Point", "coordinates": [2.358424, 48.876742]}}, {"type": "Feature", "properties": {"stop_name": "Nogent-sur-Seine", "type": "Gare accessible", "icone": "Icon1"}, "geometry": {"type": "Point", "coordinates": [3.493773, 48.497855]}}, {"type": "Feature", "properties": {"stop_name": "Romilly-sur-Seine", "type": "Gare accessible", "icone": "Icon1"}, "geometry": {"type": "Point", "coordinates": [3.728887, 48.514433000000004]}}, {"type": "Feature", "properties": {"stop_name": "Troyes", "type": "Gare accessible", "icone": "Icon1"}, "geometry": {"type": "Point", "coordinates": [4.065281, 48.296069]}}, {"type": "Feature", "properties": {"stop_name": "Vendeuvre", "type": "Gare accessible", "icone": "Icon1"}, "geometry": {"type": "Point", "coordinates": [4.467214, 48.240069]}}, {"type": "Feature", "properties": {"stop_name": "Chaumont", "type": "Gare accessible", "icone": "Icon1"}, "geometry": {"type": "Point", "coordinates": [5.1346, 48.109759999999994]}}, {"type": "Feature", "properties": {"stop_name": "Langres", "type": "Gare accessible", "icone": "Icon1"}, "geometry": {"type": "Point", "coordinates": [5.344406, 47.876946999999994]}}, {"type": "Feature", "properties": {"stop_name": "Culmont - Chalindrey", "type": "Gare accessible", "icone": "Icon1"}, "geometry": {"type": "Point", "coordinates": [5.443219, 47.810202000000004]}}, {"type": "Feature", "properties": {"stop_name": "Longueville", "type": "Gare accessible", "icone": "Icon1"}, "geometry": {"type": "Point", "coordinates": [3.249822, 48.513703]}}, {"type": "Feature", "properties": {"stop_name": "Vesoul", "type": "Gare accessible", "icone": "Icon1"}, "geometry": {"type": "Point", "coordinates": [6.151821, 47.61781]}}, {"type": "Feature", "properties": {"stop_name": "Belfort", "type": "Gare accessible", "icone": "Icon1"}, "geometry": {"type": "Point", "coordinates": [6.854053, 47.633278000000004]}}, {"type": "Feature", "properties": {"stop_name": "Lure", "type": "Gare accessible", "icone": "Icon1"}, "geometry": {"type": "Point", "coordinates": [6.492563, 47.683274]}}, {"type": "Feature", "properties": {"stop_name": "Mulhouse", "type": "Gare accessible", "icone": "Icon1"}, "geometry": {"type": "Point", "coordinates": [7.34316, 47.742691]}}, {"type": "Feature", "properties": {"stop_name": "Altkirch", "type": "Gare accessible", "icone": "Icon1"}, "geometry": {"type": "Point", "coordinates": [7.23905, 47.627016999999995]}}, {"type": "Feature", "properties": {"stop_name": "Is-sur-Tille", "type": "Gare accessible", "icone": "Icon1"}, "geometry": {"type": "Point", "coordinates": [5.129481, 47.520454]}}, {"type": "Feature", "properties": {"stop_name": "Dijon Porte Neuve", "type": "Gare accessible", "icone": "Icon1"}, "geometry": {"type": "Point", "coordinates": [5.054905, 47.3228]}}, {"type": "Feature", "properties": {"stop_name": "Dijon", "type": "Gare accessible", "icone": "Icon1"}, "geometry": {"type": "Point", "coordinates": [5.027256, 47.323411]}}]}