{"type": "FeatureCollection", "features": [{"type": "Feature", "properties": {"stop_name": "Bedous", "type": "Gare s\u00e9lectionn\u00e9e", "icone": "Icon2"}, "geometry": {"type": "Point", "coordinates": [-0.603514, 42.995564]}}, {"type": "Feature", "properties": {"stop_name": "Pau", "type": "Gare accessible", "icone": "Icon1"}, "geometry": {"type": "Point", "coordinates": [-0.369675, 43.291711]}}, {"type": "Feature", "properties": {"stop_name": "Croix du Prince", "type": "Gare accessible", "icone": "Icon1"}, "geometry": {"type": "Point", "coordinates": [-0.379141, 43.285664000000004]}}, {"type": "Feature", "properties": {"stop_name": "Gan", "type": "Gare accessible", "icone": "Icon1"}, "geometry": {"type": "Point", "coordinates": [-0.391428, 43.234315]}}, {"type": "Feature", "properties": {"stop_name": "Buzy en B\u00e9arn", "type": "Gare accessible", "icone": "Icon1"}, "geometry": {"type": "Point", "coordinates": [-0.455775, 43.148078000000005]}}, {"type": "Feature", "properties": {"stop_name": "Ogeu-les-Bains", "type": "Gare accessible", "icone": "Icon1"}, "geometry": {"type": "Point", "coordinates": [-0.50778, 43.153657]}}, {"type": "Feature", "properties": {"stop_name": "Oloron-Sainte-Marie", "type": "Gare accessible", "icone": "Icon1"}, "geometry": {"type": "Point", "coordinates": [-0.612118, 43.194709]}}, {"type": "Feature", "properties": {"stop_name": "Bidos", "type": "Gare accessible", "icone": "Icon1"}, "geometry": {"type": "Point", "coordinates": [-0.6069760000000001, 43.178929]}}, {"type": "Feature", "properties": {"stop_name": "Lurbe-Saint-Christau", "type": "Gare accessible", "icone": "Icon1"}, "geometry": {"type": "Point", "coordinates": [-0.604162, 43.121316]}}, {"type": "Feature", "properties": {"stop_name": "Sarrance", "type": "Gare accessible", "icone": "Icon1"}, "geometry": {"type": "Point", "coordinates": [-0.5997439999999999, 43.049711]}}]}