{"type": "FeatureCollection", "features": [{"type": "Feature", "properties": {"stop_name": "Bourgtheroulde - Thuit-H\u00e9bert", "type": "Gare s\u00e9lectionn\u00e9e", "icone": "Icon2"}, "geometry": {"type": "Point", "coordinates": [0.83832, 49.317438]}}, {"type": "Feature", "properties": {"stop_name": "Caen", "type": "Gare accessible", "icone": "Icon1"}, "geometry": {"type": "Point", "coordinates": [-0.347613, 49.176353999999996]}}, {"type": "Feature", "properties": {"stop_name": "M\u00e9zidon - Canon", "type": "Gare accessible", "icone": "Icon1"}, "geometry": {"type": "Point", "coordinates": [-0.074914, 49.070914]}}, {"type": "Feature", "properties": {"stop_name": "Lisieux", "type": "Gare accessible", "icone": "Icon1"}, "geometry": {"type": "Point", "coordinates": [0.231143, 49.138298999999996]}}, {"type": "Feature", "properties": {"stop_name": "Bernay", "type": "Gare accessible", "icone": "Icon1"}, "geometry": {"type": "Point", "coordinates": [0.595688, 49.087115999999995]}}, {"type": "Feature", "properties": {"stop_name": "Serquigny", "type": "Gare accessible", "icone": "Icon1"}, "geometry": {"type": "Point", "coordinates": [0.719289, 49.107753]}}, {"type": "Feature", "properties": {"stop_name": "Brionne", "type": "Gare accessible", "icone": "Icon1"}, "geometry": {"type": "Point", "coordinates": [0.711783, 49.196422]}}, {"type": "Feature", "properties": {"stop_name": "Elbeuf - Saint-Aubin", "type": "Gare accessible", "icone": "Icon1"}, "geometry": {"type": "Point", "coordinates": [1.00993, 49.302766]}}, {"type": "Feature", "properties": {"stop_name": "Rouen Rive Droite", "type": "Gare accessible", "icone": "Icon1"}, "geometry": {"type": "Point", "coordinates": [1.094103, 49.448663]}}]}