{"type": "FeatureCollection", "features": [{"type": "Feature", "properties": {"stop_name": "Bourges", "type": "Gare s\u00e9lectionn\u00e9e", "icone": "Icon2"}, "geometry": {"type": "Point", "coordinates": [2.394236, 47.094128999999995]}}, {"type": "Feature", "properties": {"stop_name": "Tours", "type": "Gare accessible", "icone": "Icon1"}, "geometry": {"type": "Point", "coordinates": [0.692831, 47.389866]}}, {"type": "Feature", "properties": {"stop_name": "Saint-Pierre-des-Corps", "type": "Gare accessible", "icone": "Icon1"}, "geometry": {"type": "Point", "coordinates": [0.723539, 47.386140000000005]}}, {"type": "Feature", "properties": {"stop_name": "Chenonceaux", "type": "Gare accessible", "icone": "Icon1"}, "geometry": {"type": "Point", "coordinates": [1.065446, 47.330631]}}, {"type": "Feature", "properties": {"stop_name": "Montrichard", "type": "Gare accessible", "icone": "Icon1"}, "geometry": {"type": "Point", "coordinates": [1.171782, 47.343571999999995]}}, {"type": "Feature", "properties": {"stop_name": "Saint-Aignan - Noyers", "type": "Gare accessible", "icone": "Icon1"}, "geometry": {"type": "Point", "coordinates": [1.383626, 47.286724]}}, {"type": "Feature", "properties": {"stop_name": "Selles-sur-Cher", "type": "Gare accessible", "icone": "Icon1"}, "geometry": {"type": "Point", "coordinates": [1.546045, 47.281511]}}, {"type": "Feature", "properties": {"stop_name": "Gi\u00e8vres", "type": "Gare accessible", "icone": "Icon1"}, "geometry": {"type": "Point", "coordinates": [1.667814, 47.27878]}}, {"type": "Feature", "properties": {"stop_name": "Villefranche-sur-Cher", "type": "Gare accessible", "icone": "Icon1"}, "geometry": {"type": "Point", "coordinates": [1.768056, 47.294779999999996]}}, {"type": "Feature", "properties": {"stop_name": "Vierzon", "type": "Gare accessible", "icone": "Icon1"}, "geometry": {"type": "Point", "coordinates": [2.059869, 47.226473999999996]}}, {"type": "Feature", "properties": {"stop_name": "Nevers", "type": "Gare accessible", "icone": "Icon1"}, "geometry": {"type": "Point", "coordinates": [3.150743, 46.987282]}}, {"type": "Feature", "properties": {"stop_name": "Moulins sur Allier", "type": "Gare accessible", "icone": "Icon1"}, "geometry": {"type": "Point", "coordinates": [3.338782, 46.561394]}}, {"type": "Feature", "properties": {"stop_name": "Dompierre Sept Fons", "type": "Gare accessible", "icone": "Icon1"}, "geometry": {"type": "Point", "coordinates": [3.674911, 46.526302]}}, {"type": "Feature", "properties": {"stop_name": "Gilly-sur-Loire", "type": "Gare accessible", "icone": "Icon1"}, "geometry": {"type": "Point", "coordinates": [3.782111, 46.536992]}}, {"type": "Feature", "properties": {"stop_name": "Digoin", "type": "Gare accessible", "icone": "Icon1"}, "geometry": {"type": "Point", "coordinates": [3.987678, 46.485191]}}, {"type": "Feature", "properties": {"stop_name": "Paray-le-Monial", "type": "Gare accessible", "icone": "Icon1"}, "geometry": {"type": "Point", "coordinates": [4.113666, 46.447294]}}, {"type": "Feature", "properties": {"stop_name": "La Clayette - Baudemont", "type": "Gare accessible", "icone": "Icon1"}, "geometry": {"type": "Point", "coordinates": [4.298436, 46.288148]}}, {"type": "Feature", "properties": {"stop_name": "Chauffailles", "type": "Gare accessible", "icone": "Icon1"}, "geometry": {"type": "Point", "coordinates": [4.345393, 46.207439]}}, {"type": "Feature", "properties": {"stop_name": "Lamure-sur-Azergues", "type": "Gare accessible", "icone": "Icon1"}, "geometry": {"type": "Point", "coordinates": [4.492121, 46.06111]}}, {"type": "Feature", "properties": {"stop_name": "Bois-d'Oingt - L\u00e9gny", "type": "Gare accessible", "icone": "Icon1"}, "geometry": {"type": "Point", "coordinates": [4.57513, 45.906545]}}, {"type": "Feature", "properties": {"stop_name": "Lozanne", "type": "Gare accessible", "icone": "Icon1"}, "geometry": {"type": "Point", "coordinates": [4.681474, 45.854174]}}, {"type": "Feature", "properties": {"stop_name": "Lyon Part Dieu", "type": "Gare accessible", "icone": "Icon1"}, "geometry": {"type": "Point", "coordinates": [4.859409, 45.760596]}}, {"type": "Feature", "properties": {"stop_name": "Lyon Perrache", "type": "Gare accessible", "icone": "Icon1"}, "geometry": {"type": "Point", "coordinates": [4.825777, 45.748508]}}, {"type": "Feature", "properties": {"stop_name": "Bl\u00e9r\u00e9 - la Croix", "type": "Gare accessible", "icone": "Icon1"}, "geometry": {"type": "Point", "coordinates": [0.987745, 47.337740999999994]}}, {"type": "Feature", "properties": {"stop_name": "Paris Austerlitz", "type": "Gare accessible", "icone": "Icon1"}, "geometry": {"type": "Point", "coordinates": [2.364891, 48.842285]}}, {"type": "Feature", "properties": {"stop_name": "Les Aubrais", "type": "Gare accessible", "icone": "Icon1"}, "geometry": {"type": "Point", "coordinates": [1.906629, 47.926801]}}, {"type": "Feature", "properties": {"stop_name": "Salbris", "type": "Gare accessible", "icone": "Icon1"}, "geometry": {"type": "Point", "coordinates": [2.047751, 47.425186]}}, {"type": "Feature", "properties": {"stop_name": "Paris Bercy Bourg. Pays d'Auv.", "type": "Gare accessible", "icone": "Icon1"}, "geometry": {"type": "Point", "coordinates": [2.382791, 48.839215]}}, {"type": "Feature", "properties": {"stop_name": "Mehun-sur-Y\u00e8vre", "type": "Gare accessible", "icone": "Icon1"}, "geometry": {"type": "Point", "coordinates": [2.207134, 47.139441]}}, {"type": "Feature", "properties": {"stop_name": "Fo\u00ebcy", "type": "Gare accessible", "icone": "Icon1"}, "geometry": {"type": "Point", "coordinates": [2.162506, 47.175691]}}, {"type": "Feature", "properties": {"stop_name": "Saint-Germain-du-Puy", "type": "Gare accessible", "icone": "Icon1"}, "geometry": {"type": "Point", "coordinates": [2.484833, 47.096554]}}, {"type": "Feature", "properties": {"stop_name": "Avord", "type": "Gare accessible", "icone": "Icon1"}, "geometry": {"type": "Point", "coordinates": [2.652335, 47.034874]}}, {"type": "Feature", "properties": {"stop_name": "Bengy", "type": "Gare accessible", "icone": "Icon1"}, "geometry": {"type": "Point", "coordinates": [2.749149, 47.000438]}}, {"type": "Feature", "properties": {"stop_name": "N\u00e9rondes", "type": "Gare accessible", "icone": "Icon1"}, "geometry": {"type": "Point", "coordinates": [2.82217, 46.99969]}}, {"type": "Feature", "properties": {"stop_name": "La Guerche-sur-l'Aubois", "type": "Gare accessible", "icone": "Icon1"}, "geometry": {"type": "Point", "coordinates": [2.948536, 46.947815999999996]}}, {"type": "Feature", "properties": {"stop_name": "V\u00e9retz - Montlouis", "type": "Gare accessible", "icone": "Icon1"}, "geometry": {"type": "Point", "coordinates": [0.819672, 47.371386]}}, {"type": "Feature", "properties": {"stop_name": "Azay-sur-Cher", "type": "Gare accessible", "icone": "Icon1"}, "geometry": {"type": "Point", "coordinates": [0.859876, 47.365235]}}, {"type": "Feature", "properties": {"stop_name": "Saint-Martin-le-Beau", "type": "Gare accessible", "icone": "Icon1"}, "geometry": {"type": "Point", "coordinates": [0.906004, 47.355191]}}, {"type": "Feature", "properties": {"stop_name": "Th\u00e9s\u00e9e", "type": "Gare accessible", "icone": "Icon1"}, "geometry": {"type": "Point", "coordinates": [1.312225, 47.322305]}}, {"type": "Feature", "properties": {"stop_name": "Chissay-en-Touraine", "type": "Gare accessible", "icone": "Icon1"}, "geometry": {"type": "Point", "coordinates": [1.133761, 47.334852000000005]}}, {"type": "Feature", "properties": {"stop_name": "Mennetou-sur-Cher", "type": "Gare accessible", "icone": "Icon1"}, "geometry": {"type": "Point", "coordinates": [1.876461, 47.268938]}}, {"type": "Feature", "properties": {"stop_name": "Saint-Amand-Montrond - Orval", "type": "Gare accessible", "icone": "Icon1"}, "geometry": {"type": "Point", "coordinates": [2.485989, 46.726508]}}, {"type": "Feature", "properties": {"stop_name": "Bigny", "type": "Gare accessible", "icone": "Icon1"}, "geometry": {"type": "Point", "coordinates": [2.369954, 46.801552]}}, {"type": "Feature", "properties": {"stop_name": "Ch\u00e2teauneuf-sur-Cher", "type": "Gare accessible", "icone": "Icon1"}, "geometry": {"type": "Point", "coordinates": [2.310173, 46.856682]}}, {"type": "Feature", "properties": {"stop_name": "Lunery", "type": "Gare accessible", "icone": "Icon1"}, "geometry": {"type": "Point", "coordinates": [2.27509, 46.935164]}}, {"type": "Feature", "properties": {"stop_name": "Saint-Florent-sur-Cher", "type": "Gare accessible", "icone": "Icon1"}, "geometry": {"type": "Point", "coordinates": [2.252111, 46.992111]}}, {"type": "Feature", "properties": {"stop_name": "Ur\u00e7ay", "type": "Gare accessible", "icone": "Icon1"}, "geometry": {"type": "Point", "coordinates": [2.586642, 46.629329999999996]}}, {"type": "Feature", "properties": {"stop_name": "Vallon-en-Sully", "type": "Gare accessible", "icone": "Icon1"}, "geometry": {"type": "Point", "coordinates": [2.610766, 46.536481]}}, {"type": "Feature", "properties": {"stop_name": "Magnette", "type": "Gare accessible", "icone": "Icon1"}, "geometry": {"type": "Point", "coordinates": [2.602987, 46.464146]}}, {"type": "Feature", "properties": {"stop_name": "Les Trillers", "type": "Gare accessible", "icone": "Icon1"}, "geometry": {"type": "Point", "coordinates": [2.599956, 46.414629999999995]}}, {"type": "Feature", "properties": {"stop_name": "La Ville Gozet", "type": "Gare accessible", "icone": "Icon1"}, "geometry": {"type": "Point", "coordinates": [2.59169, 46.350055]}}, {"type": "Feature", "properties": {"stop_name": "Montlu\u00e7on", "type": "Gare accessible", "icone": "Icon1"}, "geometry": {"type": "Point", "coordinates": [2.596159, 46.338101]}}, {"type": "Feature", "properties": {"stop_name": "Commentry", "type": "Gare accessible", "icone": "Icon1"}, "geometry": {"type": "Point", "coordinates": [2.739938, 46.295105]}}, {"type": "Feature", "properties": {"stop_name": "Montlu\u00e7on Rimard", "type": "Gare accessible", "icone": "Icon1"}, "geometry": {"type": "Point", "coordinates": [2.610771, 46.335359999999994]}}, {"type": "Feature", "properties": {"stop_name": "Lamotte-Beuvron", "type": "Gare accessible", "icone": "Icon1"}, "geometry": {"type": "Point", "coordinates": [2.022077, 47.59411]}}, {"type": "Feature", "properties": {"stop_name": "La Fert\u00e9-Saint-Aubin", "type": "Gare accessible", "icone": "Icon1"}, "geometry": {"type": "Point", "coordinates": [1.932344, 47.721008000000005]}}, {"type": "Feature", "properties": {"stop_name": "Saint-Cyr-en-Val", "type": "Gare accessible", "icone": "Icon1"}, "geometry": {"type": "Point", "coordinates": [1.947581, 47.819215]}}, {"type": "Feature", "properties": {"stop_name": "Orl\u00e9ans", "type": "Gare accessible", "icone": "Icon1"}, "geometry": {"type": "Point", "coordinates": [1.904242, 47.907891]}}, {"type": "Feature", "properties": {"stop_name": "Nouan-le-Fuzelier", "type": "Gare accessible", "icone": "Icon1"}, "geometry": {"type": "Point", "coordinates": [2.033227, 47.534054]}}, {"type": "Feature", "properties": {"stop_name": "Theillay", "type": "Gare accessible", "icone": "Icon1"}, "geometry": {"type": "Point", "coordinates": [2.044474, 47.314519]}}, {"type": "Feature", "properties": {"stop_name": "Vierzon Forges", "type": "Gare accessible", "icone": "Icon1"}, "geometry": {"type": "Point", "coordinates": [2.100416, 47.210525]}}, {"type": "Feature", "properties": {"stop_name": "Marmagne", "type": "Gare accessible", "icone": "Icon1"}, "geometry": {"type": "Point", "coordinates": [2.282611, 47.100074]}}]}