{"type": "FeatureCollection", "features": [{"type": "Feature", "properties": {"stop_name": "Ch\u00e2telaillon", "type": "Gare s\u00e9lectionn\u00e9e", "icone": "Icon2"}, "geometry": {"type": "Point", "coordinates": [-1.091118, 46.078282]}}, {"type": "Feature", "properties": {"stop_name": "Rochefort", "type": "Gare accessible", "icone": "Icon1"}, "geometry": {"type": "Point", "coordinates": [-0.963556, 45.947189]}}, {"type": "Feature", "properties": {"stop_name": "Saint-Laurent-de-la-Pr\u00e9e - Fouras", "type": "Gare accessible", "icone": "Icon1"}, "geometry": {"type": "Point", "coordinates": [-1.026912, 45.992563]}}, {"type": "Feature", "properties": {"stop_name": "Angoulins sur Mer", "type": "Gare accessible", "icone": "Icon1"}, "geometry": {"type": "Point", "coordinates": [-1.115622, 46.107785]}}, {"type": "Feature", "properties": {"stop_name": "Aytr\u00e9 Plage", "type": "Gare accessible", "icone": "Icon1"}, "geometry": {"type": "Point", "coordinates": [-1.128293, 46.12761]}}, {"type": "Feature", "properties": {"stop_name": "La Rochelle", "type": "Gare accessible", "icone": "Icon1"}, "geometry": {"type": "Point", "coordinates": [-1.145853, 46.152705]}}, {"type": "Feature", "properties": {"stop_name": "La Rochelle Porte Dauphine", "type": "Gare accessible", "icone": "Icon1"}, "geometry": {"type": "Point", "coordinates": [-1.151875, 46.167615999999995]}}, {"type": "Feature", "properties": {"stop_name": "Angoul\u00eame", "type": "Gare accessible", "icone": "Icon1"}, "geometry": {"type": "Point", "coordinates": [0.164608, 45.653572]}}, {"type": "Feature", "properties": {"stop_name": "Ch\u00e2teauneuf-sur-Charente", "type": "Gare accessible", "icone": "Icon1"}, "geometry": {"type": "Point", "coordinates": [-0.050217000000000005, 45.599779999999996]}}, {"type": "Feature", "properties": {"stop_name": "Jarnac", "type": "Gare accessible", "icone": "Icon1"}, "geometry": {"type": "Point", "coordinates": [-0.17736, 45.671147]}}, {"type": "Feature", "properties": {"stop_name": "Cognac", "type": "Gare accessible", "icone": "Icon1"}, "geometry": {"type": "Point", "coordinates": [-0.32603699999999997, 45.684587]}}, {"type": "Feature", "properties": {"stop_name": "Beillant", "type": "Gare accessible", "icone": "Icon1"}, "geometry": {"type": "Point", "coordinates": [-0.526508, 45.7008]}}, {"type": "Feature", "properties": {"stop_name": "Saintes", "type": "Gare accessible", "icone": "Icon1"}, "geometry": {"type": "Point", "coordinates": [-0.6179, 45.748740000000005]}}, {"type": "Feature", "properties": {"stop_name": "Saint-Savinien", "type": "Gare accessible", "icone": "Icon1"}, "geometry": {"type": "Point", "coordinates": [-0.677878, 45.876038]}}, {"type": "Feature", "properties": {"stop_name": "Bords", "type": "Gare accessible", "icone": "Icon1"}, "geometry": {"type": "Point", "coordinates": [-0.798115, 45.894237]}}, {"type": "Feature", "properties": {"stop_name": "Tonnay-Charente", "type": "Gare accessible", "icone": "Icon1"}, "geometry": {"type": "Point", "coordinates": [-0.897789, 45.943401]}}, {"type": "Feature", "properties": {"stop_name": "Bordeaux Saint-Jean", "type": "Gare accessible", "icone": "Icon1"}, "geometry": {"type": "Point", "coordinates": [-0.556697, 44.825873]}}, {"type": "Feature", "properties": {"stop_name": "Cenon", "type": "Gare accessible", "icone": "Icon1"}, "geometry": {"type": "Point", "coordinates": [-0.5336489999999999, 44.856347]}}, {"type": "Feature", "properties": {"stop_name": "Saint-Andr\u00e9-de-Cubzac", "type": "Gare accessible", "icone": "Icon1"}, "geometry": {"type": "Point", "coordinates": [-0.44048000000000004, 44.99122]}}, {"type": "Feature", "properties": {"stop_name": "Saint-Mariens - Saint-Yzan", "type": "Gare accessible", "icone": "Icon1"}, "geometry": {"type": "Point", "coordinates": [-0.391834, 45.139057]}}, {"type": "Feature", "properties": {"stop_name": "Montendre", "type": "Gare accessible", "icone": "Icon1"}, "geometry": {"type": "Point", "coordinates": [-0.396233, 45.280514000000004]}}, {"type": "Feature", "properties": {"stop_name": "Jonzac", "type": "Gare accessible", "icone": "Icon1"}, "geometry": {"type": "Point", "coordinates": [-0.44164, 45.438746]}}, {"type": "Feature", "properties": {"stop_name": "Pons", "type": "Gare accessible", "icone": "Icon1"}, "geometry": {"type": "Point", "coordinates": [-0.539021, 45.578213]}}]}