{"type": "FeatureCollection", "features": [{"type": "Feature", "properties": {"stop_name": "Dammartin - Juilly - Saint-Mard", "type": "Gare s\u00e9lectionn\u00e9e", "icone": "Icon2"}, "geometry": {"type": "Point", "coordinates": [2.69887, 49.03219]}}, {"type": "Feature", "properties": {"stop_name": "Paris Gare du Nord", "type": "Gare accessible", "icone": "Icon1"}, "geometry": {"type": "Point", "coordinates": [2.354851, 48.880136]}}, {"type": "Feature", "properties": {"stop_name": "Cr\u00e9py-en-Valois", "type": "Gare accessible", "icone": "Icon1"}, "geometry": {"type": "Point", "coordinates": [2.886494, 49.231252000000005]}}, {"type": "Feature", "properties": {"stop_name": "Villers-Cotter\u00eats", "type": "Gare accessible", "icone": "Icon1"}, "geometry": {"type": "Point", "coordinates": [3.093604, 49.250228]}}, {"type": "Feature", "properties": {"stop_name": "Soissons", "type": "Gare accessible", "icone": "Icon1"}, "geometry": {"type": "Point", "coordinates": [3.33809, 49.369226]}}, {"type": "Feature", "properties": {"stop_name": "Anizy - Pinon", "type": "Gare accessible", "icone": "Icon1"}, "geometry": {"type": "Point", "coordinates": [3.448575, 49.49615]}}, {"type": "Feature", "properties": {"stop_name": "Laon", "type": "Gare accessible", "icone": "Icon1"}, "geometry": {"type": "Point", "coordinates": [3.62434, 49.570578000000005]}}, {"type": "Feature", "properties": {"stop_name": "Longpont", "type": "Gare accessible", "icone": "Icon1"}, "geometry": {"type": "Point", "coordinates": [3.230265, 49.272602]}}, {"type": "Feature", "properties": {"stop_name": "Le Plessis-Belleville", "type": "Gare accessible", "icone": "Icon1"}, "geometry": {"type": "Point", "coordinates": [2.744855, 49.095912]}}, {"type": "Feature", "properties": {"stop_name": "Nanteuil-le-Haudouin", "type": "Gare accessible", "icone": "Icon1"}, "geometry": {"type": "Point", "coordinates": [2.794502, 49.142672999999995]}}]}