{"type": "FeatureCollection", "features": [{"type": "Feature", "properties": {"stop_name": "Ettendorf", "type": "Gare s\u00e9lectionn\u00e9e"}, "geometry": {"type": "Point", "coordinates": [7.585288, 48.808186]}}, {"type": "Feature", "properties": {"stop_name": "Buswiller-Eglise", "type": "Gare accessible"}, "geometry": {"type": "Point", "coordinates": [7.559656, 48.819703999999994]}}, {"type": "Feature", "properties": {"stop_name": "Ettendorf  Rue du Pont", "type": "Gare accessible"}, "geometry": {"type": "Point", "coordinates": [7.58117, 48.812236]}}, {"type": "Feature", "properties": {"stop_name": "Alteckendorf Altdorf", "type": "Gare accessible"}, "geometry": {"type": "Point", "coordinates": [7.589267, 48.794562]}}, {"type": "Feature", "properties": {"stop_name": "Alteckendorf Mairie", "type": "Gare accessible"}, "geometry": {"type": "Point", "coordinates": [7.594688, 48.792818]}}, {"type": "Feature", "properties": {"stop_name": "Alteckendorf Eckendorf", "type": "Gare accessible"}, "geometry": {"type": "Point", "coordinates": [7.601602, 48.789784999999995]}}, {"type": "Feature", "properties": {"stop_name": "Minversheim Rue Principale", "type": "Gare accessible"}, "geometry": {"type": "Point", "coordinates": [7.620869, 48.784366]}}, {"type": "Feature", "properties": {"stop_name": "Mommenheim", "type": "Gare accessible"}, "geometry": {"type": "Point", "coordinates": [7.642303, 48.755951]}}, {"type": "Feature", "properties": {"stop_name": "Ettendorf Place de l'\u00e9cole", "type": "Gare accessible"}, "geometry": {"type": "Point", "coordinates": [7.583792, 48.813093]}}, {"type": "Feature", "properties": {"stop_name": "Sarreguemines", "type": "Gare accessible"}, "geometry": {"type": "Point", "coordinates": [7.068576, 49.10738]}}, {"type": "Feature", "properties": {"stop_name": "Oermingen", "type": "Gare accessible"}, "geometry": {"type": "Point", "coordinates": [7.131732, 49.000372]}}, {"type": "Feature", "properties": {"stop_name": "Diemeringen", "type": "Gare accessible"}, "geometry": {"type": "Point", "coordinates": [7.185252, 48.940533]}}, {"type": "Feature", "properties": {"stop_name": "Adamswiller Mairie", "type": "Gare accessible"}, "geometry": {"type": "Point", "coordinates": [7.201179, 48.903835]}}, {"type": "Feature", "properties": {"stop_name": "Adamswiller Lotissement la For\u00eat", "type": "Gare accessible"}, "geometry": {"type": "Point", "coordinates": [7.208238, 48.905635]}}, {"type": "Feature", "properties": {"stop_name": "Tieffenbach - Struth", "type": "Gare accessible"}, "geometry": {"type": "Point", "coordinates": [7.255418, 48.90636]}}, {"type": "Feature", "properties": {"stop_name": "Frohmuhl Lavoir", "type": "Gare accessible"}, "geometry": {"type": "Point", "coordinates": [7.280985, 48.907795]}}, {"type": "Feature", "properties": {"stop_name": "Col de Puberg", "type": "Gare accessible"}, "geometry": {"type": "Point", "coordinates": [7.318055, 48.916897999999996]}}, {"type": "Feature", "properties": {"stop_name": "Wingen-sur-Moder", "type": "Gare accessible"}, "geometry": {"type": "Point", "coordinates": [7.380538, 48.920092]}}, {"type": "Feature", "properties": {"stop_name": "Wimmenau D.919 - Rue de la Gare", "type": "Gare accessible"}, "geometry": {"type": "Point", "coordinates": [7.420315, 48.910025]}}, {"type": "Feature", "properties": {"stop_name": "Ingwiller", "type": "Gare accessible"}, "geometry": {"type": "Point", "coordinates": [7.477162, 48.872407]}}, {"type": "Feature", "properties": {"stop_name": "Menchhoffen Abri", "type": "Gare accessible"}, "geometry": {"type": "Point", "coordinates": [7.496546, 48.858841999999996]}}, {"type": "Feature", "properties": {"stop_name": "Obermodern", "type": "Gare accessible"}, "geometry": {"type": "Point", "coordinates": [7.547135, 48.842587]}}, {"type": "Feature", "properties": {"stop_name": "Strasbourg", "type": "Gare accessible"}, "geometry": {"type": "Point", "coordinates": [7.734793, 48.584532]}}]}