{"type": "FeatureCollection", "features": [{"type": "Feature", "properties": {"stop_name": "Ettendorf Place de l'\u00e9cole", "type": "Gare s\u00e9lectionn\u00e9e"}, "geometry": {"type": "Point", "coordinates": [7.583792, 48.813093]}}, {"type": "Feature", "properties": {"stop_name": "Mommenheim", "type": "Gare accessible"}, "geometry": {"type": "Point", "coordinates": [7.642303, 48.755951]}}, {"type": "Feature", "properties": {"stop_name": "Minversheim Rue Principale", "type": "Gare accessible"}, "geometry": {"type": "Point", "coordinates": [7.620869, 48.784366]}}, {"type": "Feature", "properties": {"stop_name": "Alteckendorf Eckendorf", "type": "Gare accessible"}, "geometry": {"type": "Point", "coordinates": [7.601602, 48.789784999999995]}}, {"type": "Feature", "properties": {"stop_name": "Alteckendorf Mairie", "type": "Gare accessible"}, "geometry": {"type": "Point", "coordinates": [7.594688, 48.792818]}}, {"type": "Feature", "properties": {"stop_name": "Alteckendorf Altdorf", "type": "Gare accessible"}, "geometry": {"type": "Point", "coordinates": [7.589267, 48.794562]}}, {"type": "Feature", "properties": {"stop_name": "Ettendorf", "type": "Gare accessible"}, "geometry": {"type": "Point", "coordinates": [7.585288, 48.808186]}}, {"type": "Feature", "properties": {"stop_name": "Ettendorf  Rue du Pont", "type": "Gare accessible"}, "geometry": {"type": "Point", "coordinates": [7.58117, 48.812236]}}]}