{"type": "FeatureCollection", "features": [{"type": "Feature", "properties": {"stop_name": "Farbus", "type": "Gare s\u00e9lectionn\u00e9e", "icone": "Icon2"}, "geometry": {"type": "Point", "coordinates": [2.830747, 50.357477]}}, {"type": "Feature", "properties": {"stop_name": "Hazebrouck", "type": "Gare accessible", "icone": "Icon1"}, "geometry": {"type": "Point", "coordinates": [2.541463, 50.724924]}}, {"type": "Feature", "properties": {"stop_name": "Steenbecque", "type": "Gare accessible", "icone": "Icon1"}, "geometry": {"type": "Point", "coordinates": [2.510665, 50.681293]}}, {"type": "Feature", "properties": {"stop_name": "Thiennes", "type": "Gare accessible", "icone": "Icon1"}, "geometry": {"type": "Point", "coordinates": [2.472922, 50.652356]}}, {"type": "Feature", "properties": {"stop_name": "Isbergues", "type": "Gare accessible", "icone": "Icon1"}, "geometry": {"type": "Point", "coordinates": [2.462783, 50.614032]}}, {"type": "Feature", "properties": {"stop_name": "Ham-en-Artois", "type": "Gare accessible", "icone": "Icon1"}, "geometry": {"type": "Point", "coordinates": [2.465798, 50.590096]}}, {"type": "Feature", "properties": {"stop_name": "Lillers", "type": "Gare accessible", "icone": "Icon1"}, "geometry": {"type": "Point", "coordinates": [2.478986, 50.561645]}}, {"type": "Feature", "properties": {"stop_name": "Chocques", "type": "Gare accessible", "icone": "Icon1"}, "geometry": {"type": "Point", "coordinates": [2.564897, 50.538245]}}, {"type": "Feature", "properties": {"stop_name": "Fouquereuil", "type": "Gare accessible", "icone": "Icon1"}, "geometry": {"type": "Point", "coordinates": [2.608142, 50.52539]}}, {"type": "Feature", "properties": {"stop_name": "B\u00e9thune", "type": "Gare accessible", "icone": "Icon1"}, "geometry": {"type": "Point", "coordinates": [2.640509, 50.521454]}}, {"type": "Feature", "properties": {"stop_name": "Noeux", "type": "Gare accessible", "icone": "Icon1"}, "geometry": {"type": "Point", "coordinates": [2.67393, 50.48297]}}, {"type": "Feature", "properties": {"stop_name": "Mazingarbe", "type": "Gare accessible", "icone": "Icon1"}, "geometry": {"type": "Point", "coordinates": [2.701263, 50.460561]}}, {"type": "Feature", "properties": {"stop_name": "Bully - Grenay", "type": "Gare accessible", "icone": "Icon1"}, "geometry": {"type": "Point", "coordinates": [2.733155, 50.448419]}}, {"type": "Feature", "properties": {"stop_name": "Li\u00e9vin", "type": "Gare accessible", "icone": "Icon1"}, "geometry": {"type": "Point", "coordinates": [2.771693, 50.434197999999995]}}, {"type": "Feature", "properties": {"stop_name": "Loos-en-Gohelle", "type": "Gare accessible", "icone": "Icon1"}, "geometry": {"type": "Point", "coordinates": [2.793543, 50.437864000000005]}}, {"type": "Feature", "properties": {"stop_name": "Lens", "type": "Gare accessible", "icone": "Icon1"}, "geometry": {"type": "Point", "coordinates": [2.828301, 50.426866]}}, {"type": "Feature", "properties": {"stop_name": "Avion", "type": "Gare accessible", "icone": "Icon1"}, "geometry": {"type": "Point", "coordinates": [2.83363, 50.40721]}}, {"type": "Feature", "properties": {"stop_name": "Vimy", "type": "Gare accessible", "icone": "Icon1"}, "geometry": {"type": "Point", "coordinates": [2.82192, 50.374013]}}, {"type": "Feature", "properties": {"stop_name": "Bailleul-Sir-Berthoult", "type": "Gare accessible", "icone": "Icon1"}, "geometry": {"type": "Point", "coordinates": [2.841149, 50.335378999999996]}}, {"type": "Feature", "properties": {"stop_name": "Arras", "type": "Gare accessible", "icone": "Icon1"}, "geometry": {"type": "Point", "coordinates": [2.781314, 50.286971]}}]}