{"type": "FeatureCollection", "features": [{"type": "Feature", "properties": {"stop_name": "Fresnoy-le-Grand", "type": "Gare s\u00e9lectionn\u00e9e", "icone": "Icon2"}, "geometry": {"type": "Point", "coordinates": [3.432629, 49.950179]}}, {"type": "Feature", "properties": {"stop_name": "Aulnoye-Aymeries", "type": "Gare accessible", "icone": "Icon1"}, "geometry": {"type": "Point", "coordinates": [3.84337, 50.19749]}}, {"type": "Feature", "properties": {"stop_name": "Hachette", "type": "Gare accessible", "icone": "Icon1"}, "geometry": {"type": "Point", "coordinates": [3.743127, 50.158207]}}, {"type": "Feature", "properties": {"stop_name": "Landrecies", "type": "Gare accessible", "icone": "Icon1"}, "geometry": {"type": "Point", "coordinates": [3.68212, 50.128129]}}, {"type": "Feature", "properties": {"stop_name": "Ors", "type": "Gare accessible", "icone": "Icon1"}, "geometry": {"type": "Point", "coordinates": [3.626992, 50.103325]}}, {"type": "Feature", "properties": {"stop_name": "Le Cateau", "type": "Gare accessible", "icone": "Icon1"}, "geometry": {"type": "Point", "coordinates": [3.540028, 50.091478]}}, {"type": "Feature", "properties": {"stop_name": "Busigny", "type": "Gare accessible", "icone": "Icon1"}, "geometry": {"type": "Point", "coordinates": [3.446301, 50.039485]}}, {"type": "Feature", "properties": {"stop_name": "Bohain", "type": "Gare accessible", "icone": "Icon1"}, "geometry": {"type": "Point", "coordinates": [3.443179, 49.988490999999996]}}, {"type": "Feature", "properties": {"stop_name": "Saint-Quentin", "type": "Gare accessible", "icone": "Icon1"}, "geometry": {"type": "Point", "coordinates": [3.296958, 49.840025]}}, {"type": "Feature", "properties": {"stop_name": "Tergnier", "type": "Gare accessible", "icone": "Icon1"}, "geometry": {"type": "Point", "coordinates": [3.297253, 49.659129]}}, {"type": "Feature", "properties": {"stop_name": "Cambrai", "type": "Gare accessible", "icone": "Icon1"}, "geometry": {"type": "Point", "coordinates": [3.241197, 50.176582]}}, {"type": "Feature", "properties": {"stop_name": "Caudry", "type": "Gare accessible", "icone": "Icon1"}, "geometry": {"type": "Point", "coordinates": [3.409769, 50.111444]}}, {"type": "Feature", "properties": {"stop_name": "Lille Flandres", "type": "Gare accessible", "icone": "Icon1"}, "geometry": {"type": "Point", "coordinates": [3.06987, 50.636577]}}, {"type": "Feature", "properties": {"stop_name": "Douai", "type": "Gare accessible", "icone": "Icon1"}, "geometry": {"type": "Point", "coordinates": [3.089958, 50.371673]}}, {"type": "Feature", "properties": {"stop_name": "Montigny-en-Ostrevent", "type": "Gare accessible", "icone": "Icon1"}, "geometry": {"type": "Point", "coordinates": [3.188369, 50.361509999999996]}}, {"type": "Feature", "properties": {"stop_name": "Somain", "type": "Gare accessible", "icone": "Icon1"}, "geometry": {"type": "Point", "coordinates": [3.277319, 50.355699]}}, {"type": "Feature", "properties": {"stop_name": "Maurois", "type": "Gare accessible", "icone": "Icon1"}, "geometry": {"type": "Point", "coordinates": [3.456284, 50.067501]}}, {"type": "Feature", "properties": {"stop_name": "Bertry", "type": "Gare accessible", "icone": "Icon1"}, "geometry": {"type": "Point", "coordinates": [3.448747, 50.091227]}}, {"type": "Feature", "properties": {"stop_name": "Catteni\u00e8res", "type": "Gare accessible", "icone": "Icon1"}, "geometry": {"type": "Point", "coordinates": [3.333787, 50.12812]}}, {"type": "Feature", "properties": {"stop_name": "Wambaix", "type": "Gare accessible", "icone": "Icon1"}, "geometry": {"type": "Point", "coordinates": [3.311428, 50.13392]}}, {"type": "Feature", "properties": {"stop_name": "Aubigny-au-Bac", "type": "Gare accessible", "icone": "Icon1"}, "geometry": {"type": "Point", "coordinates": [3.15872, 50.268575]}}, {"type": "Feature", "properties": {"stop_name": "Arleux", "type": "Gare accessible", "icone": "Icon1"}, "geometry": {"type": "Point", "coordinates": [3.12071, 50.286249]}}, {"type": "Feature", "properties": {"stop_name": "Cantin", "type": "Gare accessible", "icone": "Icon1"}, "geometry": {"type": "Point", "coordinates": [3.121928, 50.312515000000005]}}, {"type": "Feature", "properties": {"stop_name": "Sin-le-Noble", "type": "Gare accessible", "icone": "Icon1"}, "geometry": {"type": "Point", "coordinates": [3.112594, 50.356623]}}, {"type": "Feature", "properties": {"stop_name": "Brun\u00e9mont", "type": "Gare accessible", "icone": "Icon1"}, "geometry": {"type": "Point", "coordinates": [3.145904, 50.278259000000006]}}]}