{"type": "FeatureCollection", "features": [{"type": "Feature", "properties": {"stop_name": "Guilberville-le Saussey", "type": "Gare s\u00e9lectionn\u00e9e"}, "geometry": {"type": "Point", "coordinates": [-0.954102, 48.982127]}}, {"type": "Feature", "properties": {"stop_name": "Caen", "type": "Gare accessible"}, "geometry": {"type": "Point", "coordinates": [-0.347613, 49.176353999999996]}}, {"type": "Feature", "properties": {"stop_name": "Avranches", "type": "Gare accessible"}, "geometry": {"type": "Point", "coordinates": [-1.369612, 48.690041]}}, {"type": "Feature", "properties": {"stop_name": "Rennes Beaulieu Chimie", "type": "Gare accessible"}, "geometry": {"type": "Point", "coordinates": [-1.633905, 48.117098]}}, {"type": "Feature", "properties": {"stop_name": "Rennes", "type": "Gare accessible"}, "geometry": {"type": "Point", "coordinates": [-1.6727439999999998, 48.103517]}}]}