{"type": "FeatureCollection", "features": [{"type": "Feature", "properties": {"stop_name": "Jumeaux", "type": "Gare s\u00e9lectionn\u00e9e"}, "geometry": {"type": "Point", "coordinates": [3.339211, 45.430201000000004]}}, {"type": "Feature", "properties": {"stop_name": "Clermont-Ferrand", "type": "Gare accessible"}, "geometry": {"type": "Point", "coordinates": [3.100543, 45.778945]}}, {"type": "Feature", "properties": {"stop_name": "Issoire", "type": "Gare accessible"}, "geometry": {"type": "Point", "coordinates": [3.25404, 45.543949]}}, {"type": "Feature", "properties": {"stop_name": "Le Breuil-sur-Couze", "type": "Gare accessible"}, "geometry": {"type": "Point", "coordinates": [3.262221, 45.467099]}}, {"type": "Feature", "properties": {"stop_name": "Brassac-les-Mines - Sainte-Florine", "type": "Gare accessible"}, "geometry": {"type": "Point", "coordinates": [3.330167, 45.414246]}}, {"type": "Feature", "properties": {"stop_name": "Arvant", "type": "Gare accessible"}, "geometry": {"type": "Point", "coordinates": [3.310554, 45.365459]}}, {"type": "Feature", "properties": {"stop_name": "Brioude", "type": "Gare accessible"}, "geometry": {"type": "Point", "coordinates": [3.37856, 45.300561]}}, {"type": "Feature", "properties": {"stop_name": "Paulhaguet", "type": "Gare accessible"}, "geometry": {"type": "Point", "coordinates": [3.500626, 45.210229999999996]}}, {"type": "Feature", "properties": {"stop_name": "Saint-Georges-d'Aurac Bourg", "type": "Gare accessible"}, "geometry": {"type": "Point", "coordinates": [3.54073, 45.156213]}}, {"type": "Feature", "properties": {"stop_name": "Fix Saint-Geneys Rn102 Bourg", "type": "Gare accessible"}, "geometry": {"type": "Point", "coordinates": [3.668554, 45.142783]}}, {"type": "Feature", "properties": {"stop_name": "Coubladour Rond-Point", "type": "Gare accessible"}, "geometry": {"type": "Point", "coordinates": [3.743527, 45.115378]}}, {"type": "Feature", "properties": {"stop_name": "Le Puy-en-Velay", "type": "Gare accessible"}, "geometry": {"type": "Point", "coordinates": [3.892421, 45.042866]}}, {"type": "Feature", "properties": {"stop_name": "Brassac-les-Mines Lyc\u00e9e Rabelais", "type": "Gare accessible"}, "geometry": {"type": "Point", "coordinates": [3.32142, 45.413632]}}, {"type": "Feature", "properties": {"stop_name": "Sainte-Florine Place Fran\u00e7ois", "type": "Gare accessible"}, "geometry": {"type": "Point", "coordinates": [3.319408, 45.405478]}}, {"type": "Feature", "properties": {"stop_name": "Sainte-Florine Lyc\u00e9e Claude Favard", "type": "Gare accessible"}, "geometry": {"type": "Point", "coordinates": [3.321074, 45.401579999999996]}}, {"type": "Feature", "properties": {"stop_name": "Arrest Usine Melius", "type": "Gare accessible"}, "geometry": {"type": "Point", "coordinates": [3.326379, 45.396438]}}, {"type": "Feature", "properties": {"stop_name": "Le Breuil-sur-C Salle des F.", "type": "Gare accessible"}, "geometry": {"type": "Point", "coordinates": [3.261952, 45.472347]}}]}