{"type": "FeatureCollection", "features": [{"type": "Feature", "properties": {"stop_name": "La Fert\u00e9-Mac\u00e9 Place Neustadt", "type": "Gare s\u00e9lectionn\u00e9e"}, "geometry": {"type": "Point", "coordinates": [-0.355806, 48.590295000000005]}}, {"type": "Feature", "properties": {"stop_name": "Bagnoles-de-l'Orne \u00c9glise", "type": "Gare accessible"}, "geometry": {"type": "Point", "coordinates": [-0.42469300000000004, 48.54974]}}, {"type": "Feature", "properties": {"stop_name": "Bagnoles-de-l'Orne Office de T", "type": "Gare accessible"}, "geometry": {"type": "Point", "coordinates": [-0.412473, 48.557239]}}, {"type": "Feature", "properties": {"stop_name": "La Fert\u00e9-Mac\u00e9", "type": "Gare accessible"}, "geometry": {"type": "Point", "coordinates": [-0.35636100000000004, 48.59474]}}, {"type": "Feature", "properties": {"stop_name": "Lonlay-le-Tesson", "type": "Gare accessible"}, "geometry": {"type": "Point", "coordinates": [-0.353027, 48.64335]}}, {"type": "Feature", "properties": {"stop_name": "Briouze", "type": "Gare accessible"}, "geometry": {"type": "Point", "coordinates": [-0.368204, 48.701862]}}, {"type": "Feature", "properties": {"stop_name": "Argentan", "type": "Gare accessible"}, "geometry": {"type": "Point", "coordinates": [-0.025291, 48.738545]}}]}