{"type": "FeatureCollection", "features": [{"type": "Feature", "properties": {"stop_name": "La Madeleine", "type": "Gare s\u00e9lectionn\u00e9e", "icone": "Icon2"}, "geometry": {"type": "Point", "coordinates": [3.072631, 50.660628]}}, {"type": "Feature", "properties": {"stop_name": "Hazebrouck", "type": "Gare accessible", "icone": "Icon1"}, "geometry": {"type": "Point", "coordinates": [2.541463, 50.724924]}}, {"type": "Feature", "properties": {"stop_name": "Strazeele", "type": "Gare accessible", "icone": "Icon1"}, "geometry": {"type": "Point", "coordinates": [2.630928, 50.713419]}}, {"type": "Feature", "properties": {"stop_name": "Bailleul", "type": "Gare accessible", "icone": "Icon1"}, "geometry": {"type": "Point", "coordinates": [2.734485, 50.729167]}}, {"type": "Feature", "properties": {"stop_name": "Steenwerck", "type": "Gare accessible", "icone": "Icon1"}, "geometry": {"type": "Point", "coordinates": [2.786562, 50.712787]}}, {"type": "Feature", "properties": {"stop_name": "Nieppe", "type": "Gare accessible", "icone": "Icon1"}, "geometry": {"type": "Point", "coordinates": [2.829106, 50.696864]}}, {"type": "Feature", "properties": {"stop_name": "Armenti\u00e8res", "type": "Gare accessible", "icone": "Icon1"}, "geometry": {"type": "Point", "coordinates": [2.87768, 50.680848]}}, {"type": "Feature", "properties": {"stop_name": "P\u00e9renchies", "type": "Gare accessible", "icone": "Icon1"}, "geometry": {"type": "Point", "coordinates": [2.977239, 50.667044]}}, {"type": "Feature", "properties": {"stop_name": "Saint-Andr\u00e9", "type": "Gare accessible", "icone": "Icon1"}, "geometry": {"type": "Point", "coordinates": [3.04766, 50.654307]}}, {"type": "Feature", "properties": {"stop_name": "Lille Flandres", "type": "Gare accessible", "icone": "Icon1"}, "geometry": {"type": "Point", "coordinates": [3.06987, 50.636577]}}]}