{"type": "FeatureCollection", "features": [{"type": "Feature", "properties": {"stop_name": "Laroche - Migennes", "type": "Gare s\u00e9lectionn\u00e9e", "icone": "Icon2"}, "geometry": {"type": "Point", "coordinates": [3.513191, 47.960998]}}, {"type": "Feature", "properties": {"stop_name": "Dijon", "type": "Gare accessible", "icone": "Icon1"}, "geometry": {"type": "Point", "coordinates": [5.027256, 47.323411]}}, {"type": "Feature", "properties": {"stop_name": "Les Laumes - Al\u00e9sia", "type": "Gare accessible", "icone": "Icon1"}, "geometry": {"type": "Point", "coordinates": [4.462602, 47.543054]}}, {"type": "Feature", "properties": {"stop_name": "Montbard", "type": "Gare accessible", "icone": "Icon1"}, "geometry": {"type": "Point", "coordinates": [4.336212, 47.618741]}}, {"type": "Feature", "properties": {"stop_name": "Nuits sous Ravi\u00e8res", "type": "Gare accessible", "icone": "Icon1"}, "geometry": {"type": "Point", "coordinates": [4.211709, 47.729307]}}, {"type": "Feature", "properties": {"stop_name": "Tonnerre", "type": "Gare accessible", "icone": "Icon1"}, "geometry": {"type": "Point", "coordinates": [3.97355, 47.85938]}}, {"type": "Feature", "properties": {"stop_name": "Saint-Florentin - Vergigny", "type": "Gare accessible", "icone": "Icon1"}, "geometry": {"type": "Point", "coordinates": [3.731036, 47.981058000000004]}}, {"type": "Feature", "properties": {"stop_name": "Joigny", "type": "Gare accessible", "icone": "Icon1"}, "geometry": {"type": "Point", "coordinates": [3.392997, 47.973855]}}, {"type": "Feature", "properties": {"stop_name": "Sens", "type": "Gare accessible", "icone": "Icon1"}, "geometry": {"type": "Point", "coordinates": [3.267833, 48.197856]}}, {"type": "Feature", "properties": {"stop_name": "Paris Bercy Bourg. Pays d'Auv.", "type": "Gare accessible", "icone": "Icon1"}, "geometry": {"type": "Point", "coordinates": [2.382791, 48.839215]}}, {"type": "Feature", "properties": {"stop_name": "Paris Gare de Lyon Hall 1 - 2", "type": "Gare accessible", "icone": "Icon1"}, "geometry": {"type": "Point", "coordinates": [2.373481, 48.844945]}}, {"type": "Feature", "properties": {"stop_name": "\u00c9tigny - V\u00e9ron", "type": "Gare accessible", "icone": "Icon1"}, "geometry": {"type": "Point", "coordinates": [3.290743, 48.138276]}}, {"type": "Feature", "properties": {"stop_name": "Villeneuve-sur-Yonne", "type": "Gare accessible", "icone": "Icon1"}, "geometry": {"type": "Point", "coordinates": [3.286925, 48.085013000000004]}}, {"type": "Feature", "properties": {"stop_name": "Saint-Julien-du-Sault", "type": "Gare accessible", "icone": "Icon1"}, "geometry": {"type": "Point", "coordinates": [3.302781, 48.026965000000004]}}, {"type": "Feature", "properties": {"stop_name": "Beaune", "type": "Gare accessible", "icone": "Icon1"}, "geometry": {"type": "Point", "coordinates": [4.848423, 47.023014]}}, {"type": "Feature", "properties": {"stop_name": "Chagny", "type": "Gare accessible", "icone": "Icon1"}, "geometry": {"type": "Point", "coordinates": [4.749613, 46.907424]}}, {"type": "Feature", "properties": {"stop_name": "Chalon-sur-Sa\u00f4ne", "type": "Gare accessible", "icone": "Icon1"}, "geometry": {"type": "Point", "coordinates": [4.843479, 46.781622]}}, {"type": "Feature", "properties": {"stop_name": "Tournus", "type": "Gare accessible", "icone": "Icon1"}, "geometry": {"type": "Point", "coordinates": [4.906562, 46.566724]}}, {"type": "Feature", "properties": {"stop_name": "M\u00e2con", "type": "Gare accessible", "icone": "Icon1"}, "geometry": {"type": "Point", "coordinates": [4.824887, 46.302572]}}, {"type": "Feature", "properties": {"stop_name": "Belleville sur S\u00e2one", "type": "Gare accessible", "icone": "Icon1"}, "geometry": {"type": "Point", "coordinates": [4.729011, 46.111952]}}, {"type": "Feature", "properties": {"stop_name": "Villefranche-sur-Sa\u00f4ne", "type": "Gare accessible", "icone": "Icon1"}, "geometry": {"type": "Point", "coordinates": [4.720798, 45.984482]}}, {"type": "Feature", "properties": {"stop_name": "Saint-Germain-au-Mont-d'Or", "type": "Gare accessible", "icone": "Icon1"}, "geometry": {"type": "Point", "coordinates": [4.804206, 45.888431]}}, {"type": "Feature", "properties": {"stop_name": "Lyon Part Dieu", "type": "Gare accessible", "icone": "Icon1"}, "geometry": {"type": "Point", "coordinates": [4.859409, 45.760596]}}, {"type": "Feature", "properties": {"stop_name": "Lyon Perrache", "type": "Gare accessible", "icone": "Icon1"}, "geometry": {"type": "Point", "coordinates": [4.825777, 45.748508]}}, {"type": "Feature", "properties": {"stop_name": "Nuits-Saint-Georges", "type": "Gare accessible", "icone": "Icon1"}, "geometry": {"type": "Point", "coordinates": [4.956277, 47.130662]}}, {"type": "Feature", "properties": {"stop_name": "Montereau", "type": "Gare accessible", "icone": "Icon1"}, "geometry": {"type": "Point", "coordinates": [2.94293, 48.379902]}}, {"type": "Feature", "properties": {"stop_name": "Villeneuve-la-Guyard", "type": "Gare accessible", "icone": "Icon1"}, "geometry": {"type": "Point", "coordinates": [3.071655, 48.342425]}}, {"type": "Feature", "properties": {"stop_name": "Champigny", "type": "Gare accessible", "icone": "Icon1"}, "geometry": {"type": "Point", "coordinates": [3.130572, 48.323741999999996]}}, {"type": "Feature", "properties": {"stop_name": "Pont-sur-Yonne", "type": "Gare accessible", "icone": "Icon1"}, "geometry": {"type": "Point", "coordinates": [3.201463, 48.286287]}}, {"type": "Feature", "properties": {"stop_name": "Auxerre Saint-Gervais", "type": "Gare accessible", "icone": "Icon1"}, "geometry": {"type": "Point", "coordinates": [3.58514, 47.797645]}}, {"type": "Feature", "properties": {"stop_name": "Chemilly - Appoigny", "type": "Gare accessible", "icone": "Icon1"}, "geometry": {"type": "Point", "coordinates": [3.55428, 47.897276]}}, {"type": "Feature", "properties": {"stop_name": "Mon\u00e9teau - Gurgy", "type": "Gare accessible", "icone": "Icon1"}, "geometry": {"type": "Point", "coordinates": [3.579947, 47.850756]}}, {"type": "Feature", "properties": {"stop_name": "Melun", "type": "Gare accessible", "icone": "Icon1"}, "geometry": {"type": "Point", "coordinates": [2.655349, 48.527583]}}, {"type": "Feature", "properties": {"stop_name": "Saint-Mamm\u00e8s", "type": "Gare accessible", "icone": "Icon1"}, "geometry": {"type": "Point", "coordinates": [2.815917, 48.382156]}}, {"type": "Feature", "properties": {"stop_name": "Moret - Veneux-les-Sablons", "type": "Gare accessible", "icone": "Icon1"}, "geometry": {"type": "Point", "coordinates": [2.799478, 48.378415999999994]}}, {"type": "Feature", "properties": {"stop_name": "Fontainebleau - Avon", "type": "Gare accessible", "icone": "Icon1"}, "geometry": {"type": "Point", "coordinates": [2.726237, 48.416331]}}, {"type": "Feature", "properties": {"stop_name": "Bois-le-Roi", "type": "Gare accessible", "icone": "Icon1"}, "geometry": {"type": "Point", "coordinates": [2.691606, 48.475567]}}, {"type": "Feature", "properties": {"stop_name": "Champagne-sur-Seine", "type": "Gare accessible", "icone": "Icon1"}, "geometry": {"type": "Point", "coordinates": [2.79921, 48.406582]}}, {"type": "Feature", "properties": {"stop_name": "Corbigny", "type": "Gare accessible", "icone": "Icon1"}, "geometry": {"type": "Point", "coordinates": [3.677323, 47.254807]}}, {"type": "Feature", "properties": {"stop_name": "Flez-Cuzy - Tannay", "type": "Gare accessible", "icone": "Icon1"}, "geometry": {"type": "Point", "coordinates": [3.615881, 47.362336]}}, {"type": "Feature", "properties": {"stop_name": "Clamecy", "type": "Gare accessible", "icone": "Icon1"}, "geometry": {"type": "Point", "coordinates": [3.520767, 47.466698]}}, {"type": "Feature", "properties": {"stop_name": "Coulanges-sur-Yonne", "type": "Gare accessible", "icone": "Icon1"}, "geometry": {"type": "Point", "coordinates": [3.547282, 47.527175]}}, {"type": "Feature", "properties": {"stop_name": "Ch\u00e2tel-Censoir", "type": "Gare accessible", "icone": "Icon1"}, "geometry": {"type": "Point", "coordinates": [3.635211, 47.537769]}}, {"type": "Feature", "properties": {"stop_name": "Mailly-la-Ville", "type": "Gare accessible", "icone": "Icon1"}, "geometry": {"type": "Point", "coordinates": [3.675147, 47.604169]}}, {"type": "Feature", "properties": {"stop_name": "Cravant - Bazarnes", "type": "Gare accessible", "icone": "Icon1"}, "geometry": {"type": "Point", "coordinates": [3.681174, 47.678508]}}, {"type": "Feature", "properties": {"stop_name": "Champs - Saint-Bris", "type": "Gare accessible", "icone": "Icon1"}, "geometry": {"type": "Point", "coordinates": [3.603833, 47.738587]}}, {"type": "Feature", "properties": {"stop_name": "Avallon", "type": "Gare accessible", "icone": "Icon1"}, "geometry": {"type": "Point", "coordinates": [3.912446, 47.495754999999996]}}, {"type": "Feature", "properties": {"stop_name": "Sermizelles - V\u00e9zelay", "type": "Gare accessible", "icone": "Icon1"}, "geometry": {"type": "Point", "coordinates": [3.792672, 47.528881]}}, {"type": "Feature", "properties": {"stop_name": "Arcy-sur-Cure", "type": "Gare accessible", "icone": "Icon1"}, "geometry": {"type": "Point", "coordinates": [3.766638, 47.600873]}}, {"type": "Feature", "properties": {"stop_name": "Vermenton", "type": "Gare accessible", "icone": "Icon1"}, "geometry": {"type": "Point", "coordinates": [3.732059, 47.660761]}}, {"type": "Feature", "properties": {"stop_name": "Vincelles", "type": "Gare accessible", "icone": "Icon1"}, "geometry": {"type": "Point", "coordinates": [3.628471, 47.704204]}}, {"type": "Feature", "properties": {"stop_name": "Velars", "type": "Gare accessible", "icone": "Icon1"}, "geometry": {"type": "Point", "coordinates": [4.92746, 47.32652]}}, {"type": "Feature", "properties": {"stop_name": "Lantenay", "type": "Gare accessible", "icone": "Icon1"}, "geometry": {"type": "Point", "coordinates": [4.861205, 47.335207000000004]}}, {"type": "Feature", "properties": {"stop_name": "M\u00e2lain", "type": "Gare accessible", "icone": "Icon1"}, "geometry": {"type": "Point", "coordinates": [4.809186, 47.327183000000005]}}, {"type": "Feature", "properties": {"stop_name": "Blaisy-Bas", "type": "Gare accessible", "icone": "Icon1"}, "geometry": {"type": "Point", "coordinates": [4.740814, 47.373829]}}, {"type": "Feature", "properties": {"stop_name": "Verrey", "type": "Gare accessible", "icone": "Icon1"}, "geometry": {"type": "Point", "coordinates": [4.669857, 47.438853]}}, {"type": "Feature", "properties": {"stop_name": "Thenissey", "type": "Gare accessible", "icone": "Icon1"}, "geometry": {"type": "Point", "coordinates": [4.623192, 47.494595000000004]}}]}