{"type": "FeatureCollection", "features": [{"type": "Feature", "properties": {"stop_name": "Le Tr\u00e9port - Mers-les-Bains", "type": "Gare s\u00e9lectionn\u00e9e", "icone": "Icon2"}, "geometry": {"type": "Point", "coordinates": [1.376078, 50.062715999999995]}}, {"type": "Feature", "properties": {"stop_name": "Abancourt", "type": "Gare accessible", "icone": "Icon1"}, "geometry": {"type": "Point", "coordinates": [1.774351, 49.685602]}}, {"type": "Feature", "properties": {"stop_name": "Aumale", "type": "Gare accessible", "icone": "Icon1"}, "geometry": {"type": "Point", "coordinates": [1.756069, 49.765115]}}, {"type": "Feature", "properties": {"stop_name": "Blangy-sur-Bresle", "type": "Gare accessible", "icone": "Icon1"}, "geometry": {"type": "Point", "coordinates": [1.625558, 49.932363]}}, {"type": "Feature", "properties": {"stop_name": "Longroy - Gamaches", "type": "Gare accessible", "icone": "Icon1"}, "geometry": {"type": "Point", "coordinates": [1.551899, 49.982444]}}, {"type": "Feature", "properties": {"stop_name": "Eu", "type": "Gare accessible", "icone": "Icon1"}, "geometry": {"type": "Point", "coordinates": [1.417087, 50.054139]}}, {"type": "Feature", "properties": {"stop_name": "Feuqui\u00e8res - Broquiers", "type": "Gare accessible", "icone": "Icon1"}, "geometry": {"type": "Point", "coordinates": [1.830517, 49.654575]}}, {"type": "Feature", "properties": {"stop_name": "Grandvilliers", "type": "Gare accessible", "icone": "Icon1"}, "geometry": {"type": "Point", "coordinates": [1.938462, 49.659406]}}, {"type": "Feature", "properties": {"stop_name": "Marseille-en-Beauvaisis", "type": "Gare accessible", "icone": "Icon1"}, "geometry": {"type": "Point", "coordinates": [1.954654, 49.571067]}}, {"type": "Feature", "properties": {"stop_name": "Saint-Omer-en-Chauss\u00e9e", "type": "Gare accessible", "icone": "Icon1"}, "geometry": {"type": "Point", "coordinates": [1.997829, 49.531159]}}, {"type": "Feature", "properties": {"stop_name": "Milly-sur-Th\u00e9rain", "type": "Gare accessible", "icone": "Icon1"}, "geometry": {"type": "Point", "coordinates": [1.988603, 49.503869]}}, {"type": "Feature", "properties": {"stop_name": "Herchies", "type": "Gare accessible", "icone": "Icon1"}, "geometry": {"type": "Point", "coordinates": [2.010583, 49.488068]}}, {"type": "Feature", "properties": {"stop_name": "Beauvais", "type": "Gare accessible", "icone": "Icon1"}, "geometry": {"type": "Point", "coordinates": [2.088655, 49.426518]}}]}