{"type": "FeatureCollection", "features": [{"type": "Feature", "properties": {"stop_name": "Lille Flandres", "type": "Gare s\u00e9lectionn\u00e9e", "icone": "Icon2"}, "geometry": {"type": "Point", "coordinates": [3.06987, 50.636577]}}, {"type": "Feature", "properties": {"stop_name": "Arras", "type": "Gare accessible", "icone": "Icon1"}, "geometry": {"type": "Point", "coordinates": [2.781314, 50.286971]}}, {"type": "Feature", "properties": {"stop_name": "Longueau", "type": "Gare accessible", "icone": "Icon1"}, "geometry": {"type": "Point", "coordinates": [2.352201, 49.863474]}}, {"type": "Feature", "properties": {"stop_name": "Creil", "type": "Gare accessible", "icone": "Icon1"}, "geometry": {"type": "Point", "coordinates": [2.469199, 49.2638]}}, {"type": "Feature", "properties": {"stop_name": "Paris Gare du Nord", "type": "Gare accessible", "icone": "Icon1"}, "geometry": {"type": "Point", "coordinates": [2.354851, 48.880136]}}, {"type": "Feature", "properties": {"stop_name": "Douai", "type": "Gare accessible", "icone": "Icon1"}, "geometry": {"type": "Point", "coordinates": [3.089958, 50.371673]}}, {"type": "Feature", "properties": {"stop_name": "Croix - Wasquehal", "type": "Gare accessible", "icone": "Icon1"}, "geometry": {"type": "Point", "coordinates": [3.138067, 50.678589]}}, {"type": "Feature", "properties": {"stop_name": "Croix l'Allumette", "type": "Gare accessible", "icone": "Icon1"}, "geometry": {"type": "Point", "coordinates": [3.151156, 50.68683]}}, {"type": "Feature", "properties": {"stop_name": "Roubaix", "type": "Gare accessible", "icone": "Icon1"}, "geometry": {"type": "Point", "coordinates": [3.16348, 50.695609999999995]}}, {"type": "Feature", "properties": {"stop_name": "Tourcoing", "type": "Gare accessible", "icone": "Icon1"}, "geometry": {"type": "Point", "coordinates": [3.168021, 50.716827]}}, {"type": "Feature", "properties": {"stop_name": "Mouscron", "type": "Gare accessible", "icone": "Icon1"}, "geometry": {"type": "Point", "coordinates": [3.225, 50.738]}}, {"type": "Feature", "properties": {"stop_name": "Courtrai", "type": "Gare accessible", "icone": "Icon1"}, "geometry": {"type": "Point", "coordinates": [3.26, 50.824]}}, {"type": "Feature", "properties": {"stop_name": "Tournai", "type": "Gare accessible", "icone": "Icon1"}, "geometry": {"type": "Point", "coordinates": [3.396, 50.613]}}, {"type": "Feature", "properties": {"stop_name": "FROYENNES", "type": "Gare accessible", "icone": "Icon1"}, "geometry": {"type": "Point", "coordinates": [3.355, 50.629]}}, {"type": "Feature", "properties": {"stop_name": "Baisieux", "type": "Gare accessible", "icone": "Icon1"}, "geometry": {"type": "Point", "coordinates": [3.23487, 50.618307]}}, {"type": "Feature", "properties": {"stop_name": "Ascq", "type": "Gare accessible", "icone": "Icon1"}, "geometry": {"type": "Point", "coordinates": [3.159905, 50.621804]}}, {"type": "Feature", "properties": {"stop_name": "Pont de bois", "type": "Gare accessible", "icone": "Icon1"}, "geometry": {"type": "Point", "coordinates": [3.130256, 50.624032]}}, {"type": "Feature", "properties": {"stop_name": "Lezennes", "type": "Gare accessible", "icone": "Icon1"}, "geometry": {"type": "Point", "coordinates": [3.097777, 50.620531]}}, {"type": "Feature", "properties": {"stop_name": "Hellemmes", "type": "Gare accessible", "icone": "Icon1"}, "geometry": {"type": "Point", "coordinates": [3.114932, 50.622634999999995]}}, {"type": "Feature", "properties": {"stop_name": "Annappes", "type": "Gare accessible", "icone": "Icon1"}, "geometry": {"type": "Point", "coordinates": [3.14629, 50.622807]}}, {"type": "Feature", "properties": {"stop_name": "Valenciennes", "type": "Gare accessible", "icone": "Icon1"}, "geometry": {"type": "Point", "coordinates": [3.517124, 50.363186999999996]}}, {"type": "Feature", "properties": {"stop_name": "Saint-Amand-les-Eaux", "type": "Gare accessible", "icone": "Icon1"}, "geometry": {"type": "Point", "coordinates": [3.419371, 50.443342]}}, {"type": "Feature", "properties": {"stop_name": "Rosult", "type": "Gare accessible", "icone": "Icon1"}, "geometry": {"type": "Point", "coordinates": [3.348995, 50.456425]}}, {"type": "Feature", "properties": {"stop_name": "Landas", "type": "Gare accessible", "icone": "Icon1"}, "geometry": {"type": "Point", "coordinates": [3.290617, 50.468790000000006]}}, {"type": "Feature", "properties": {"stop_name": "Orchies", "type": "Gare accessible", "icone": "Icon1"}, "geometry": {"type": "Point", "coordinates": [3.248871, 50.477028000000004]}}, {"type": "Feature", "properties": {"stop_name": "Templeuve", "type": "Gare accessible", "icone": "Icon1"}, "geometry": {"type": "Point", "coordinates": [3.175668, 50.528694]}}, {"type": "Feature", "properties": {"stop_name": "Fretin", "type": "Gare accessible", "icone": "Icon1"}, "geometry": {"type": "Point", "coordinates": [3.149396, 50.55996]}}, {"type": "Feature", "properties": {"stop_name": "Lesquin", "type": "Gare accessible", "icone": "Icon1"}, "geometry": {"type": "Point", "coordinates": [3.117714, 50.590685]}}, {"type": "Feature", "properties": {"stop_name": "Ennevelin", "type": "Gare accessible", "icone": "Icon1"}, "geometry": {"type": "Point", "coordinates": [3.158711, 50.549123]}}, {"type": "Feature", "properties": {"stop_name": "Nomain", "type": "Gare accessible", "icone": "Icon1"}, "geometry": {"type": "Point", "coordinates": [3.205983, 50.502520000000004]}}, {"type": "Feature", "properties": {"stop_name": "Mont de Terre", "type": "Gare accessible", "icone": "Icon1"}, "geometry": {"type": "Point", "coordinates": [3.096004, 50.618045]}}, {"type": "Feature", "properties": {"stop_name": "Maubeuge", "type": "Gare accessible", "icone": "Icon1"}, "geometry": {"type": "Point", "coordinates": [3.966368, 50.272801]}}, {"type": "Feature", "properties": {"stop_name": "Aulnoye-Aymeries", "type": "Gare accessible", "icone": "Icon1"}, "geometry": {"type": "Point", "coordinates": [3.84337, 50.19749]}}, {"type": "Feature", "properties": {"stop_name": "Le Quesnoy", "type": "Gare accessible", "icone": "Icon1"}, "geometry": {"type": "Point", "coordinates": [3.645565, 50.250229]}}, {"type": "Feature", "properties": {"stop_name": "Jeumont", "type": "Gare accessible", "icone": "Icon1"}, "geometry": {"type": "Point", "coordinates": [4.08722, 50.296149]}}, {"type": "Feature", "properties": {"stop_name": "Hautmont", "type": "Gare accessible", "icone": "Icon1"}, "geometry": {"type": "Point", "coordinates": [3.915188, 50.253985]}}, {"type": "Feature", "properties": {"stop_name": "Berlaimont", "type": "Gare accessible", "icone": "Icon1"}, "geometry": {"type": "Point", "coordinates": [3.810518, 50.198046000000005]}}, {"type": "Feature", "properties": {"stop_name": "Le Poirier Universit\u00e9", "type": "Gare accessible", "icone": "Icon1"}, "geometry": {"type": "Point", "coordinates": [3.502635, 50.330077]}}, {"type": "Feature", "properties": {"stop_name": "Hirson", "type": "Gare accessible", "icone": "Icon1"}, "geometry": {"type": "Point", "coordinates": [4.084285, 49.914558]}}, {"type": "Feature", "properties": {"stop_name": "Anor", "type": "Gare accessible", "icone": "Icon1"}, "geometry": {"type": "Point", "coordinates": [4.093314, 49.984998]}}, {"type": "Feature", "properties": {"stop_name": "Fourmies", "type": "Gare accessible", "icone": "Icon1"}, "geometry": {"type": "Point", "coordinates": [4.053655, 50.015406]}}, {"type": "Feature", "properties": {"stop_name": "Sains-du-Nord", "type": "Gare accessible", "icone": "Icon1"}, "geometry": {"type": "Point", "coordinates": [4.001625, 50.088933000000004]}}, {"type": "Feature", "properties": {"stop_name": "Avesnes", "type": "Gare accessible", "icone": "Icon1"}, "geometry": {"type": "Point", "coordinates": [3.932942, 50.126721999999994]}}, {"type": "Feature", "properties": {"stop_name": "Charleville-M\u00e9zi\u00e8res", "type": "Gare accessible", "icone": "Icon1"}, "geometry": {"type": "Point", "coordinates": [4.724344, 49.76763]}}, {"type": "Feature", "properties": {"stop_name": "Liart", "type": "Gare accessible", "icone": "Icon1"}, "geometry": {"type": "Point", "coordinates": [4.335514, 49.77006]}}, {"type": "Feature", "properties": {"stop_name": "Lens", "type": "Gare accessible", "icone": "Icon1"}, "geometry": {"type": "Point", "coordinates": [2.828301, 50.426866]}}, {"type": "Feature", "properties": {"stop_name": "Sallaumines", "type": "Gare accessible", "icone": "Icon1"}, "geometry": {"type": "Point", "coordinates": [2.855759, 50.422290000000004]}}, {"type": "Feature", "properties": {"stop_name": "Loison-sous-Lens", "type": "Gare accessible", "icone": "Icon1"}, "geometry": {"type": "Point", "coordinates": [2.859549, 50.440028000000005]}}, {"type": "Feature", "properties": {"stop_name": "Pont-\u00e0-Vendin", "type": "Gare accessible", "icone": "Icon1"}, "geometry": {"type": "Point", "coordinates": [2.875266, 50.471303000000006]}}, {"type": "Feature", "properties": {"stop_name": "Meurchin", "type": "Gare accessible", "icone": "Icon1"}, "geometry": {"type": "Point", "coordinates": [2.892738, 50.496717]}}, {"type": "Feature", "properties": {"stop_name": "Bauvin - Provin", "type": "Gare accessible", "icone": "Icon1"}, "geometry": {"type": "Point", "coordinates": [2.90543, 50.511557]}}, {"type": "Feature", "properties": {"stop_name": "Don - Sainghin", "type": "Gare accessible", "icone": "Icon1"}, "geometry": {"type": "Point", "coordinates": [2.914402, 50.551726]}}, {"type": "Feature", "properties": {"stop_name": "La Fontaine", "type": "Gare accessible", "icone": "Icon1"}, "geometry": {"type": "Point", "coordinates": [2.926108, 50.566305]}}, {"type": "Feature", "properties": {"stop_name": "Wavrin", "type": "Gare accessible", "icone": "Icon1"}, "geometry": {"type": "Point", "coordinates": [2.936654, 50.574424]}}, {"type": "Feature", "properties": {"stop_name": "Santes", "type": "Gare accessible", "icone": "Icon1"}, "geometry": {"type": "Point", "coordinates": [2.961977, 50.592063]}}, {"type": "Feature", "properties": {"stop_name": "Haubourdin", "type": "Gare accessible", "icone": "Icon1"}, "geometry": {"type": "Point", "coordinates": [2.990145, 50.60707]}}, {"type": "Feature", "properties": {"stop_name": "Loos lez Lille", "type": "Gare accessible", "icone": "Icon1"}, "geometry": {"type": "Point", "coordinates": [3.016976, 50.612936]}}, {"type": "Feature", "properties": {"stop_name": "Lille Centre Hospitalier R\u00e9gional", "type": "Gare accessible", "icone": "Icon1"}, "geometry": {"type": "Point", "coordinates": [3.034278, 50.614297]}}, {"type": "Feature", "properties": {"stop_name": "Lille Porte de Douai", "type": "Gare accessible", "icone": "Icon1"}, "geometry": {"type": "Point", "coordinates": [3.075075, 50.612114]}}, {"type": "Feature", "properties": {"stop_name": "La Bass\u00e9e", "type": "Gare accessible", "icone": "Icon1"}, "geometry": {"type": "Point", "coordinates": [2.80477, 50.527937]}}, {"type": "Feature", "properties": {"stop_name": "B\u00e9thune", "type": "Gare accessible", "icone": "Icon1"}, "geometry": {"type": "Point", "coordinates": [2.640509, 50.521454]}}, {"type": "Feature", "properties": {"stop_name": "Beuvry l\u00e8s B\u00e9thune", "type": "Gare accessible", "icone": "Icon1"}, "geometry": {"type": "Point", "coordinates": [2.692329, 50.535523]}}, {"type": "Feature", "properties": {"stop_name": "Cuinchy", "type": "Gare accessible", "icone": "Icon1"}, "geometry": {"type": "Point", "coordinates": [2.74743, 50.521851]}}, {"type": "Feature", "properties": {"stop_name": "Salom\u00e9", "type": "Gare accessible", "icone": "Icon1"}, "geometry": {"type": "Point", "coordinates": [2.838268, 50.541881]}}, {"type": "Feature", "properties": {"stop_name": "Marquillies", "type": "Gare accessible", "icone": "Icon1"}, "geometry": {"type": "Point", "coordinates": [2.867373, 50.548145]}}, {"type": "Feature", "properties": {"stop_name": "Saint-Pol-sur-Ternoise", "type": "Gare accessible", "icone": "Icon1"}, "geometry": {"type": "Point", "coordinates": [2.33934, 50.379156]}}, {"type": "Feature", "properties": {"stop_name": "Pernes - Camblain", "type": "Gare accessible", "icone": "Icon1"}, "geometry": {"type": "Point", "coordinates": [2.431076, 50.480353]}}, {"type": "Feature", "properties": {"stop_name": "Calonne-Ricouart", "type": "Gare accessible", "icone": "Icon1"}, "geometry": {"type": "Point", "coordinates": [2.481062, 50.482799]}}, {"type": "Feature", "properties": {"stop_name": "Vis \u00e0 Marles", "type": "Gare accessible", "icone": "Icon1"}, "geometry": {"type": "Point", "coordinates": [2.517363, 50.50509]}}, {"type": "Feature", "properties": {"stop_name": "Ronchin", "type": "Gare accessible", "icone": "Icon1"}, "geometry": {"type": "Point", "coordinates": [3.078334, 50.604539]}}, {"type": "Feature", "properties": {"stop_name": "Wattignies - Templemars", "type": "Gare accessible", "icone": "Icon1"}, "geometry": {"type": "Point", "coordinates": [3.051984, 50.579309]}}, {"type": "Feature", "properties": {"stop_name": "Seclin", "type": "Gare accessible", "icone": "Icon1"}, "geometry": {"type": "Point", "coordinates": [3.034965, 50.548604]}}, {"type": "Feature", "properties": {"stop_name": "Phalempin", "type": "Gare accessible", "icone": "Icon1"}, "geometry": {"type": "Point", "coordinates": [3.019899, 50.515367]}}, {"type": "Feature", "properties": {"stop_name": "Libercourt", "type": "Gare accessible", "icone": "Icon1"}, "geometry": {"type": "Point", "coordinates": [3.008642, 50.480202]}}, {"type": "Feature", "properties": {"stop_name": "Ostricourt", "type": "Gare accessible", "icone": "Icon1"}, "geometry": {"type": "Point", "coordinates": [3.032414, 50.445501]}}, {"type": "Feature", "properties": {"stop_name": "Leforest", "type": "Gare accessible", "icone": "Icon1"}, "geometry": {"type": "Point", "coordinates": [3.059792, 50.427785]}}, {"type": "Feature", "properties": {"stop_name": "Pont de la De\u00fble", "type": "Gare accessible", "icone": "Icon1"}, "geometry": {"type": "Point", "coordinates": [3.085101, 50.398139]}}, {"type": "Feature", "properties": {"stop_name": "Billy-Montigny", "type": "Gare accessible", "icone": "Icon1"}, "geometry": {"type": "Point", "coordinates": [2.91187, 50.415551]}}, {"type": "Feature", "properties": {"stop_name": "H\u00e9nin-Beaumont", "type": "Gare accessible", "icone": "Icon1"}, "geometry": {"type": "Point", "coordinates": [2.952082, 50.417084]}}, {"type": "Feature", "properties": {"stop_name": "Dourges", "type": "Gare accessible", "icone": "Icon1"}, "geometry": {"type": "Point", "coordinates": [2.987013, 50.431922]}}, {"type": "Feature", "properties": {"stop_name": "Coron de M\u00e9ricourt", "type": "Gare accessible", "icone": "Icon1"}, "geometry": {"type": "Point", "coordinates": [2.886156, 50.414934]}}, {"type": "Feature", "properties": {"stop_name": "Montigny-en-Ostrevent", "type": "Gare accessible", "icone": "Icon1"}, "geometry": {"type": "Point", "coordinates": [3.188369, 50.361509999999996]}}, {"type": "Feature", "properties": {"stop_name": "Somain", "type": "Gare accessible", "icone": "Icon1"}, "geometry": {"type": "Point", "coordinates": [3.277319, 50.355699]}}, {"type": "Feature", "properties": {"stop_name": "Cambrai", "type": "Gare accessible", "icone": "Icon1"}, "geometry": {"type": "Point", "coordinates": [3.241197, 50.176582]}}, {"type": "Feature", "properties": {"stop_name": "Caudry", "type": "Gare accessible", "icone": "Icon1"}, "geometry": {"type": "Point", "coordinates": [3.409769, 50.111444]}}, {"type": "Feature", "properties": {"stop_name": "Busigny", "type": "Gare accessible", "icone": "Icon1"}, "geometry": {"type": "Point", "coordinates": [3.446301, 50.039485]}}, {"type": "Feature", "properties": {"stop_name": "Saint-Quentin", "type": "Gare accessible", "icone": "Icon1"}, "geometry": {"type": "Point", "coordinates": [3.296958, 49.840025]}}, {"type": "Feature", "properties": {"stop_name": "Bohain", "type": "Gare accessible", "icone": "Icon1"}, "geometry": {"type": "Point", "coordinates": [3.443179, 49.988490999999996]}}, {"type": "Feature", "properties": {"stop_name": "Fresnoy-le-Grand", "type": "Gare accessible", "icone": "Icon1"}, "geometry": {"type": "Point", "coordinates": [3.432629, 49.950179]}}, {"type": "Feature", "properties": {"stop_name": "Achiet", "type": "Gare accessible", "icone": "Icon1"}, "geometry": {"type": "Point", "coordinates": [2.780147, 50.131741]}}, {"type": "Feature", "properties": {"stop_name": "Albert", "type": "Gare accessible", "icone": "Icon1"}, "geometry": {"type": "Point", "coordinates": [2.644527, 50.005434]}}, {"type": "Feature", "properties": {"stop_name": "Amiens", "type": "Gare accessible", "icone": "Icon1"}, "geometry": {"type": "Point", "coordinates": [2.308277, 49.890584000000004]}}, {"type": "Feature", "properties": {"stop_name": "Corbie", "type": "Gare accessible", "icone": "Icon1"}, "geometry": {"type": "Point", "coordinates": [2.499666, 49.911615999999995]}}, {"type": "Feature", "properties": {"stop_name": "Hazebrouck", "type": "Gare accessible", "icone": "Icon1"}, "geometry": {"type": "Point", "coordinates": [2.541463, 50.724924]}}, {"type": "Feature", "properties": {"stop_name": "Strazeele", "type": "Gare accessible", "icone": "Icon1"}, "geometry": {"type": "Point", "coordinates": [2.630928, 50.713419]}}, {"type": "Feature", "properties": {"stop_name": "Bailleul", "type": "Gare accessible", "icone": "Icon1"}, "geometry": {"type": "Point", "coordinates": [2.734485, 50.729167]}}, {"type": "Feature", "properties": {"stop_name": "Steenwerck", "type": "Gare accessible", "icone": "Icon1"}, "geometry": {"type": "Point", "coordinates": [2.786562, 50.712787]}}, {"type": "Feature", "properties": {"stop_name": "Nieppe", "type": "Gare accessible", "icone": "Icon1"}, "geometry": {"type": "Point", "coordinates": [2.829106, 50.696864]}}, {"type": "Feature", "properties": {"stop_name": "Armenti\u00e8res", "type": "Gare accessible", "icone": "Icon1"}, "geometry": {"type": "Point", "coordinates": [2.87768, 50.680848]}}, {"type": "Feature", "properties": {"stop_name": "P\u00e9renchies", "type": "Gare accessible", "icone": "Icon1"}, "geometry": {"type": "Point", "coordinates": [2.977239, 50.667044]}}, {"type": "Feature", "properties": {"stop_name": "Saint-Andr\u00e9", "type": "Gare accessible", "icone": "Icon1"}, "geometry": {"type": "Point", "coordinates": [3.04766, 50.654307]}}, {"type": "Feature", "properties": {"stop_name": "La Madeleine", "type": "Gare accessible", "icone": "Icon1"}, "geometry": {"type": "Point", "coordinates": [3.072631, 50.660628]}}, {"type": "Feature", "properties": {"stop_name": "Saint-Omer", "type": "Gare accessible", "icone": "Icon1"}, "geometry": {"type": "Point", "coordinates": [2.266719, 50.753617999999996]}}, {"type": "Feature", "properties": {"stop_name": "Calais Ville", "type": "Gare accessible", "icone": "Icon1"}, "geometry": {"type": "Point", "coordinates": [1.850885, 50.953466]}}, {"type": "Feature", "properties": {"stop_name": "Audruicq", "type": "Gare accessible", "icone": "Icon1"}, "geometry": {"type": "Point", "coordinates": [2.07633, 50.875668]}}, {"type": "Feature", "properties": {"stop_name": "Watten - \u00c9perlecques", "type": "Gare accessible", "icone": "Icon1"}, "geometry": {"type": "Point", "coordinates": [2.207597, 50.826125]}}, {"type": "Feature", "properties": {"stop_name": "Les Fontinettes", "type": "Gare accessible", "icone": "Icon1"}, "geometry": {"type": "Point", "coordinates": [1.849807, 50.940968]}}, {"type": "Feature", "properties": {"stop_name": "Dunkerque", "type": "Gare accessible", "icone": "Icon1"}, "geometry": {"type": "Point", "coordinates": [2.368991, 51.030409999999996]}}, {"type": "Feature", "properties": {"stop_name": "Bergues", "type": "Gare accessible", "icone": "Icon1"}, "geometry": {"type": "Point", "coordinates": [2.425787, 50.968996999999995]}}, {"type": "Feature", "properties": {"stop_name": "Esquelbecq", "type": "Gare accessible", "icone": "Icon1"}, "geometry": {"type": "Point", "coordinates": [2.412368, 50.889751000000004]}}, {"type": "Feature", "properties": {"stop_name": "Arn\u00e8ke", "type": "Gare accessible", "icone": "Icon1"}, "geometry": {"type": "Point", "coordinates": [2.408468, 50.831509000000004]}}, {"type": "Feature", "properties": {"stop_name": "Cassel", "type": "Gare accessible", "icone": "Icon1"}, "geometry": {"type": "Point", "coordinates": [2.460361, 50.78753]}}, {"type": "Feature", "properties": {"stop_name": "Coudekerque-Branche", "type": "Gare accessible", "icone": "Icon1"}, "geometry": {"type": "Point", "coordinates": [2.375142, 51.017707]}}, {"type": "Feature", "properties": {"stop_name": "Saint-Roch", "type": "Gare accessible", "icone": "Icon1"}, "geometry": {"type": "Point", "coordinates": [2.283716, 49.89342]}}, {"type": "Feature", "properties": {"stop_name": "Poix-de-Picardie", "type": "Gare accessible", "icone": "Icon1"}, "geometry": {"type": "Point", "coordinates": [1.989813, 49.777856]}}, {"type": "Feature", "properties": {"stop_name": "Abancourt", "type": "Gare accessible", "icone": "Icon1"}, "geometry": {"type": "Point", "coordinates": [1.774351, 49.685602]}}, {"type": "Feature", "properties": {"stop_name": "Serqueux", "type": "Gare accessible", "icone": "Icon1"}, "geometry": {"type": "Point", "coordinates": [1.539403, 49.631551]}}, {"type": "Feature", "properties": {"stop_name": "Mont\u00e9rolier - Buchy", "type": "Gare accessible", "icone": "Icon1"}, "geometry": {"type": "Point", "coordinates": [1.334721, 49.603165999999995]}}, {"type": "Feature", "properties": {"stop_name": "Morgny", "type": "Gare accessible", "icone": "Icon1"}, "geometry": {"type": "Point", "coordinates": [1.247359, 49.522874]}}, {"type": "Feature", "properties": {"stop_name": "Rouen Rive Droite", "type": "Gare accessible", "icone": "Icon1"}, "geometry": {"type": "Point", "coordinates": [1.094103, 49.448663]}}]}