{"type": "FeatureCollection", "features": [{"type": "Feature", "properties": {"stop_name": "Lyon-Saint-Paul Quai de Bondy", "type": "Gare s\u00e9lectionn\u00e9e"}, "geometry": {"type": "Point", "coordinates": [4.828287, 45.766595]}}, {"type": "Feature", "properties": {"stop_name": "Lyon Gorge de Loup", "type": "Gare accessible"}, "geometry": {"type": "Point", "coordinates": [4.804697, 45.766095]}}, {"type": "Feature", "properties": {"stop_name": "Ecully Arr\u00eat TCL Demi-Lune Vauboin", "type": "Gare accessible"}, "geometry": {"type": "Point", "coordinates": [4.782094, 45.764424]}}, {"type": "Feature", "properties": {"stop_name": "Dardilly les Mouilles", "type": "Gare accessible"}, "geometry": {"type": "Point", "coordinates": [4.760041, 45.796769]}}, {"type": "Feature", "properties": {"stop_name": "Dardilly - Le Jubin", "type": "Gare accessible"}, "geometry": {"type": "Point", "coordinates": [4.761095, 45.815763000000004]}}, {"type": "Feature", "properties": {"stop_name": "Dommartin La Chicoti\u00e8re D 385", "type": "Gare accessible"}, "geometry": {"type": "Point", "coordinates": [4.732758, 45.844812]}}, {"type": "Feature", "properties": {"stop_name": "Civrieux-d'Azergues D 385", "type": "Gare accessible"}, "geometry": {"type": "Point", "coordinates": [4.712116, 45.857996]}}, {"type": "Feature", "properties": {"stop_name": "Lozanne", "type": "Gare accessible"}, "geometry": {"type": "Point", "coordinates": [4.681474, 45.854174]}}, {"type": "Feature", "properties": {"stop_name": "Tassin-le-Baraillon", "type": "Gare accessible"}, "geometry": {"type": "Point", "coordinates": [4.758132, 45.764511]}}, {"type": "Feature", "properties": {"stop_name": "Le M\u00e9ridien La Ferri\u00e8re", "type": "Gare accessible"}, "geometry": {"type": "Point", "coordinates": [4.748443, 45.768499]}}, {"type": "Feature", "properties": {"stop_name": "Charbonni\u00e8res-les-Bains", "type": "Gare accessible"}, "geometry": {"type": "Point", "coordinates": [4.735875, 45.782173]}}, {"type": "Feature", "properties": {"stop_name": "Casino Lacroix Laval", "type": "Gare accessible"}, "geometry": {"type": "Point", "coordinates": [4.730912, 45.787898999999996]}}, {"type": "Feature", "properties": {"stop_name": "La Tour-de-Salvagny Hippodrome", "type": "Gare accessible"}, "geometry": {"type": "Point", "coordinates": [4.716954, 45.813815999999996]}}, {"type": "Feature", "properties": {"stop_name": "La Tour-de-Salvagny Centre", "type": "Gare accessible"}, "geometry": {"type": "Point", "coordinates": [4.717727, 45.815018]}}, {"type": "Feature", "properties": {"stop_name": "Lentilly Charpenay", "type": "Gare accessible"}, "geometry": {"type": "Point", "coordinates": [4.682375, 45.816519]}}, {"type": "Feature", "properties": {"stop_name": "Lentilly", "type": "Gare accessible"}, "geometry": {"type": "Point", "coordinates": [4.667049, 45.821684000000005]}}, {"type": "Feature", "properties": {"stop_name": "Fleurieux RN7", "type": "Gare accessible"}, "geometry": {"type": "Point", "coordinates": [4.653622, 45.840513]}}, {"type": "Feature", "properties": {"stop_name": "L'Arbresle", "type": "Gare accessible"}, "geometry": {"type": "Point", "coordinates": [4.618262, 45.833285]}}, {"type": "Feature", "properties": {"stop_name": "Sain-Bel", "type": "Gare accessible"}, "geometry": {"type": "Point", "coordinates": [4.601249, 45.811093]}}]}