{"type": "FeatureCollection", "features": [{"type": "Feature", "properties": {"stop_name": "Lyon-Perrache Gare Routi\u00e8re", "type": "Gare s\u00e9lectionn\u00e9e"}, "geometry": {"type": "Point", "coordinates": [4.827332, 45.74912]}}, {"type": "Feature", "properties": {"stop_name": "Saint-Andr\u00e9-le-Gaz", "type": "Gare accessible"}, "geometry": {"type": "Point", "coordinates": [5.524254, 45.544529]}}, {"type": "Feature", "properties": {"stop_name": "La Tour-du-Pin", "type": "Gare accessible"}, "geometry": {"type": "Point", "coordinates": [5.449582, 45.560287]}}, {"type": "Feature", "properties": {"stop_name": "Bourgoin-Jallieu", "type": "Gare accessible"}, "geometry": {"type": "Point", "coordinates": [5.273362, 45.583982]}}, {"type": "Feature", "properties": {"stop_name": "L'Isle-d'Abeau", "type": "Gare accessible"}, "geometry": {"type": "Point", "coordinates": [5.219598, 45.607647]}}, {"type": "Feature", "properties": {"stop_name": "La Verpilli\u00e8re", "type": "Gare accessible"}, "geometry": {"type": "Point", "coordinates": [5.150785, 45.627619]}}, {"type": "Feature", "properties": {"stop_name": "Saint-Quentin-Fallavier", "type": "Gare accessible"}, "geometry": {"type": "Point", "coordinates": [5.099982, 45.638164]}}, {"type": "Feature", "properties": {"stop_name": "V\u00e9nissieux", "type": "Gare accessible"}, "geometry": {"type": "Point", "coordinates": [4.888007, 45.705608000000005]}}, {"type": "Feature", "properties": {"stop_name": "Feyzin-TCL-Gare", "type": "Gare accessible"}, "geometry": {"type": "Point", "coordinates": [4.853366, 45.665875]}}, {"type": "Feature", "properties": {"stop_name": "S\u00e9r\u00e9zin", "type": "Gare accessible"}, "geometry": {"type": "Point", "coordinates": [4.81812, 45.627264000000004]}}, {"type": "Feature", "properties": {"stop_name": "Chasse-sur-Rh\u00f4ne", "type": "Gare accessible"}, "geometry": {"type": "Point", "coordinates": [4.794848, 45.582406]}}, {"type": "Feature", "properties": {"stop_name": "Vienne-Gare-Routi\u00e8re", "type": "Gare accessible"}, "geometry": {"type": "Point", "coordinates": [4.873992, 45.521263]}}, {"type": "Feature", "properties": {"stop_name": "Valence", "type": "Gare accessible"}, "geometry": {"type": "Point", "coordinates": [4.893288, 44.928081]}}, {"type": "Feature", "properties": {"stop_name": "Villefranche-sur-Sa\u00f4ne", "type": "Gare accessible"}, "geometry": {"type": "Point", "coordinates": [4.720798, 45.984482]}}, {"type": "Feature", "properties": {"stop_name": "Anse-Monument", "type": "Gare accessible"}, "geometry": {"type": "Point", "coordinates": [4.718314, 45.936999]}}, {"type": "Feature", "properties": {"stop_name": "Quincieux", "type": "Gare accessible"}, "geometry": {"type": "Point", "coordinates": [4.77857, 45.906914]}}, {"type": "Feature", "properties": {"stop_name": "Saint-Germain-au-Mont-d'Or", "type": "Gare accessible"}, "geometry": {"type": "Point", "coordinates": [4.804206, 45.888431]}}, {"type": "Feature", "properties": {"stop_name": "Albigny-Neuville-Arret-TCL-Gare", "type": "Gare accessible"}, "geometry": {"type": "Point", "coordinates": [4.833042, 45.875356]}}, {"type": "Feature", "properties": {"stop_name": "Couzon-Au-Mont-D'Or-Arret-Tcl-Gare", "type": "Gare accessible"}, "geometry": {"type": "Point", "coordinates": [4.832053, 45.848577]}}, {"type": "Feature", "properties": {"stop_name": "Collonges Fontaines Arret Tcl Gare", "type": "Gare accessible"}, "geometry": {"type": "Point", "coordinates": [4.846677, 45.829076]}}, {"type": "Feature", "properties": {"stop_name": "Lyon-Vaise-Gare-Routi\u00e8re", "type": "Gare accessible"}, "geometry": {"type": "Point", "coordinates": [4.803685, 45.779610999999996]}}]}