{"type": "FeatureCollection", "features": [{"type": "Feature", "properties": {"stop_name": "Moutiers-Lyc\u00e9e", "type": "Gare s\u00e9lectionn\u00e9e"}, "geometry": {"type": "Point", "coordinates": [6.527204, 45.483121000000004]}}, {"type": "Feature", "properties": {"stop_name": "Chamb\u00e9ry - Challes-les-Eaux", "type": "Gare accessible"}, "geometry": {"type": "Point", "coordinates": [5.919547, 45.571302]}}, {"type": "Feature", "properties": {"stop_name": "Montm\u00e9lian", "type": "Gare accessible"}, "geometry": {"type": "Point", "coordinates": [6.043175, 45.503082]}}, {"type": "Feature", "properties": {"stop_name": "Saint-Pierre-d'Albigny", "type": "Gare accessible"}, "geometry": {"type": "Point", "coordinates": [6.156289, 45.557399]}}, {"type": "Feature", "properties": {"stop_name": "Gr\u00e9sy-sur-Is\u00e8re", "type": "Gare accessible"}, "geometry": {"type": "Point", "coordinates": [6.258838, 45.594467]}}, {"type": "Feature", "properties": {"stop_name": "Frontenex", "type": "Gare accessible"}, "geometry": {"type": "Point", "coordinates": [6.314041, 45.630568]}}, {"type": "Feature", "properties": {"stop_name": "Albertville", "type": "Gare accessible"}, "geometry": {"type": "Point", "coordinates": [6.383167, 45.672977]}}, {"type": "Feature", "properties": {"stop_name": "Mo\u00fbtiers-Salins-Brides-les-B.", "type": "Gare accessible"}, "geometry": {"type": "Point", "coordinates": [6.531399, 45.486470000000004]}}, {"type": "Feature", "properties": {"stop_name": "Aime - La Plagne", "type": "Gare accessible"}, "geometry": {"type": "Point", "coordinates": [6.648614, 45.554387]}}, {"type": "Feature", "properties": {"stop_name": "Landry", "type": "Gare accessible"}, "geometry": {"type": "Point", "coordinates": [6.733849, 45.574213]}}, {"type": "Feature", "properties": {"stop_name": "Bourg-Saint-Maurice", "type": "Gare accessible"}, "geometry": {"type": "Point", "coordinates": [6.771273, 45.619036]}}, {"type": "Feature", "properties": {"stop_name": "Aigueblanche-Centre", "type": "Gare accessible"}, "geometry": {"type": "Point", "coordinates": [6.508605, 45.501835]}}, {"type": "Feature", "properties": {"stop_name": "La L\u00e9ch\u00e8re les Bains Petit Coeur", "type": "Gare accessible"}, "geometry": {"type": "Point", "coordinates": [6.484015, 45.520481]}}, {"type": "Feature", "properties": {"stop_name": "Notre-Dame de Brian\u00e7on", "type": "Gare accessible"}, "geometry": {"type": "Point", "coordinates": [6.468855, 45.539384000000005]}}, {"type": "Feature", "properties": {"stop_name": "Saint-Paul Coll\u00e8ge", "type": "Gare accessible"}, "geometry": {"type": "Point", "coordinates": [6.440971, 45.594529]}}, {"type": "Feature", "properties": {"stop_name": "C\u00e9vins-\u00e9changeur", "type": "Gare accessible"}, "geometry": {"type": "Point", "coordinates": [6.446614, 45.595002]}}, {"type": "Feature", "properties": {"stop_name": "La Bathie", "type": "Gare accessible"}, "geometry": {"type": "Point", "coordinates": [6.445101, 45.630508]}}]}