{"type": "FeatureCollection", "features": [{"type": "Feature", "properties": {"stop_name": "Neufch\u00e2teau", "type": "Gare s\u00e9lectionn\u00e9e", "icone": "Icon2"}, "geometry": {"type": "Point", "coordinates": [5.691036, 48.358092]}}, {"type": "Feature", "properties": {"stop_name": "Toul", "type": "Gare accessible", "icone": "Icon1"}, "geometry": {"type": "Point", "coordinates": [5.880499, 48.679010999999996]}}, {"type": "Feature", "properties": {"stop_name": "Dijon", "type": "Gare accessible", "icone": "Icon1"}, "geometry": {"type": "Point", "coordinates": [5.027256, 47.323411]}}, {"type": "Feature", "properties": {"stop_name": "Nancy", "type": "Gare accessible", "icone": "Icon1"}, "geometry": {"type": "Point", "coordinates": [6.174579, 48.689857]}}, {"type": "Feature", "properties": {"stop_name": "Liverdun", "type": "Gare accessible", "icone": "Icon1"}, "geometry": {"type": "Point", "coordinates": [6.061669, 48.749387]}}, {"type": "Feature", "properties": {"stop_name": "Fontenoy-sur-Moselle", "type": "Gare accessible", "icone": "Icon1"}, "geometry": {"type": "Point", "coordinates": [5.980173, 48.711419]}}, {"type": "Feature", "properties": {"stop_name": "Culmont - Chalindrey", "type": "Gare accessible", "icone": "Icon1"}, "geometry": {"type": "Point", "coordinates": [5.443219, 47.810202000000004]}}, {"type": "Feature", "properties": {"stop_name": "Is-sur-Tille", "type": "Gare accessible", "icone": "Icon1"}, "geometry": {"type": "Point", "coordinates": [5.129481, 47.520454]}}]}