{"type": "FeatureCollection", "features": [{"type": "Feature", "properties": {"stop_name": "Offenburg", "type": "Gare s\u00e9lectionn\u00e9e", "icone": "Icon2"}, "geometry": {"type": "Point", "coordinates": [7.9468, 48.4765]}}, {"type": "Feature", "properties": {"stop_name": "Strasbourg", "type": "Gare accessible", "icone": "Icon1"}, "geometry": {"type": "Point", "coordinates": [7.734793, 48.584532]}}, {"type": "Feature", "properties": {"stop_name": "Krimmeri Meinau", "type": "Gare accessible", "icone": "Icon1"}, "geometry": {"type": "Point", "coordinates": [7.752614, 48.563644000000004]}}, {"type": "Feature", "properties": {"stop_name": "Kehl", "type": "Gare accessible", "icone": "Icon1"}, "geometry": {"type": "Point", "coordinates": [7.8063, 48.5767]}}, {"type": "Feature", "properties": {"stop_name": "Kork", "type": "Gare accessible", "icone": "Icon1"}, "geometry": {"type": "Point", "coordinates": [7.8744, 48.5702]}}, {"type": "Feature", "properties": {"stop_name": "Legelshurst", "type": "Gare accessible", "icone": "Icon1"}, "geometry": {"type": "Point", "coordinates": [7.9138, 48.5585]}}, {"type": "Feature", "properties": {"stop_name": "Appenweier", "type": "Gare accessible", "icone": "Icon1"}, "geometry": {"type": "Point", "coordinates": [7.9735, 48.5419]}}]}