{"type": "FeatureCollection", "features": [{"type": "Feature", "properties": {"stop_name": "Orschwiller Chapelle", "type": "Gare s\u00e9lectionn\u00e9e"}, "geometry": {"type": "Point", "coordinates": [7.384612, 48.241195000000005]}}, {"type": "Feature", "properties": {"stop_name": "Ribeauville Gare Routi\u00e8re", "type": "Gare accessible"}, "geometry": {"type": "Point", "coordinates": [7.325821, 48.19223]}}, {"type": "Feature", "properties": {"stop_name": "Bergheim Porte haute", "type": "Gare accessible"}, "geometry": {"type": "Point", "coordinates": [7.357543, 48.205616]}}, {"type": "Feature", "properties": {"stop_name": "Rorschwihr Mairie", "type": "Gare accessible"}, "geometry": {"type": "Point", "coordinates": [7.36257, 48.217302000000004]}}, {"type": "Feature", "properties": {"stop_name": "Saint-Hippolyte Parc Walter", "type": "Gare accessible"}, "geometry": {"type": "Point", "coordinates": [7.366947, 48.232167]}}, {"type": "Feature", "properties": {"stop_name": "Saint-Hippolyte H\u00f4tel Munsch", "type": "Gare accessible"}, "geometry": {"type": "Point", "coordinates": [7.373267, 48.230526]}}, {"type": "Feature", "properties": {"stop_name": "Kintzheim Mairie", "type": "Gare accessible"}, "geometry": {"type": "Point", "coordinates": [7.394972, 48.254552000000004]}}, {"type": "Feature", "properties": {"stop_name": "Cigoland", "type": "Gare accessible"}, "geometry": {"type": "Point", "coordinates": [7.419907, 48.256268]}}, {"type": "Feature", "properties": {"stop_name": "S\u00e9lestat", "type": "Gare accessible"}, "geometry": {"type": "Point", "coordinates": [7.443157, 48.259824]}}, {"type": "Feature", "properties": {"stop_name": "Riquewihr Poste", "type": "Gare accessible"}, "geometry": {"type": "Point", "coordinates": [7.299868, 48.165896000000004]}}, {"type": "Feature", "properties": {"stop_name": "Zellenberg Route du Vin", "type": "Gare accessible"}, "geometry": {"type": "Point", "coordinates": [7.31838, 48.170526]}}]}