{"type": "FeatureCollection", "features": [{"type": "Feature", "properties": {"stop_name": "Pagny-sur-Moselle", "type": "Gare s\u00e9lectionn\u00e9e", "icone": "Icon2"}, "geometry": {"type": "Point", "coordinates": [6.025035, 48.9852]}}, {"type": "Feature", "properties": {"stop_name": "\u00c9pinal", "type": "Gare accessible", "icone": "Icon1"}, "geometry": {"type": "Point", "coordinates": [6.441787, 48.178005]}}, {"type": "Feature", "properties": {"stop_name": "Thaon", "type": "Gare accessible", "icone": "Icon1"}, "geometry": {"type": "Point", "coordinates": [6.416337, 48.244686]}}, {"type": "Feature", "properties": {"stop_name": "Igney", "type": "Gare accessible", "icone": "Icon1"}, "geometry": {"type": "Point", "coordinates": [6.39969, 48.270747]}}, {"type": "Feature", "properties": {"stop_name": "Ch\u00e2tel - Nomexy", "type": "Gare accessible", "icone": "Icon1"}, "geometry": {"type": "Point", "coordinates": [6.388008, 48.307114]}}, {"type": "Feature", "properties": {"stop_name": "Vincey", "type": "Gare accessible", "icone": "Icon1"}, "geometry": {"type": "Point", "coordinates": [6.335801, 48.343424]}}, {"type": "Feature", "properties": {"stop_name": "Charmes", "type": "Gare accessible", "icone": "Icon1"}, "geometry": {"type": "Point", "coordinates": [6.301537, 48.378483]}}, {"type": "Feature", "properties": {"stop_name": "Bayon", "type": "Gare accessible", "icone": "Icon1"}, "geometry": {"type": "Point", "coordinates": [6.32286, 48.468045000000004]}}, {"type": "Feature", "properties": {"stop_name": "Einvaux", "type": "Gare accessible", "icone": "Icon1"}, "geometry": {"type": "Point", "coordinates": [6.393244, 48.503597]}}, {"type": "Feature", "properties": {"stop_name": "Nancy", "type": "Gare accessible", "icone": "Icon1"}, "geometry": {"type": "Point", "coordinates": [6.174579, 48.689857]}}, {"type": "Feature", "properties": {"stop_name": "Frouard", "type": "Gare accessible", "icone": "Icon1"}, "geometry": {"type": "Point", "coordinates": [6.143927, 48.755428]}}, {"type": "Feature", "properties": {"stop_name": "Pompey", "type": "Gare accessible", "icone": "Icon1"}, "geometry": {"type": "Point", "coordinates": [6.13061, 48.77304]}}, {"type": "Feature", "properties": {"stop_name": "Marbache", "type": "Gare accessible", "icone": "Icon1"}, "geometry": {"type": "Point", "coordinates": [6.108779, 48.801156]}}, {"type": "Feature", "properties": {"stop_name": "Dieulouard", "type": "Gare accessible", "icone": "Icon1"}, "geometry": {"type": "Point", "coordinates": [6.071505, 48.843826]}}, {"type": "Feature", "properties": {"stop_name": "Pont-\u00e0-Mousson", "type": "Gare accessible", "icone": "Icon1"}, "geometry": {"type": "Point", "coordinates": [6.051021, 48.900348]}}, {"type": "Feature", "properties": {"stop_name": "Nov\u00e9ant-sur-Moselle", "type": "Gare accessible", "icone": "Icon1"}, "geometry": {"type": "Point", "coordinates": [6.052051, 49.028717]}}, {"type": "Feature", "properties": {"stop_name": "Ancy-sur-Moselle", "type": "Gare accessible", "icone": "Icon1"}, "geometry": {"type": "Point", "coordinates": [6.062342, 49.057714000000004]}}, {"type": "Feature", "properties": {"stop_name": "Ars-sur-Moselle", "type": "Gare accessible", "icone": "Icon1"}, "geometry": {"type": "Point", "coordinates": [6.077646, 49.074475]}}, {"type": "Feature", "properties": {"stop_name": "Metz", "type": "Gare accessible", "icone": "Icon1"}, "geometry": {"type": "Point", "coordinates": [6.177052, 49.109466]}}, {"type": "Feature", "properties": {"stop_name": "Blainville - Damelevi\u00e8res", "type": "Gare accessible", "icone": "Icon1"}, "geometry": {"type": "Point", "coordinates": [6.386948, 48.564799]}}, {"type": "Feature", "properties": {"stop_name": "Champigneulles", "type": "Gare accessible", "icone": "Icon1"}, "geometry": {"type": "Point", "coordinates": [6.168952, 48.735025]}}, {"type": "Feature", "properties": {"stop_name": "Remiremont", "type": "Gare accessible", "icone": "Icon1"}, "geometry": {"type": "Point", "coordinates": [6.598879, 48.016342]}}, {"type": "Feature", "properties": {"stop_name": "Saint-Nabord", "type": "Gare accessible", "icone": "Icon1"}, "geometry": {"type": "Point", "coordinates": [6.581572, 48.045742]}}, {"type": "Feature", "properties": {"stop_name": "\u00c9loyes", "type": "Gare accessible", "icone": "Icon1"}, "geometry": {"type": "Point", "coordinates": [6.600101, 48.087196]}}, {"type": "Feature", "properties": {"stop_name": "Pouxeux", "type": "Gare accessible", "icone": "Icon1"}, "geometry": {"type": "Point", "coordinates": [6.569532, 48.108806]}}, {"type": "Feature", "properties": {"stop_name": "Arches Gare", "type": "Gare accessible", "icone": "Icon1"}, "geometry": {"type": "Point", "coordinates": [6.528105, 48.118896]}}, {"type": "Feature", "properties": {"stop_name": "Varang\u00e9ville - Saint-Nicolas", "type": "Gare accessible", "icone": "Icon1"}, "geometry": {"type": "Point", "coordinates": [6.313142, 48.635215]}}, {"type": "Feature", "properties": {"stop_name": "Lun\u00e9ville", "type": "Gare accessible", "icone": "Icon1"}, "geometry": {"type": "Point", "coordinates": [6.496997, 48.587990000000005]}}, {"type": "Feature", "properties": {"stop_name": "Rosi\u00e8res-aux-Salines", "type": "Gare accessible", "icone": "Icon1"}, "geometry": {"type": "Point", "coordinates": [6.350631, 48.605441]}}, {"type": "Feature", "properties": {"stop_name": "Dombasle-sur-Meurthe", "type": "Gare accessible", "icone": "Icon1"}, "geometry": {"type": "Point", "coordinates": [6.343566, 48.623332]}}, {"type": "Feature", "properties": {"stop_name": "Belleville", "type": "Gare accessible", "icone": "Icon1"}, "geometry": {"type": "Point", "coordinates": [6.101779, 48.819245]}}, {"type": "Feature", "properties": {"stop_name": "Vandi\u00e8res", "type": "Gare accessible", "icone": "Icon1"}, "geometry": {"type": "Point", "coordinates": [6.037921, 48.951493]}}, {"type": "Feature", "properties": {"stop_name": "Thionville", "type": "Gare accessible", "icone": "Icon1"}, "geometry": {"type": "Point", "coordinates": [6.168582, 49.353965]}}, {"type": "Feature", "properties": {"stop_name": "Uckange", "type": "Gare accessible", "icone": "Icon1"}, "geometry": {"type": "Point", "coordinates": [6.1566, 49.303459000000004]}}, {"type": "Feature", "properties": {"stop_name": "Hagondange", "type": "Gare accessible", "icone": "Icon1"}, "geometry": {"type": "Point", "coordinates": [6.16448, 49.25356]}}, {"type": "Feature", "properties": {"stop_name": "Howald", "type": "Gare accessible", "icone": "Icon1"}, "geometry": {"type": "Point", "coordinates": [6.13232, 49.58032]}}, {"type": "Feature", "properties": {"stop_name": "Luxembourg", "type": "Gare accessible", "icone": "Icon1"}, "geometry": {"type": "Point", "coordinates": [6.134722, 49.599722]}}, {"type": "Feature", "properties": {"stop_name": "Bettembourg", "type": "Gare accessible", "icone": "Icon1"}, "geometry": {"type": "Point", "coordinates": [6.101111, 49.516110999999995]}}, {"type": "Feature", "properties": {"stop_name": "Hettange-Grande", "type": "Gare accessible", "icone": "Icon1"}, "geometry": {"type": "Point", "coordinates": [6.156759, 49.407685]}}, {"type": "Feature", "properties": {"stop_name": "Maizi\u00e8res-l\u00e8s-Metz", "type": "Gare accessible", "icone": "Icon1"}, "geometry": {"type": "Point", "coordinates": [6.158727, 49.215536]}}, {"type": "Feature", "properties": {"stop_name": "Woippy", "type": "Gare accessible", "icone": "Icon1"}, "geometry": {"type": "Point", "coordinates": [6.155621, 49.148796999999995]}}, {"type": "Feature", "properties": {"stop_name": "Metz Nord", "type": "Gare accessible", "icone": "Icon1"}, "geometry": {"type": "Point", "coordinates": [6.167538, 49.136865]}}]}