{"type": "FeatureCollection", "features": [{"type": "Feature", "properties": {"stop_name": "Perrignier", "type": "Gare s\u00e9lectionn\u00e9e", "icone": "Icon2"}, "geometry": {"type": "Point", "coordinates": [6.424888, 46.303340999999996]}}, {"type": "Feature", "properties": {"stop_name": "Annemasse", "type": "Gare accessible", "icone": "Icon1"}, "geometry": {"type": "Point", "coordinates": [6.236431, 46.199245]}}, {"type": "Feature", "properties": {"stop_name": "Machilly", "type": "Gare accessible", "icone": "Icon1"}, "geometry": {"type": "Point", "coordinates": [6.328197, 46.251292]}}, {"type": "Feature", "properties": {"stop_name": "Bons-en-Chablais", "type": "Gare accessible", "icone": "Icon1"}, "geometry": {"type": "Point", "coordinates": [6.36647, 46.270109999999995]}}, {"type": "Feature", "properties": {"stop_name": "Thonon-les-Bains", "type": "Gare accessible", "icone": "Icon1"}, "geometry": {"type": "Point", "coordinates": [6.481673, 46.368989]}}, {"type": "Feature", "properties": {"stop_name": "\u00c9vian-les-Bains", "type": "Gare accessible", "icone": "Icon1"}, "geometry": {"type": "Point", "coordinates": [6.577469, 46.397915999999995]}}, {"type": "Feature", "properties": {"stop_name": "Bellegarde", "type": "Gare accessible", "icone": "Icon1"}, "geometry": {"type": "Point", "coordinates": [5.823483, 46.109425]}}, {"type": "Feature", "properties": {"stop_name": "Valleiry", "type": "Gare accessible", "icone": "Icon1"}, "geometry": {"type": "Point", "coordinates": [5.967379, 46.109343]}}, {"type": "Feature", "properties": {"stop_name": "Saint-Julien-en-Genevois", "type": "Gare accessible", "icone": "Icon1"}, "geometry": {"type": "Point", "coordinates": [6.085527, 46.142075]}}]}