{"type": "FeatureCollection", "features": [{"type": "Feature", "properties": {"stop_name": "Pontmort RN9-D17", "type": "Gare s\u00e9lectionn\u00e9e"}, "geometry": {"type": "Point", "coordinates": [3.1669, 45.9438]}}, {"type": "Feature", "properties": {"stop_name": "Clermont-Ferrand", "type": "Gare accessible"}, "geometry": {"type": "Point", "coordinates": [3.100543, 45.778945]}}, {"type": "Feature", "properties": {"stop_name": "Riom - Ch\u00e2tel-Guyon", "type": "Gare accessible"}, "geometry": {"type": "Point", "coordinates": [3.120498, 45.889965000000004]}}, {"type": "Feature", "properties": {"stop_name": "Aigueperse", "type": "Gare accessible"}, "geometry": {"type": "Point", "coordinates": [3.197912, 46.014869]}}, {"type": "Feature", "properties": {"stop_name": "Gannat Lycee Eiffel", "type": "Gare accessible"}, "geometry": {"type": "Point", "coordinates": [3.197861, 46.086182]}}, {"type": "Feature", "properties": {"stop_name": "Gannat", "type": "Gare accessible"}, "geometry": {"type": "Point", "coordinates": [3.204773, 46.097592]}}, {"type": "Feature", "properties": {"stop_name": "Gannat Lycee Ste Procule", "type": "Gare accessible"}, "geometry": {"type": "Point", "coordinates": [3.19001, 46.099225]}}]}