{"type": "FeatureCollection", "features": [{"type": "Feature", "properties": {"stop_name": "Pont de Briques", "type": "Gare s\u00e9lectionn\u00e9e", "icone": "Icon2"}, "geometry": {"type": "Point", "coordinates": [1.627151, 50.682469]}}, {"type": "Feature", "properties": {"stop_name": "Calais Ville", "type": "Gare accessible", "icone": "Icon1"}, "geometry": {"type": "Point", "coordinates": [1.850885, 50.953466]}}, {"type": "Feature", "properties": {"stop_name": "Les Fontinettes", "type": "Gare accessible", "icone": "Icon1"}, "geometry": {"type": "Point", "coordinates": [1.849807, 50.940968]}}, {"type": "Feature", "properties": {"stop_name": "Calais - Fr\u00e9thun", "type": "Gare accessible", "icone": "Icon1"}, "geometry": {"type": "Point", "coordinates": [1.811205, 50.901441]}}, {"type": "Feature", "properties": {"stop_name": "Pihen", "type": "Gare accessible", "icone": "Icon1"}, "geometry": {"type": "Point", "coordinates": [1.784589, 50.872803000000005]}}, {"type": "Feature", "properties": {"stop_name": "Caffiers", "type": "Gare accessible", "icone": "Icon1"}, "geometry": {"type": "Point", "coordinates": [1.812034, 50.850068]}}, {"type": "Feature", "properties": {"stop_name": "Le Haut Banc", "type": "Gare accessible", "icone": "Icon1"}, "geometry": {"type": "Point", "coordinates": [1.772519, 50.816399]}}, {"type": "Feature", "properties": {"stop_name": "Marquise - Rinxent", "type": "Gare accessible", "icone": "Icon1"}, "geometry": {"type": "Point", "coordinates": [1.729861, 50.80567]}}, {"type": "Feature", "properties": {"stop_name": "Wimille - Wimereux", "type": "Gare accessible", "icone": "Icon1"}, "geometry": {"type": "Point", "coordinates": [1.613649, 50.763913]}}, {"type": "Feature", "properties": {"stop_name": "Boulogne - Tintelleries", "type": "Gare accessible", "icone": "Icon1"}, "geometry": {"type": "Point", "coordinates": [1.609071, 50.727281]}}, {"type": "Feature", "properties": {"stop_name": "Boulogne", "type": "Gare accessible", "icone": "Icon1"}, "geometry": {"type": "Point", "coordinates": [1.60964, 50.7157]}}, {"type": "Feature", "properties": {"stop_name": "Hesdigneul", "type": "Gare accessible", "icone": "Icon1"}, "geometry": {"type": "Point", "coordinates": [1.666998, 50.661095]}}, {"type": "Feature", "properties": {"stop_name": "Neufch\u00e2tel-Hardelot", "type": "Gare accessible", "icone": "Icon1"}, "geometry": {"type": "Point", "coordinates": [1.643328, 50.623627]}}, {"type": "Feature", "properties": {"stop_name": "Dannes - Camiers", "type": "Gare accessible", "icone": "Icon1"}, "geometry": {"type": "Point", "coordinates": [1.61476, 50.575886]}}, {"type": "Feature", "properties": {"stop_name": "\u00c9taples - Le Touquet", "type": "Gare accessible", "icone": "Icon1"}, "geometry": {"type": "Point", "coordinates": [1.64231, 50.51686]}}, {"type": "Feature", "properties": {"stop_name": "Rang-du-Fliers - Verton - Berck", "type": "Gare accessible", "icone": "Icon1"}, "geometry": {"type": "Point", "coordinates": [1.648099, 50.415833]}}]}