{"type": "FeatureCollection", "features": [{"type": "Feature", "properties": {"stop_name": "Portet Saint-Simon", "type": "Gare s\u00e9lectionn\u00e9e", "icone": "Icon2"}, "geometry": {"type": "Point", "coordinates": [1.389243, 43.527904]}}, {"type": "Feature", "properties": {"stop_name": "Toulouse Matabiau", "type": "Gare accessible", "icone": "Icon1"}, "geometry": {"type": "Point", "coordinates": [1.453616, 43.611206]}}, {"type": "Feature", "properties": {"stop_name": "Venerque - Le Vernet", "type": "Gare accessible", "icone": "Icon1"}, "geometry": {"type": "Point", "coordinates": [1.425956, 43.433359]}}, {"type": "Feature", "properties": {"stop_name": "Auterive", "type": "Gare accessible", "icone": "Icon1"}, "geometry": {"type": "Point", "coordinates": [1.468831, 43.348993]}}, {"type": "Feature", "properties": {"stop_name": "Cintegabelle-Rond-Point", "type": "Gare accessible", "icone": "Icon1"}, "geometry": {"type": "Point", "coordinates": [1.521177, 43.305381]}}, {"type": "Feature", "properties": {"stop_name": "Saverdun", "type": "Gare accessible", "icone": "Icon1"}, "geometry": {"type": "Point", "coordinates": [1.570636, 43.239335]}}, {"type": "Feature", "properties": {"stop_name": "Le Vernet", "type": "Gare accessible", "icone": "Icon1"}, "geometry": {"type": "Point", "coordinates": [1.609749, 43.184272]}}, {"type": "Feature", "properties": {"stop_name": "Pamiers", "type": "Gare accessible", "icone": "Icon1"}, "geometry": {"type": "Point", "coordinates": [1.619451, 43.116207]}}, {"type": "Feature", "properties": {"stop_name": "Varilhes", "type": "Gare accessible", "icone": "Icon1"}, "geometry": {"type": "Point", "coordinates": [1.628318, 43.041594]}}, {"type": "Feature", "properties": {"stop_name": "Foix", "type": "Gare accessible", "icone": "Icon1"}, "geometry": {"type": "Point", "coordinates": [1.60704, 42.969707]}}, {"type": "Feature", "properties": {"stop_name": "Saint-Jean-de-Verges", "type": "Gare accessible", "icone": "Icon1"}, "geometry": {"type": "Point", "coordinates": [1.608105, 43.01259]}}, {"type": "Feature", "properties": {"stop_name": "Le Vernet d'Ari\u00e8ge", "type": "Gare accessible", "icone": "Icon1"}, "geometry": {"type": "Point", "coordinates": [1.611911, 43.189541]}}, {"type": "Feature", "properties": {"stop_name": "Cintegabelle", "type": "Gare accessible", "icone": "Icon1"}, "geometry": {"type": "Point", "coordinates": [1.520477, 43.305409000000004]}}, {"type": "Feature", "properties": {"stop_name": "Pins-Justaret", "type": "Gare accessible", "icone": "Icon1"}, "geometry": {"type": "Point", "coordinates": [1.399645, 43.479213]}}, {"type": "Feature", "properties": {"stop_name": "Saint-Agne", "type": "Gare accessible", "icone": "Icon1"}, "geometry": {"type": "Point", "coordinates": [1.45012, 43.579477000000004]}}, {"type": "Feature", "properties": {"stop_name": "Ax-les-Thermes", "type": "Gare accessible", "icone": "Icon1"}, "geometry": {"type": "Point", "coordinates": [1.833295, 42.724841]}}, {"type": "Feature", "properties": {"stop_name": "Luzenac - Garanou", "type": "Gare accessible", "icone": "Icon1"}, "geometry": {"type": "Point", "coordinates": [1.753416, 42.764472]}}, {"type": "Feature", "properties": {"stop_name": "Les Cabannes", "type": "Gare accessible", "icone": "Icon1"}, "geometry": {"type": "Point", "coordinates": [1.686299, 42.786285]}}, {"type": "Feature", "properties": {"stop_name": "Tarascon-sur-Ari\u00e8ge", "type": "Gare accessible", "icone": "Icon1"}, "geometry": {"type": "Point", "coordinates": [1.600042, 42.849498]}}, {"type": "Feature", "properties": {"stop_name": "Latour-de-Carol - Enveitg", "type": "Gare accessible", "icone": "Icon1"}, "geometry": {"type": "Point", "coordinates": [1.904433, 42.458991]}}, {"type": "Feature", "properties": {"stop_name": "Port\u00e9-Puymorens", "type": "Gare accessible", "icone": "Icon1"}, "geometry": {"type": "Point", "coordinates": [1.824852, 42.538781]}}, {"type": "Feature", "properties": {"stop_name": "L'Hospitalet pr\u00e8s l'Andorre", "type": "Gare accessible", "icone": "Icon1"}, "geometry": {"type": "Point", "coordinates": [1.800264, 42.589453000000006]}}, {"type": "Feature", "properties": {"stop_name": "M\u00e9rens-les-Vals", "type": "Gare accessible", "icone": "Icon1"}, "geometry": {"type": "Point", "coordinates": [1.837128, 42.659488]}}, {"type": "Feature", "properties": {"stop_name": "Muret", "type": "Gare accessible", "icone": "Icon1"}, "geometry": {"type": "Point", "coordinates": [1.324449, 43.464824]}}, {"type": "Feature", "properties": {"stop_name": "Boussens", "type": "Gare accessible", "icone": "Icon1"}, "geometry": {"type": "Point", "coordinates": [0.972543, 43.179617]}}, {"type": "Feature", "properties": {"stop_name": "Martres-Tolosane", "type": "Gare accessible", "icone": "Icon1"}, "geometry": {"type": "Point", "coordinates": [1.016416, 43.196253999999996]}}, {"type": "Feature", "properties": {"stop_name": "Caz\u00e8res", "type": "Gare accessible", "icone": "Icon1"}, "geometry": {"type": "Point", "coordinates": [1.083106, 43.212834]}}, {"type": "Feature", "properties": {"stop_name": "Carbonne", "type": "Gare accessible", "icone": "Icon1"}, "geometry": {"type": "Point", "coordinates": [1.212514, 43.298219]}}, {"type": "Feature", "properties": {"stop_name": "Longages - No\u00e9", "type": "Gare accessible", "icone": "Icon1"}, "geometry": {"type": "Point", "coordinates": [1.251657, 43.356471]}}, {"type": "Feature", "properties": {"stop_name": "Le Fauga", "type": "Gare accessible", "icone": "Icon1"}, "geometry": {"type": "Point", "coordinates": [1.28306, 43.404424]}}, {"type": "Feature", "properties": {"stop_name": "Saint-Martory", "type": "Gare accessible", "icone": "Icon1"}, "geometry": {"type": "Point", "coordinates": [0.934754, 43.138672]}}, {"type": "Feature", "properties": {"stop_name": "Saint-Gaudens", "type": "Gare accessible", "icone": "Icon1"}, "geometry": {"type": "Point", "coordinates": [0.729154, 43.105048]}}, {"type": "Feature", "properties": {"stop_name": "Montr\u00e9jeau - Gourdan-Polignan", "type": "Gare accessible", "icone": "Icon1"}, "geometry": {"type": "Point", "coordinates": [0.57359, 43.078084999999994]}}]}