{"type": "FeatureCollection", "features": [{"type": "Feature", "properties": {"stop_name": "Preignac", "type": "Gare s\u00e9lectionn\u00e9e", "icone": "Icon2"}, "geometry": {"type": "Point", "coordinates": [-0.302095, 44.57847]}}, {"type": "Feature", "properties": {"stop_name": "Langon", "type": "Gare accessible", "icone": "Icon1"}, "geometry": {"type": "Point", "coordinates": [-0.25553400000000004, 44.555414]}}, {"type": "Feature", "properties": {"stop_name": "Barsac", "type": "Gare accessible", "icone": "Icon1"}, "geometry": {"type": "Point", "coordinates": [-0.32157800000000003, 44.605431]}}, {"type": "Feature", "properties": {"stop_name": "C\u00e9rons", "type": "Gare accessible", "icone": "Icon1"}, "geometry": {"type": "Point", "coordinates": [-0.340526, 44.632346000000005]}}, {"type": "Feature", "properties": {"stop_name": "Podensac", "type": "Gare accessible", "icone": "Icon1"}, "geometry": {"type": "Point", "coordinates": [-0.358823, 44.648962]}}, {"type": "Feature", "properties": {"stop_name": "Arbanats", "type": "Gare accessible", "icone": "Icon1"}, "geometry": {"type": "Point", "coordinates": [-0.39551, 44.674372999999996]}}, {"type": "Feature", "properties": {"stop_name": "Portets", "type": "Gare accessible", "icone": "Icon1"}, "geometry": {"type": "Point", "coordinates": [-0.425393, 44.6929]}}, {"type": "Feature", "properties": {"stop_name": "Beautiran", "type": "Gare accessible", "icone": "Icon1"}, "geometry": {"type": "Point", "coordinates": [-0.45017399999999996, 44.701059]}}, {"type": "Feature", "properties": {"stop_name": "Saint-M\u00e9dard-d'Eyrans", "type": "Gare accessible", "icone": "Icon1"}, "geometry": {"type": "Point", "coordinates": [-0.505717, 44.716857]}}, {"type": "Feature", "properties": {"stop_name": "Cadaujac", "type": "Gare accessible", "icone": "Icon1"}, "geometry": {"type": "Point", "coordinates": [-0.537706, 44.752154]}}, {"type": "Feature", "properties": {"stop_name": "Villenave-d'Ornon", "type": "Gare accessible", "icone": "Icon1"}, "geometry": {"type": "Point", "coordinates": [-0.547257, 44.768343]}}, {"type": "Feature", "properties": {"stop_name": "Bordeaux Saint-Jean", "type": "Gare accessible", "icone": "Icon1"}, "geometry": {"type": "Point", "coordinates": [-0.556697, 44.825873]}}, {"type": "Feature", "properties": {"stop_name": "B\u00e8gles", "type": "Gare accessible", "icone": "Icon1"}, "geometry": {"type": "Point", "coordinates": [-0.555357, 44.799319]}}, {"type": "Feature", "properties": {"stop_name": "Marmande", "type": "Gare accessible", "icone": "Icon1"}, "geometry": {"type": "Point", "coordinates": [0.168091, 44.503071000000006]}}, {"type": "Feature", "properties": {"stop_name": "Sainte-Bazeille", "type": "Gare accessible", "icone": "Icon1"}, "geometry": {"type": "Point", "coordinates": [0.093127, 44.532694]}}, {"type": "Feature", "properties": {"stop_name": "Lamothe-Landerron", "type": "Gare accessible", "icone": "Icon1"}, "geometry": {"type": "Point", "coordinates": [0.045201, 44.562907]}}, {"type": "Feature", "properties": {"stop_name": "La R\u00e9ole", "type": "Gare accessible", "icone": "Icon1"}, "geometry": {"type": "Point", "coordinates": [-0.030674, 44.57977]}}, {"type": "Feature", "properties": {"stop_name": "Gironde", "type": "Gare accessible", "icone": "Icon1"}, "geometry": {"type": "Point", "coordinates": [-0.092013, 44.583292]}}, {"type": "Feature", "properties": {"stop_name": "Caudrot", "type": "Gare accessible", "icone": "Icon1"}, "geometry": {"type": "Point", "coordinates": [-0.14516099999999998, 44.58014]}}, {"type": "Feature", "properties": {"stop_name": "Saint-Pierre-d'Aurillac", "type": "Gare accessible", "icone": "Icon1"}, "geometry": {"type": "Point", "coordinates": [-0.187704, 44.575113]}}, {"type": "Feature", "properties": {"stop_name": "Saint-Macaire", "type": "Gare accessible", "icone": "Icon1"}, "geometry": {"type": "Point", "coordinates": [-0.226969, 44.568634]}}]}