{"type": "FeatureCollection", "features": [{"type": "Feature", "properties": {"stop_name": "Puybrun", "type": "Gare s\u00e9lectionn\u00e9e", "icone": "Icon2"}, "geometry": {"type": "Point", "coordinates": [1.784281, 44.921771]}}, {"type": "Feature", "properties": {"stop_name": "Aurillac", "type": "Gare accessible", "icone": "Icon1"}, "geometry": {"type": "Point", "coordinates": [2.435583, 44.921040999999995]}}, {"type": "Feature", "properties": {"stop_name": "Laroquebrou", "type": "Gare accessible", "icone": "Icon1"}, "geometry": {"type": "Point", "coordinates": [2.193081, 44.964267]}}, {"type": "Feature", "properties": {"stop_name": "Laval-de-C\u00e8re", "type": "Gare accessible", "icone": "Icon1"}, "geometry": {"type": "Point", "coordinates": [1.931781, 44.951167]}}, {"type": "Feature", "properties": {"stop_name": "Bretenoux - Biars", "type": "Gare accessible", "icone": "Icon1"}, "geometry": {"type": "Point", "coordinates": [1.844383, 44.927465999999995]}}, {"type": "Feature", "properties": {"stop_name": "Saint-Denis-l\u00e8s-Martel", "type": "Gare accessible", "icone": "Icon1"}, "geometry": {"type": "Point", "coordinates": [1.666238, 44.946028999999996]}}, {"type": "Feature", "properties": {"stop_name": "Les Quatre-Routes", "type": "Gare accessible", "icone": "Icon1"}, "geometry": {"type": "Point", "coordinates": [1.643914, 44.997639]}}, {"type": "Feature", "properties": {"stop_name": "Brive-la-Gaillarde", "type": "Gare accessible", "icone": "Icon1"}, "geometry": {"type": "Point", "coordinates": [1.528634, 45.152601000000004]}}, {"type": "Feature", "properties": {"stop_name": "Turenne", "type": "Gare accessible", "icone": "Icon1"}, "geometry": {"type": "Point", "coordinates": [1.600704, 45.037954]}}, {"type": "Feature", "properties": {"stop_name": "Neussargues", "type": "Gare accessible", "icone": "Icon1"}, "geometry": {"type": "Point", "coordinates": [2.979087, 45.125462]}}, {"type": "Feature", "properties": {"stop_name": "Murat", "type": "Gare accessible", "icone": "Icon1"}, "geometry": {"type": "Point", "coordinates": [2.869594, 45.109122]}}, {"type": "Feature", "properties": {"stop_name": "Le Lioran", "type": "Gare accessible", "icone": "Icon1"}, "geometry": {"type": "Point", "coordinates": [2.753334, 45.090686]}}, {"type": "Feature", "properties": {"stop_name": "Vic-sur-C\u00e8re", "type": "Gare accessible", "icone": "Icon1"}, "geometry": {"type": "Point", "coordinates": [2.631664, 44.975877000000004]}}, {"type": "Feature", "properties": {"stop_name": "Vayrac", "type": "Gare accessible", "icone": "Icon1"}, "geometry": {"type": "Point", "coordinates": [1.70635, 44.950301]}}, {"type": "Feature", "properties": {"stop_name": "B\u00e9taille", "type": "Gare accessible", "icone": "Icon1"}, "geometry": {"type": "Point", "coordinates": [1.734326, 44.942454999999995]}}]}