{"type": "FeatureCollection", "features": [{"type": "Feature", "properties": {"stop_name": "Saint-Eulien", "type": "Gare s\u00e9lectionn\u00e9e"}, "geometry": {"type": "Point", "coordinates": [4.883409, 48.683063]}}, {"type": "Feature", "properties": {"stop_name": "Vitry-le-Fran\u00e7ois", "type": "Gare accessible"}, "geometry": {"type": "Point", "coordinates": [4.587515, 48.717913]}}, {"type": "Feature", "properties": {"stop_name": "Blesme - Haussign\u00e9mont", "type": "Gare accessible"}, "geometry": {"type": "Point", "coordinates": [4.75219, 48.717997]}}, {"type": "Feature", "properties": {"stop_name": "Blesme", "type": "Gare accessible"}, "geometry": {"type": "Point", "coordinates": [4.775827, 48.725654999999996]}}, {"type": "Feature", "properties": {"stop_name": "Villiers-en-Lieu", "type": "Gare accessible"}, "geometry": {"type": "Point", "coordinates": [4.901669, 48.666101]}}, {"type": "Feature", "properties": {"stop_name": "Saint-Dizier", "type": "Gare accessible"}, "geometry": {"type": "Point", "coordinates": [4.947855, 48.642404]}}]}