{"type": "FeatureCollection", "features": [{"type": "Feature", "properties": {"stop_name": "Savonni\u00e8res", "type": "Gare s\u00e9lectionn\u00e9e", "icone": "Icon2"}, "geometry": {"type": "Point", "coordinates": [0.544182, 47.36058]}}, {"type": "Feature", "properties": {"stop_name": "Angers Saint-Laud", "type": "Gare accessible", "icone": "Icon1"}, "geometry": {"type": "Point", "coordinates": [-0.55677, 47.464649]}}, {"type": "Feature", "properties": {"stop_name": "Tr\u00e9laz\u00e9", "type": "Gare accessible", "icone": "Icon1"}, "geometry": {"type": "Point", "coordinates": [-0.469666, 47.452845]}}, {"type": "Feature", "properties": {"stop_name": "La Bohalle", "type": "Gare accessible", "icone": "Icon1"}, "geometry": {"type": "Point", "coordinates": [-0.400124, 47.434228999999995]}}, {"type": "Feature", "properties": {"stop_name": "Saint-Mathurin", "type": "Gare accessible", "icone": "Icon1"}, "geometry": {"type": "Point", "coordinates": [-0.31809899999999997, 47.412073]}}, {"type": "Feature", "properties": {"stop_name": "La M\u00e9nitr\u00e9", "type": "Gare accessible", "icone": "Icon1"}, "geometry": {"type": "Point", "coordinates": [-0.275838, 47.397383000000005]}}, {"type": "Feature", "properties": {"stop_name": "Les Rosiers-sur-Loire", "type": "Gare accessible", "icone": "Icon1"}, "geometry": {"type": "Point", "coordinates": [-0.219373, 47.361859]}}, {"type": "Feature", "properties": {"stop_name": "Saumur", "type": "Gare accessible", "icone": "Icon1"}, "geometry": {"type": "Point", "coordinates": [-0.071403, 47.268994]}}, {"type": "Feature", "properties": {"stop_name": "Port Boulet", "type": "Gare accessible", "icone": "Icon1"}, "geometry": {"type": "Point", "coordinates": [0.155648, 47.248836]}}, {"type": "Feature", "properties": {"stop_name": "La Chapelle-sur-Loire", "type": "Gare accessible", "icone": "Icon1"}, "geometry": {"type": "Point", "coordinates": [0.218481, 47.251227]}}, {"type": "Feature", "properties": {"stop_name": "Saint-Patrice", "type": "Gare accessible", "icone": "Icon1"}, "geometry": {"type": "Point", "coordinates": [0.309645, 47.285659]}}, {"type": "Feature", "properties": {"stop_name": "Langeais", "type": "Gare accessible", "icone": "Icon1"}, "geometry": {"type": "Point", "coordinates": [0.410104, 47.324058]}}, {"type": "Feature", "properties": {"stop_name": "Cinq-Mars-la-Pile", "type": "Gare accessible", "icone": "Icon1"}, "geometry": {"type": "Point", "coordinates": [0.459387, 47.345112]}}, {"type": "Feature", "properties": {"stop_name": "Saint-Genouph", "type": "Gare accessible", "icone": "Icon1"}, "geometry": {"type": "Point", "coordinates": [0.59691, 47.371065]}}, {"type": "Feature", "properties": {"stop_name": "Tours", "type": "Gare accessible", "icone": "Icon1"}, "geometry": {"type": "Point", "coordinates": [0.692831, 47.389866]}}, {"type": "Feature", "properties": {"stop_name": "Thouars", "type": "Gare accessible", "icone": "Icon1"}, "geometry": {"type": "Point", "coordinates": [-0.21001999999999998, 46.985039]}}, {"type": "Feature", "properties": {"stop_name": "Montreuil-Bellay", "type": "Gare accessible", "icone": "Icon1"}, "geometry": {"type": "Point", "coordinates": [-0.148283, 47.125417999999996]}}]}