{"type": "FeatureCollection", "features": [{"type": "Feature", "properties": {"stop_name": "Turckheim Place de la R\u00e9publique", "type": "Gare s\u00e9lectionn\u00e9e"}, "geometry": {"type": "Point", "coordinates": [7.278888, 48.086214]}}, {"type": "Feature", "properties": {"stop_name": "Metzeral", "type": "Gare accessible"}, "geometry": {"type": "Point", "coordinates": [7.073338, 48.013329999999996]}}, {"type": "Feature", "properties": {"stop_name": "Muhlbach-sur-Munster Mairie", "type": "Gare accessible"}, "geometry": {"type": "Point", "coordinates": [7.084476, 48.025409]}}, {"type": "Feature", "properties": {"stop_name": "Breitenbach Restaurant Breit's bar", "type": "Gare accessible"}, "geometry": {"type": "Point", "coordinates": [7.098981, 48.026744]}}, {"type": "Feature", "properties": {"stop_name": "Luttenbach Fronzell", "type": "Gare accessible"}, "geometry": {"type": "Point", "coordinates": [7.109984, 48.032459]}}, {"type": "Feature", "properties": {"stop_name": "Luttenbach Abri Route Principale", "type": "Gare accessible"}, "geometry": {"type": "Point", "coordinates": [7.118808, 48.035854]}}, {"type": "Feature", "properties": {"stop_name": "Munster", "type": "Gare accessible"}, "geometry": {"type": "Point", "coordinates": [7.133568, 48.038621]}}, {"type": "Feature", "properties": {"stop_name": "Munster Inter. D417-Badischhof", "type": "Gare accessible"}, "geometry": {"type": "Point", "coordinates": [7.150211, 48.040562]}}, {"type": "Feature", "properties": {"stop_name": "Gunsbach Restaurant Atmosph\u00e8re", "type": "Gare accessible"}, "geometry": {"type": "Point", "coordinates": [7.17419, 48.042642]}}, {"type": "Feature", "properties": {"stop_name": "Wihr-au-Val - Soultzbach  D417", "type": "Gare accessible"}, "geometry": {"type": "Point", "coordinates": [7.209204, 48.04677]}}, {"type": "Feature", "properties": {"stop_name": "Walbach La Forge Abri D 417", "type": "Gare accessible"}, "geometry": {"type": "Point", "coordinates": [7.233092, 48.059876]}}, {"type": "Feature", "properties": {"stop_name": "Logelbach Hirn", "type": "Gare accessible"}, "geometry": {"type": "Point", "coordinates": [7.321808, 48.088747999999995]}}, {"type": "Feature", "properties": {"stop_name": "Colmar St-Joseph Rue du Val St-Gr\u00e9goire", "type": "Gare accessible"}, "geometry": {"type": "Point", "coordinates": [7.347182, 48.080688]}}, {"type": "Feature", "properties": {"stop_name": "Colmar", "type": "Gare accessible"}, "geometry": {"type": "Point", "coordinates": [7.347756, 48.073527]}}, {"type": "Feature", "properties": {"stop_name": "Ingersheim Arr\u00eat Trace Centre", "type": "Gare accessible"}, "geometry": {"type": "Point", "coordinates": [7.306305, 48.094219]}}, {"type": "Feature", "properties": {"stop_name": "Saint-Gilles Lyc\u00e9e Haut-Rhin", "type": "Gare accessible"}, "geometry": {"type": "Point", "coordinates": [7.260979, 48.075853]}}]}