{"type": "FeatureCollection", "features": [{"type": "Feature", "properties": {"start": "Agen", "stop_name": "Agen", "type": "Gare s\u00e9lectionn\u00e9e", "transport": "carTER", "nombre_trajet_moyen": 0.11, "transport_legende": "\ud83d\udeb2 \ud83d\udc94 Car TER \ud83d\ude8d"}, "geometry": {"type": "Point", "coordinates": [0.620867, 44.207967]}}, {"type": "Feature", "properties": {"start": "Agen", "stop_name": "Bordeaux Saint-Jean", "type": "Gare accessible", "transport": "carTER", "nombre_trajet_moyen": 0.11, "transport_legende": "\ud83d\udeb2 \ud83d\udc94 Car TER \ud83d\ude8d"}, "geometry": {"type": "Point", "coordinates": [-0.556697, 44.825873]}}, {"type": "Feature", "properties": {"start": "Agen", "stop_name": "Langon", "type": "Gare accessible", "transport": "carTER", "nombre_trajet_moyen": 0.11, "transport_legende": "\ud83d\udeb2 \ud83d\udc94 Car TER \ud83d\ude8d"}, "geometry": {"type": "Point", "coordinates": [-0.255534, 44.555414]}}, {"type": "Feature", "properties": {"start": "Agen", "stop_name": "La R\u00e9ole", "type": "Gare accessible", "transport": "carTER", "nombre_trajet_moyen": 0.11, "transport_legende": "\ud83d\udeb2 \ud83d\udc94 Car TER \ud83d\ude8d"}, "geometry": {"type": "Point", "coordinates": [-0.030674, 44.57977]}}, {"type": "Feature", "properties": {"start": "Agen", "stop_name": "Marmande", "type": "Gare accessible", "transport": "carTER", "nombre_trajet_moyen": 0.11, "transport_legende": "\ud83d\udeb2 \ud83d\udc94 Car TER \ud83d\ude8d"}, "geometry": {"type": "Point", "coordinates": [0.168091, 44.503071]}}, {"type": "Feature", "properties": {"start": "Agen", "stop_name": "Tonneins", "type": "Gare accessible", "transport": "carTER", "nombre_trajet_moyen": 0.11, "transport_legende": "\ud83d\udeb2 \ud83d\udc94 Car TER \ud83d\ude8d"}, "geometry": {"type": "Point", "coordinates": [0.314057, 44.392754]}}, {"type": "Feature", "properties": {"start": "Agen", "stop_name": "Aiguillon", "type": "Gare accessible", "transport": "carTER", "nombre_trajet_moyen": 0.11, "transport_legende": "\ud83d\udeb2 \ud83d\udc94 Car TER \ud83d\ude8d"}, "geometry": {"type": "Point", "coordinates": [0.335543, 44.298624]}}, {"type": "Feature", "properties": {"start": "Agen", "stop_name": "Port-Sainte-Marie", "type": "Gare accessible", "transport": "carTER", "nombre_trajet_moyen": 0.11, "transport_legende": "\ud83d\udeb2 \ud83d\udc94 Car TER \ud83d\ude8d"}, "geometry": {"type": "Point", "coordinates": [0.390506, 44.250438]}}]}