{"type": "FeatureCollection", "features": [{"type": "Feature", "properties": {"start": "Andorre l'Hospitalet", "stop_name": "Andorre l'Hospitalet", "type": "Gare s\u00e9lectionn\u00e9e", "transport": "carTER", "nombre_trajet_moyen": 0.01, "transport_legende": "\ud83d\udeb2 \ud83d\udc94 Car TER \ud83d\ude8d"}, "geometry": {"type": "Point", "coordinates": [1.800264, 42.589453]}}, {"type": "Feature", "properties": {"start": "Andorre l'Hospitalet", "stop_name": "Ax-les-Thermes", "type": "Gare accessible", "transport": "carTER", "nombre_trajet_moyen": 0.01, "transport_legende": "\ud83d\udeb2 \ud83d\udc94 Car TER \ud83d\ude8d"}, "geometry": {"type": "Point", "coordinates": [1.833295, 42.724841]}}, {"type": "Feature", "properties": {"start": "Andorre l'Hospitalet", "stop_name": "M\u00e9rens-les-Vals", "type": "Gare accessible", "transport": "carTER", "nombre_trajet_moyen": 0.01, "transport_legende": "\ud83d\udeb2 \ud83d\udc94 Car TER \ud83d\ude8d"}, "geometry": {"type": "Point", "coordinates": [1.837128, 42.659488]}}, {"type": "Feature", "properties": {"start": "Andorre l'Hospitalet", "stop_name": "Port\u00e9-Puymorens", "type": "Gare accessible", "transport": "carTER", "nombre_trajet_moyen": 0.01, "transport_legende": "\ud83d\udeb2 \ud83d\udc94 Car TER \ud83d\ude8d"}, "geometry": {"type": "Point", "coordinates": [1.824852, 42.538781]}}, {"type": "Feature", "properties": {"start": "Andorre l'Hospitalet", "stop_name": "Latour-de-Carol - Enveitg", "type": "Gare accessible", "transport": "carTER", "nombre_trajet_moyen": 0.01, "transport_legende": "\ud83d\udeb2 \ud83d\udc94 Car TER \ud83d\ude8d"}, "geometry": {"type": "Point", "coordinates": [1.904433, 42.458991]}}, {"type": "Feature", "properties": {"start": "Andorre l'Hospitalet", "stop_name": "Luzenac - Garanou", "type": "Gare accessible", "transport": "carTER", "nombre_trajet_moyen": 0.01, "transport_legende": "\ud83d\udeb2 \ud83d\udc94 Car TER \ud83d\ude8d"}, "geometry": {"type": "Point", "coordinates": [1.753416, 42.764472]}}, {"type": "Feature", "properties": {"start": "Andorre l'Hospitalet", "stop_name": "Tarascon-sur-Ari\u00e8ge", "type": "Gare accessible", "transport": "carTER", "nombre_trajet_moyen": 0.01, "transport_legende": "\ud83d\udeb2 \ud83d\udc94 Car TER \ud83d\ude8d"}, "geometry": {"type": "Point", "coordinates": [1.600042, 42.849498]}}, {"type": "Feature", "properties": {"start": "Andorre l'Hospitalet", "stop_name": "Foix", "type": "Gare accessible", "transport": "carTER", "nombre_trajet_moyen": 0.01, "transport_legende": "\ud83d\udeb2 \ud83d\udc94 Car TER \ud83d\ude8d"}, "geometry": {"type": "Point", "coordinates": [1.60704, 42.969707]}}]}