{"type": "FeatureCollection", "features": [{"type": "Feature", "properties": {"start": "Auxerre Saint-Gervais", "stop_name": "Auxerre Saint-Gervais", "type": "Gare s\u00e9lectionn\u00e9e", "transport": "carTER", "transport_legende": "\ud83d\udeb2 \ud83d\udc94 Car TER \ud83d\ude8d"}, "geometry": {"type": "Point", "coordinates": [3.58514, 47.797645]}}, {"type": "Feature", "properties": {"start": "Auxerre Saint-Gervais", "stop_name": "Avallon", "type": "Gare accessible", "transport": "carTER", "transport_legende": "\ud83d\udeb2 \ud83d\udc94 Car TER \ud83d\ude8d"}, "geometry": {"type": "Point", "coordinates": [3.912446, 47.495755]}}, {"type": "Feature", "properties": {"start": "Auxerre Saint-Gervais", "stop_name": "Sermizelles - V\u00e9zelay", "type": "Gare accessible", "transport": "carTER", "transport_legende": "\ud83d\udeb2 \ud83d\udc94 Car TER \ud83d\ude8d"}, "geometry": {"type": "Point", "coordinates": [3.792672, 47.528881]}}, {"type": "Feature", "properties": {"start": "Auxerre Saint-Gervais", "stop_name": "Voutenay-sur-Cure Place Mairie", "type": "Gare accessible", "transport": "carTER", "transport_legende": "\ud83d\udeb2 \ud83d\udc94 Car TER \ud83d\ude8d"}, "geometry": {"type": "Point", "coordinates": [3.784688, 47.561729]}}, {"type": "Feature", "properties": {"start": "Auxerre Saint-Gervais", "stop_name": "Arcy-sur-Cure", "type": "Gare accessible", "transport": "carTER", "transport_legende": "\ud83d\udeb2 \ud83d\udc94 Car TER \ud83d\ude8d"}, "geometry": {"type": "Point", "coordinates": [3.766638, 47.600873]}}, {"type": "Feature", "properties": {"start": "Auxerre Saint-Gervais", "stop_name": "Lucy-sur-Cure D606", "type": "Gare accessible", "transport": "carTER", "transport_legende": "\ud83d\udeb2 \ud83d\udc94 Car TER \ud83d\ude8d"}, "geometry": {"type": "Point", "coordinates": [3.744664, 47.627783]}}, {"type": "Feature", "properties": {"start": "Auxerre Saint-Gervais", "stop_name": "Vermenton", "type": "Gare accessible", "transport": "carTER", "transport_legende": "\ud83d\udeb2 \ud83d\udc94 Car TER \ud83d\ude8d"}, "geometry": {"type": "Point", "coordinates": [3.732059, 47.660761]}}, {"type": "Feature", "properties": {"start": "Auxerre Saint-Gervais", "stop_name": "Accolay Le Pont", "type": "Gare accessible", "transport": "carTER", "transport_legende": "\ud83d\udeb2 \ud83d\udc94 Car TER \ud83d\ude8d"}, "geometry": {"type": "Point", "coordinates": [3.709584, 47.663798]}}, {"type": "Feature", "properties": {"start": "Auxerre Saint-Gervais", "stop_name": "Vincelles", "type": "Gare accessible", "transport": "carTER", "transport_legende": "\ud83d\udeb2 \ud83d\udc94 Car TER \ud83d\ude8d"}, "geometry": {"type": "Point", "coordinates": [3.628471, 47.704204]}}, {"type": "Feature", "properties": {"start": "Auxerre Saint-Gervais", "stop_name": "Laroche - Migennes", "type": "Gare accessible", "transport": "carTER", "transport_legende": "\ud83d\udeb2 \ud83d\udc94 Car TER \ud83d\ude8d"}, "geometry": {"type": "Point", "coordinates": [3.513191, 47.960998]}}, {"type": "Feature", "properties": {"start": "Auxerre Saint-Gervais", "stop_name": "Clamecy", "type": "Gare accessible", "transport": "carTER", "transport_legende": "\ud83d\udeb2 \ud83d\udc94 Car TER \ud83d\ude8d"}, "geometry": {"type": "Point", "coordinates": [3.520767, 47.466698]}}, {"type": "Feature", "properties": {"start": "Auxerre Saint-Gervais", "stop_name": "Coulanges-sur-Yonne", "type": "Gare accessible", "transport": "carTER", "transport_legende": "\ud83d\udeb2 \ud83d\udc94 Car TER \ud83d\ude8d"}, "geometry": {"type": "Point", "coordinates": [3.547282, 47.527175]}}, {"type": "Feature", "properties": {"start": "Auxerre Saint-Gervais", "stop_name": "Ch\u00e2tel-Censoir", "type": "Gare accessible", "transport": "carTER", "transport_legende": "\ud83d\udeb2 \ud83d\udc94 Car TER \ud83d\ude8d"}, "geometry": {"type": "Point", "coordinates": [3.635211, 47.537769]}}, {"type": "Feature", "properties": {"start": "Auxerre Saint-Gervais", "stop_name": "Mailly-la-Ville", "type": "Gare accessible", "transport": "carTER", "transport_legende": "\ud83d\udeb2 \ud83d\udc94 Car TER \ud83d\ude8d"}, "geometry": {"type": "Point", "coordinates": [3.675147, 47.604169]}}, {"type": "Feature", "properties": {"start": "Auxerre Saint-Gervais", "stop_name": "Cravant - Bazarnes", "type": "Gare accessible", "transport": "carTER", "transport_legende": "\ud83d\udeb2 \ud83d\udc94 Car TER \ud83d\ude8d"}, "geometry": {"type": "Point", "coordinates": [3.681174, 47.678508]}}, {"type": "Feature", "properties": {"start": "Auxerre Saint-Gervais", "stop_name": "Tannay Place de l'\u00c9glise", "type": "Gare accessible", "transport": "carTER", "transport_legende": "\ud83d\udeb2 \ud83d\udc94 Car TER \ud83d\ude8d"}, "geometry": {"type": "Point", "coordinates": [3.5914, 47.367]}}, {"type": "Feature", "properties": {"start": "Auxerre Saint-Gervais", "stop_name": "Flez-Cuzy - Tannay", "type": "Gare accessible", "transport": "carTER", "transport_legende": "\ud83d\udeb2 \ud83d\udc94 Car TER \ud83d\ude8d"}, "geometry": {"type": "Point", "coordinates": [3.615881, 47.362336]}}, {"type": "Feature", "properties": {"start": "Auxerre Saint-Gervais", "stop_name": "Corbigny", "type": "Gare accessible", "transport": "carTER", "transport_legende": "\ud83d\udeb2 \ud83d\udc94 Car TER \ud83d\ude8d"}, "geometry": {"type": "Point", "coordinates": [3.677323, 47.254807]}}]}