{"type": "FeatureCollection", "features": [{"type": "Feature", "properties": {"start": "Auxon Route Nationale", "stop_name": "Auxon Route Nationale", "type": "Gare s\u00e9lectionn\u00e9e", "transport": "carTER", "nombre_trajet_moyen": 1.09, "transport_legende": "\ud83d\udeb2 \ud83d\udc94 Car TER \ud83d\ude8d"}, "geometry": {"type": "Point", "coordinates": [3.915937, 48.109256]}}, {"type": "Feature", "properties": {"start": "Auxon Route Nationale", "stop_name": "Troyes", "type": "Gare accessible", "transport": "carTER", "nombre_trajet_moyen": 1.09, "transport_legende": "\ud83d\udeb2 \ud83d\udc94 Car TER \ud83d\ude8d"}, "geometry": {"type": "Point", "coordinates": [4.065281, 48.296069]}}, {"type": "Feature", "properties": {"start": "Auxon Route Nationale", "stop_name": "Saint-Florentin - Vergigny", "type": "Gare accessible", "transport": "carTER", "nombre_trajet_moyen": 1.09, "transport_legende": "\ud83d\udeb2 \ud83d\udc94 Car TER \ud83d\ude8d"}, "geometry": {"type": "Point", "coordinates": [3.731036, 47.981058]}}, {"type": "Feature", "properties": {"start": "Auxon Route Nationale", "stop_name": "Neuvy-Sautour", "type": "Gare accessible", "transport": "carTER", "nombre_trajet_moyen": 0.55, "transport_legende": "\ud83d\udeb2 \ud83d\udc94 Car TER \ud83d\ude8d"}, "geometry": {"type": "Point", "coordinates": [3.792785, 48.042696]}}, {"type": "Feature", "properties": {"start": "Auxon Route Nationale", "stop_name": "Coursan-en-Othe RN", "type": "Gare accessible", "transport": "carTER", "nombre_trajet_moyen": 0.55, "transport_legende": "\ud83d\udeb2 \ud83d\udc94 Car TER \ud83d\ude8d"}, "geometry": {"type": "Point", "coordinates": [3.830522, 48.079728]}}, {"type": "Feature", "properties": {"start": "Auxon Route Nationale", "stop_name": "Le Cheminot", "type": "Gare accessible", "transport": "carTER", "nombre_trajet_moyen": 0.55, "transport_legende": "\ud83d\udeb2 \ud83d\udc94 Car TER \ud83d\ude8d"}, "geometry": {"type": "Point", "coordinates": [4.010152, 48.147316]}}, {"type": "Feature", "properties": {"start": "Auxon Route Nationale", "stop_name": "Troyes Lombards", "type": "Gare accessible", "transport": "carTER", "nombre_trajet_moyen": 0.55, "transport_legende": "\ud83d\udeb2 \ud83d\udc94 Car TER \ud83d\ude8d"}, "geometry": {"type": "Point", "coordinates": [4.065859, 48.278074]}}, {"type": "Feature", "properties": {"start": "Auxon Route Nationale", "stop_name": "Saint-Florentin-Ville", "type": "Gare accessible", "transport": "carTER", "nombre_trajet_moyen": 0.11, "transport_legende": "\ud83d\udeb2 \ud83d\udc94 Car TER \ud83d\ude8d"}, "geometry": {"type": "Point", "coordinates": [3.741985, 48.005065]}}, {"type": "Feature", "properties": {"start": "Auxon Route Nationale", "stop_name": "Troyes Chambre de Commerce", "type": "Gare accessible", "transport": "carTER", "nombre_trajet_moyen": 0.11, "transport_legende": "\ud83d\udeb2 \ud83d\udc94 Car TER \ud83d\ude8d"}, "geometry": {"type": "Point", "coordinates": [4.071271, 48.29088]}}]}