{"type": "FeatureCollection", "features": [{"type": "Feature", "properties": {"start": "Bitche Quartier Driant", "stop_name": "Bitche Quartier Driant", "type": "Gare s\u00e9lectionn\u00e9e", "transport": "carTER", "transport_legende": "\ud83d\udeb2 \ud83d\udc94 Car TER \ud83d\ude8d"}, "geometry": {"type": "Point", "coordinates": [7.456211, 49.054942]}}, {"type": "Feature", "properties": {"start": "Bitche Quartier Driant", "stop_name": "Bitche Camp", "type": "Gare accessible", "transport": "carTER", "transport_legende": "\ud83d\udeb2 \ud83d\udc94 Car TER \ud83d\ude8d"}, "geometry": {"type": "Point", "coordinates": [7.476046, 49.04892]}}, {"type": "Feature", "properties": {"start": "Bitche Quartier Driant", "stop_name": "Bitche Ancienne Gare", "type": "Gare accessible", "transport": "carTER", "transport_legende": "\ud83d\udeb2 \ud83d\udc94 Car TER \ud83d\ude8d"}, "geometry": {"type": "Point", "coordinates": [7.432153, 49.048717]}}, {"type": "Feature", "properties": {"start": "Bitche Quartier Driant", "stop_name": "\u00c9guelshardt Abri", "type": "Gare accessible", "transport": "carTER", "transport_legende": "\ud83d\udeb2 \ud83d\udc94 Car TER \ud83d\ude8d"}, "geometry": {"type": "Point", "coordinates": [7.491201, 49.021266]}}, {"type": "Feature", "properties": {"start": "Bitche Quartier Driant", "stop_name": "Bannstein Croisement", "type": "Gare accessible", "transport": "carTER", "transport_legende": "\ud83d\udeb2 \ud83d\udc94 Car TER \ud83d\ude8d"}, "geometry": {"type": "Point", "coordinates": [7.502456, 49.005201]}}, {"type": "Feature", "properties": {"start": "Bitche Quartier Driant", "stop_name": "Philippsbourg Lieschbach", "type": "Gare accessible", "transport": "carTER", "transport_legende": "\ud83d\udeb2 \ud83d\udc94 Car TER \ud83d\ude8d"}, "geometry": {"type": "Point", "coordinates": [7.558084, 48.991408]}}, {"type": "Feature", "properties": {"start": "Bitche Quartier Driant", "stop_name": "Philippsbourg Falkenstein", "type": "Gare accessible", "transport": "carTER", "transport_legende": "\ud83d\udeb2 \ud83d\udc94 Car TER \ud83d\ude8d"}, "geometry": {"type": "Point", "coordinates": [7.567483, 48.984021]}}, {"type": "Feature", "properties": {"start": "Bitche Quartier Driant", "stop_name": "Niederbronn-les-Bains Usine", "type": "Gare accessible", "transport": "carTER", "transport_legende": "\ud83d\udeb2 \ud83d\udc94 Car TER \ud83d\ude8d"}, "geometry": {"type": "Point", "coordinates": [7.630582, 48.95696]}}, {"type": "Feature", "properties": {"start": "Bitche Quartier Driant", "stop_name": "Niederbronn-les-Bains", "type": "Gare accessible", "transport": "carTER", "transport_legende": "\ud83d\udeb2 \ud83d\udc94 Car TER \ud83d\ude8d"}, "geometry": {"type": "Point", "coordinates": [7.63409, 48.952385]}}, {"type": "Feature", "properties": {"start": "Bitche Quartier Driant", "stop_name": "Haguenau", "type": "Gare accessible", "transport": "carTER", "transport_legende": "\ud83d\udeb2 \ud83d\udc94 Car TER \ud83d\ude8d"}, "geometry": {"type": "Point", "coordinates": [7.782757, 48.813486]}}, {"type": "Feature", "properties": {"start": "Bitche Quartier Driant", "stop_name": "Schweighouse-sur-Moder Villa", "type": "Gare accessible", "transport": "carTER", "transport_legende": "\ud83d\udeb2 \ud83d\udc94 Car TER \ud83d\ude8d"}, "geometry": {"type": "Point", "coordinates": [7.742247, 48.819182]}}, {"type": "Feature", "properties": {"start": "Bitche Quartier Driant", "stop_name": "Schweighouse-sur-Moder", "type": "Gare accessible", "transport": "carTER", "transport_legende": "\ud83d\udeb2 \ud83d\udc94 Car TER \ud83d\ude8d"}, "geometry": {"type": "Point", "coordinates": [7.742564, 48.828677]}}, {"type": "Feature", "properties": {"start": "Bitche Quartier Driant", "stop_name": "Mertzwiller Monuments aux Morts", "type": "Gare accessible", "transport": "carTER", "transport_legende": "\ud83d\udeb2 \ud83d\udc94 Car TER \ud83d\ude8d"}, "geometry": {"type": "Point", "coordinates": [7.6772, 48.8726]}}, {"type": "Feature", "properties": {"start": "Bitche Quartier Driant", "stop_name": "Mertzwiller", "type": "Gare accessible", "transport": "carTER", "transport_legende": "\ud83d\udeb2 \ud83d\udc94 Car TER \ud83d\ude8d"}, "geometry": {"type": "Point", "coordinates": [7.678244, 48.872056]}}, {"type": "Feature", "properties": {"start": "Bitche Quartier Driant", "stop_name": "Gundershoffen", "type": "Gare accessible", "transport": "carTER", "transport_legende": "\ud83d\udeb2 \ud83d\udc94 Car TER \ud83d\ude8d"}, "geometry": {"type": "Point", "coordinates": [7.653535, 48.905261]}}, {"type": "Feature", "properties": {"start": "Bitche Quartier Driant", "stop_name": "Reichshoffen", "type": "Gare accessible", "transport": "carTER", "transport_legende": "\ud83d\udeb2 \ud83d\udc94 Car TER \ud83d\ude8d"}, "geometry": {"type": "Point", "coordinates": [7.658072, 48.930925]}}, {"type": "Feature", "properties": {"start": "Bitche Quartier Driant", "stop_name": "Niederbronn-les-Bains Arch\u00e9ologie", "type": "Gare accessible", "transport": "carTER", "transport_legende": "\ud83d\udeb2 \ud83d\udc94 Car TER \ud83d\ude8d"}, "geometry": {"type": "Point", "coordinates": [7.65058, 48.947516]}}, {"type": "Feature", "properties": {"start": "Bitche Quartier Driant", "stop_name": "Niederbronn Hotel de Ville", "type": "Gare accessible", "transport": "carTER", "transport_legende": "\ud83d\udeb2 \ud83d\udc94 Car TER \ud83d\ude8d"}, "geometry": {"type": "Point", "coordinates": [7.642201, 48.950801]}}, {"type": "Feature", "properties": {"start": "Bitche Quartier Driant", "stop_name": "B\u00e9ning-l\u00e8s-Saint-Avold", "type": "Gare accessible", "transport": "carTER", "transport_legende": "\ud83d\udeb2 \ud83d\udc94 Car TER \ud83d\ude8d"}, "geometry": {"type": "Point", "coordinates": [6.82848, 49.138056]}}, {"type": "Feature", "properties": {"start": "Bitche Quartier Driant", "stop_name": "Cocheren Village", "type": "Gare accessible", "transport": "carTER", "transport_legende": "\ud83d\udeb2 \ud83d\udc94 Car TER \ud83d\ude8d"}, "geometry": {"type": "Point", "coordinates": [6.856971, 49.146401]}}, {"type": "Feature", "properties": {"start": "Bitche Quartier Driant", "stop_name": "Far\u00e9bersviller Rue du Moulin", "type": "Gare accessible", "transport": "carTER", "transport_legende": "\ud83d\udeb2 \ud83d\udc94 Car TER \ud83d\ude8d"}, "geometry": {"type": "Point", "coordinates": [6.865806, 49.116118]}}, {"type": "Feature", "properties": {"start": "Bitche Quartier Driant", "stop_name": "Far\u00e9bersviller Cit\u00e9", "type": "Gare accessible", "transport": "carTER", "transport_legende": "\ud83d\udeb2 \ud83d\udc94 Car TER \ud83d\ude8d"}, "geometry": {"type": "Point", "coordinates": [6.873153, 49.11764]}}, {"type": "Feature", "properties": {"start": "Bitche Quartier Driant", "stop_name": "Theding All\u00e9e de la For\u00eat", "type": "Gare accessible", "transport": "carTER", "transport_legende": "\ud83d\udeb2 \ud83d\udc94 Car TER \ud83d\ude8d"}, "geometry": {"type": "Point", "coordinates": [6.889293, 49.117961]}}, {"type": "Feature", "properties": {"start": "Bitche Quartier Driant", "stop_name": "Ebring Croisement", "type": "Gare accessible", "transport": "carTER", "transport_legende": "\ud83d\udeb2 \ud83d\udc94 Car TER \ud83d\ude8d"}, "geometry": {"type": "Point", "coordinates": [6.910941, 49.117002]}}, {"type": "Feature", "properties": {"start": "Bitche Quartier Driant", "stop_name": "Diebling Maison Foresti\u00e8re", "type": "Gare accessible", "transport": "carTER", "transport_legende": "\ud83d\udeb2 \ud83d\udc94 Car TER \ud83d\ude8d"}, "geometry": {"type": "Point", "coordinates": [6.933545, 49.112022]}}, {"type": "Feature", "properties": {"start": "Bitche Quartier Driant", "stop_name": "Diebling Centre", "type": "Gare accessible", "transport": "carTER", "transport_legende": "\ud83d\udeb2 \ud83d\udc94 Car TER \ud83d\ude8d"}, "geometry": {"type": "Point", "coordinates": [6.939969, 49.109148]}}, {"type": "Feature", "properties": {"start": "Bitche Quartier Driant", "stop_name": "Metzing Centre", "type": "Gare accessible", "transport": "carTER", "transport_legende": "\ud83d\udeb2 \ud83d\udc94 Car TER \ud83d\ude8d"}, "geometry": {"type": "Point", "coordinates": [6.95713, 49.105861]}}, {"type": "Feature", "properties": {"start": "Bitche Quartier Driant", "stop_name": "Ippling Rue de Sarreguemines", "type": "Gare accessible", "transport": "carTER", "transport_legende": "\ud83d\udeb2 \ud83d\udc94 Car TER \ud83d\ude8d"}, "geometry": {"type": "Point", "coordinates": [7.004908, 49.106359]}}, {"type": "Feature", "properties": {"start": "Bitche Quartier Driant", "stop_name": "Welferding Rue de France", "type": "Gare accessible", "transport": "carTER", "transport_legende": "\ud83d\udeb2 \ud83d\udc94 Car TER \ud83d\ude8d"}, "geometry": {"type": "Point", "coordinates": [7.047472, 49.112777]}}, {"type": "Feature", "properties": {"start": "Bitche Quartier Driant", "stop_name": "Sarreguemines Poste", "type": "Gare accessible", "transport": "carTER", "transport_legende": "\ud83d\udeb2 \ud83d\udc94 Car TER \ud83d\ude8d"}, "geometry": {"type": "Point", "coordinates": [7.064134, 49.113031]}}, {"type": "Feature", "properties": {"start": "Bitche Quartier Driant", "stop_name": "Sarreguemines", "type": "Gare accessible", "transport": "carTER", "transport_legende": "\ud83d\udeb2 \ud83d\udc94 Car TER \ud83d\ude8d"}, "geometry": {"type": "Point", "coordinates": [7.068576, 49.10738]}}, {"type": "Feature", "properties": {"start": "Bitche Quartier Driant", "stop_name": "Woelfling-l\u00e8s-Sarreguemines", "type": "Gare accessible", "transport": "carTER", "transport_legende": "\ud83d\udeb2 \ud83d\udc94 Car TER \ud83d\ude8d"}, "geometry": {"type": "Point", "coordinates": [7.190609, 49.094747]}}, {"type": "Feature", "properties": {"start": "Bitche Quartier Driant", "stop_name": "Gros-R\u00e9derching", "type": "Gare accessible", "transport": "carTER", "transport_legende": "\ud83d\udeb2 \ud83d\udc94 Car TER \ud83d\ude8d"}, "geometry": {"type": "Point", "coordinates": [7.219659, 49.068036]}}, {"type": "Feature", "properties": {"start": "Bitche Quartier Driant", "stop_name": "Rohrbach-l\u00e8s-Bitche", "type": "Gare accessible", "transport": "carTER", "transport_legende": "\ud83d\udeb2 \ud83d\udc94 Car TER \ud83d\ude8d"}, "geometry": {"type": "Point", "coordinates": [7.262194, 49.054267]}}, {"type": "Feature", "properties": {"start": "Bitche Quartier Driant", "stop_name": "Rohrbach-les-Bitche Carrefour", "type": "Gare accessible", "transport": "carTER", "transport_legende": "\ud83d\udeb2 \ud83d\udc94 Car TER \ud83d\ude8d"}, "geometry": {"type": "Point", "coordinates": [7.2653, 49.0458]}}, {"type": "Feature", "properties": {"start": "Bitche Quartier Driant", "stop_name": "Petit-R\u00e9derching", "type": "Gare accessible", "transport": "carTER", "transport_legende": "\ud83d\udeb2 \ud83d\udc94 Car TER \ud83d\ude8d"}, "geometry": {"type": "Point", "coordinates": [7.299731, 49.049321]}}, {"type": "Feature", "properties": {"start": "Bitche Quartier Driant", "stop_name": "Enchenberg Mairie", "type": "Gare accessible", "transport": "carTER", "transport_legende": "\ud83d\udeb2 \ud83d\udc94 Car TER \ud83d\ude8d"}, "geometry": {"type": "Point", "coordinates": [7.337816, 49.014691]}}, {"type": "Feature", "properties": {"start": "Bitche Quartier Driant", "stop_name": "Lemberg Mairie", "type": "Gare accessible", "transport": "carTER", "transport_legende": "\ud83d\udeb2 \ud83d\udc94 Car TER \ud83d\ude8d"}, "geometry": {"type": "Point", "coordinates": [7.378757, 49.005708]}}, {"type": "Feature", "properties": {"start": "Bitche Quartier Driant", "stop_name": "Lemberg Grand-Rue", "type": "Gare accessible", "transport": "carTER", "transport_legende": "\ud83d\udeb2 \ud83d\udc94 Car TER \ud83d\ude8d"}, "geometry": {"type": "Point", "coordinates": [7.3801, 49.00072]}}, {"type": "Feature", "properties": {"start": "Bitche Quartier Driant", "stop_name": "Reyersviller Schwangerbach", "type": "Gare accessible", "transport": "carTER", "transport_legende": "\ud83d\udeb2 \ud83d\udc94 Car TER \ud83d\ude8d"}, "geometry": {"type": "Point", "coordinates": [7.408583, 49.032547]}}, {"type": "Feature", "properties": {"start": "Bitche Quartier Driant", "stop_name": "Bitche Rue de la Paix", "type": "Gare accessible", "transport": "carTER", "transport_legende": "\ud83d\udeb2 \ud83d\udc94 Car TER \ud83d\ude8d"}, "geometry": {"type": "Point", "coordinates": [7.428641, 49.048904]}}]}