{"type": "FeatureCollection", "features": [{"type": "Feature", "properties": {"start": "Buswiller-Eglise", "stop_name": "Buswiller-Eglise", "type": "Gare s\u00e9lectionn\u00e9e", "transport": "carTER", "transport_legende": "\ud83d\udeb2 \ud83d\udc94 Car TER \ud83d\ude8d"}, "geometry": {"type": "Point", "coordinates": [7.559656, 48.819704]}}, {"type": "Feature", "properties": {"start": "Buswiller-Eglise", "stop_name": "Ettendorf  Rue du Pont", "type": "Gare accessible", "transport": "carTER", "transport_legende": "\ud83d\udeb2 \ud83d\udc94 Car TER \ud83d\ude8d"}, "geometry": {"type": "Point", "coordinates": [7.58117, 48.812236]}}, {"type": "Feature", "properties": {"start": "Buswiller-Eglise", "stop_name": "Ettendorf", "type": "Gare accessible", "transport": "carTER", "transport_legende": "\ud83d\udeb2 \ud83d\udc94 Car TER \ud83d\ude8d"}, "geometry": {"type": "Point", "coordinates": [7.585288, 48.808186]}}, {"type": "Feature", "properties": {"start": "Buswiller-Eglise", "stop_name": "Alteckendorf Altdorf", "type": "Gare accessible", "transport": "carTER", "transport_legende": "\ud83d\udeb2 \ud83d\udc94 Car TER \ud83d\ude8d"}, "geometry": {"type": "Point", "coordinates": [7.589267, 48.794562]}}, {"type": "Feature", "properties": {"start": "Buswiller-Eglise", "stop_name": "Alteckendorf Mairie", "type": "Gare accessible", "transport": "carTER", "transport_legende": "\ud83d\udeb2 \ud83d\udc94 Car TER \ud83d\ude8d"}, "geometry": {"type": "Point", "coordinates": [7.594688, 48.792818]}}, {"type": "Feature", "properties": {"start": "Buswiller-Eglise", "stop_name": "Alteckendorf Eckendorf", "type": "Gare accessible", "transport": "carTER", "transport_legende": "\ud83d\udeb2 \ud83d\udc94 Car TER \ud83d\ude8d"}, "geometry": {"type": "Point", "coordinates": [7.601602, 48.789785]}}, {"type": "Feature", "properties": {"start": "Buswiller-Eglise", "stop_name": "Minversheim Rue Principale", "type": "Gare accessible", "transport": "carTER", "transport_legende": "\ud83d\udeb2 \ud83d\udc94 Car TER \ud83d\ude8d"}, "geometry": {"type": "Point", "coordinates": [7.620869, 48.784366]}}, {"type": "Feature", "properties": {"start": "Buswiller-Eglise", "stop_name": "Mommenheim", "type": "Gare accessible", "transport": "carTER", "transport_legende": "\ud83d\udeb2 \ud83d\udc94 Car TER \ud83d\ude8d"}, "geometry": {"type": "Point", "coordinates": [7.642303, 48.755951]}}]}