{"type": "FeatureCollection", "features": [{"type": "Feature", "properties": {"start": "Castillon", "stop_name": "Castillon", "type": "Gare s\u00e9lectionn\u00e9e", "transport": "carTER", "nombre_trajet_moyen": 0.08, "transport_legende": "\ud83d\udeb2 \ud83d\udc94 Car TER \ud83d\ude8d"}, "geometry": {"type": "Point", "coordinates": [-0.04066, 44.856999]}}, {"type": "Feature", "properties": {"start": "Castillon", "stop_name": "Bergerac", "type": "Gare accessible", "transport": "carTER", "nombre_trajet_moyen": 0.08, "transport_legende": "\ud83d\udeb2 \ud83d\udc94 Car TER \ud83d\ude8d"}, "geometry": {"type": "Point", "coordinates": [0.489174, 44.857061]}}, {"type": "Feature", "properties": {"start": "Castillon", "stop_name": "Gardonne", "type": "Gare accessible", "transport": "carTER", "nombre_trajet_moyen": 0.08, "transport_legende": "\ud83d\udeb2 \ud83d\udc94 Car TER \ud83d\ude8d"}, "geometry": {"type": "Point", "coordinates": [0.331929, 44.834737]}}, {"type": "Feature", "properties": {"start": "Castillon", "stop_name": "Sainte-Foy-la-Grande", "type": "Gare accessible", "transport": "carTER", "nombre_trajet_moyen": 0.08, "transport_legende": "\ud83d\udeb2 \ud83d\udc94 Car TER \ud83d\ude8d"}, "geometry": {"type": "Point", "coordinates": [0.221491, 44.836848]}}, {"type": "Feature", "properties": {"start": "Castillon", "stop_name": "V\u00e9lines", "type": "Gare accessible", "transport": "carTER", "nombre_trajet_moyen": 0.08, "transport_legende": "\ud83d\udeb2 \ud83d\udc94 Car TER \ud83d\ude8d"}, "geometry": {"type": "Point", "coordinates": [0.10351, 44.852029]}}, {"type": "Feature", "properties": {"start": "Castillon", "stop_name": "Saint-\u00c9milion", "type": "Gare accessible", "transport": "carTER", "nombre_trajet_moyen": 0.08, "transport_legende": "\ud83d\udeb2 \ud83d\udc94 Car TER \ud83d\ude8d"}, "geometry": {"type": "Point", "coordinates": [-0.159229, 44.881266]}}, {"type": "Feature", "properties": {"start": "Castillon", "stop_name": "Libourne", "type": "Gare accessible", "transport": "carTER", "nombre_trajet_moyen": 0.08, "transport_legende": "\ud83d\udeb2 \ud83d\udc94 Car TER \ud83d\ude8d"}, "geometry": {"type": "Point", "coordinates": [-0.236359, 44.915904]}}, {"type": "Feature", "properties": {"start": "Castillon", "stop_name": "Lamonzie-Saint-Martin", "type": "Gare accessible", "transport": "carTER", "nombre_trajet_moyen": 0.08, "transport_legende": "\ud83d\udeb2 \ud83d\udc94 Car TER \ud83d\ude8d"}, "geometry": {"type": "Point", "coordinates": [0.380259, 44.843408]}}, {"type": "Feature", "properties": {"start": "Castillon", "stop_name": "Saint-Antoine-de-Breuilh", "type": "Gare accessible", "transport": "carTER", "nombre_trajet_moyen": 0.08, "transport_legende": "\ud83d\udeb2 \ud83d\udc94 Car TER \ud83d\ude8d"}, "geometry": {"type": "Point", "coordinates": [0.152352, 44.846635]}}, {"type": "Feature", "properties": {"start": "Castillon", "stop_name": "Lamothe-Montravel", "type": "Gare accessible", "transport": "carTER", "nombre_trajet_moyen": 0.08, "transport_legende": "\ud83d\udeb2 \ud83d\udc94 Car TER \ud83d\ude8d"}, "geometry": {"type": "Point", "coordinates": [0.021556, 44.853701]}}]}