{"type": "FeatureCollection", "features": [{"type": "Feature", "properties": {"start": "Chindrieux", "stop_name": "Chindrieux", "type": "Gare s\u00e9lectionn\u00e9e", "transport": "carTER", "transport_legende": "\ud83d\udeb2 \ud83d\udc94 Car TER \ud83d\ude8d"}, "geometry": {"type": "Point", "coordinates": [5.84691, 45.803471]}}, {"type": "Feature", "properties": {"start": "Chindrieux", "stop_name": "Bourg-en-Bresse Gare Routi\u00e8re", "type": "Gare accessible", "transport": "carTER", "transport_legende": "\ud83d\udeb2 \ud83d\udc94 Car TER \ud83d\ude8d"}, "geometry": {"type": "Point", "coordinates": [5.215381, 46.199498]}}, {"type": "Feature", "properties": {"start": "Chindrieux", "stop_name": "Pont-d'Ain", "type": "Gare accessible", "transport": "carTER", "transport_legende": "\ud83d\udeb2 \ud83d\udc94 Car TER \ud83d\ude8d"}, "geometry": {"type": "Point", "coordinates": [5.334332, 46.054009]}}, {"type": "Feature", "properties": {"start": "Chindrieux", "stop_name": "Amb\u00e9rieu-en-Bugey", "type": "Gare accessible", "transport": "carTER", "transport_legende": "\ud83d\udeb2 \ud83d\udc94 Car TER \ud83d\ude8d"}, "geometry": {"type": "Point", "coordinates": [5.342402, 45.954014]}}, {"type": "Feature", "properties": {"start": "Chindrieux", "stop_name": "Saint-Rambert-en-Bugey", "type": "Gare accessible", "transport": "carTER", "transport_legende": "\ud83d\udeb2 \ud83d\udc94 Car TER \ud83d\ude8d"}, "geometry": {"type": "Point", "coordinates": [5.438605, 45.947368]}}, {"type": "Feature", "properties": {"start": "Chindrieux", "stop_name": "Tenay - Hauteville", "type": "Gare accessible", "transport": "carTER", "transport_legende": "\ud83d\udeb2 \ud83d\udc94 Car TER \ud83d\ude8d"}, "geometry": {"type": "Point", "coordinates": [5.50161, 45.92221]}}, {"type": "Feature", "properties": {"start": "Chindrieux", "stop_name": "Virieu-le-Grand - Belley", "type": "Gare accessible", "transport": "carTER", "transport_legende": "\ud83d\udeb2 \ud83d\udc94 Car TER \ud83d\ude8d"}, "geometry": {"type": "Point", "coordinates": [5.65363, 45.848323]}}, {"type": "Feature", "properties": {"start": "Chindrieux", "stop_name": "Culoz", "type": "Gare accessible", "transport": "carTER", "transport_legende": "\ud83d\udeb2 \ud83d\udc94 Car TER \ud83d\ude8d"}, "geometry": {"type": "Point", "coordinates": [5.778728, 45.843278]}}, {"type": "Feature", "properties": {"start": "Chindrieux", "stop_name": "Vions - Chanaz", "type": "Gare accessible", "transport": "carTER", "transport_legende": "\ud83d\udeb2 \ud83d\udc94 Car TER \ud83d\ude8d"}, "geometry": {"type": "Point", "coordinates": [5.80689, 45.824552]}}, {"type": "Feature", "properties": {"start": "Chindrieux", "stop_name": "Aix-les-Bains le Revard", "type": "Gare accessible", "transport": "carTER", "transport_legende": "\ud83d\udeb2 \ud83d\udc94 Car TER \ud83d\ude8d"}, "geometry": {"type": "Point", "coordinates": [5.909371, 45.688161]}}, {"type": "Feature", "properties": {"start": "Chindrieux", "stop_name": "Chamb\u00e9ry - Challes-les-Eaux", "type": "Gare accessible", "transport": "carTER", "transport_legende": "\ud83d\udeb2 \ud83d\udc94 Car TER \ud83d\ude8d"}, "geometry": {"type": "Point", "coordinates": [5.919547, 45.571302]}}]}