{"type": "FeatureCollection", "features": [{"type": "Feature", "properties": {"start": "Ch\u00e2tenois Coll\u00e8ge", "stop_name": "Ch\u00e2tenois Coll\u00e8ge", "type": "Gare s\u00e9lectionn\u00e9e", "transport": "carTER", "transport_legende": "\ud83d\udeb2 \ud83d\udc94 Car TER \ud83d\ude8d"}, "geometry": {"type": "Point", "coordinates": [7.407618, 48.270312]}}, {"type": "Feature", "properties": {"start": "Ch\u00e2tenois Coll\u00e8ge", "stop_name": "Li\u00e8pvre Route La Vancelle", "type": "Gare accessible", "transport": "carTER", "transport_legende": "\ud83d\udeb2 \ud83d\udc94 Car TER \ud83d\ude8d"}, "geometry": {"type": "Point", "coordinates": [7.289057, 48.271918]}}, {"type": "Feature", "properties": {"start": "Ch\u00e2tenois Coll\u00e8ge", "stop_name": "La Vancelle Centre", "type": "Gare accessible", "transport": "carTER", "transport_legende": "\ud83d\udeb2 \ud83d\udc94 Car TER \ud83d\ude8d"}, "geometry": {"type": "Point", "coordinates": [7.301402, 48.285278]}}, {"type": "Feature", "properties": {"start": "Ch\u00e2tenois Coll\u00e8ge", "stop_name": "La Vancelle Hurst", "type": "Gare accessible", "transport": "carTER", "transport_legende": "\ud83d\udeb2 \ud83d\udc94 Car TER \ud83d\ude8d"}, "geometry": {"type": "Point", "coordinates": [7.342239, 48.278908]}}, {"type": "Feature", "properties": {"start": "Ch\u00e2tenois Coll\u00e8ge", "stop_name": "Ch\u00e2tenois Val-de-Vill\u00e9 Gare", "type": "Gare accessible", "transport": "carTER", "transport_legende": "\ud83d\udeb2 \ud83d\udc94 Car TER \ud83d\ude8d"}, "geometry": {"type": "Point", "coordinates": [7.381939, 48.282952]}}, {"type": "Feature", "properties": {"start": "Ch\u00e2tenois Coll\u00e8ge", "stop_name": "S\u00e9lestat", "type": "Gare accessible", "transport": "carTER", "transport_legende": "\ud83d\udeb2 \ud83d\udc94 Car TER \ud83d\ude8d"}, "geometry": {"type": "Point", "coordinates": [7.443157, 48.259824]}}]}