{"type": "FeatureCollection", "features": [{"type": "Feature", "properties": {"start": "Crasville-la-Mallet", "stop_name": "Crasville-la-Mallet", "type": "Gare s\u00e9lectionn\u00e9e", "transport": "carTER", "nombre_trajet_moyen": 0.65, "transport_legende": "\ud83d\udeb2 \ud83d\udc94 Car TER \ud83d\ude8d"}, "geometry": {"type": "Point", "coordinates": [0.708916, 49.802515]}}, {"type": "Feature", "properties": {"start": "Crasville-la-Mallet", "stop_name": "Saint-Val\u00e9ry-en-Caux Port", "type": "Gare accessible", "transport": "carTER", "nombre_trajet_moyen": 0.65, "transport_legende": "\ud83d\udeb2 \ud83d\udc94 Car TER \ud83d\ude8d"}, "geometry": {"type": "Point", "coordinates": [0.711695, 49.867517]}}, {"type": "Feature", "properties": {"start": "Crasville-la-Mallet", "stop_name": "Saint-Val\u00e9ry-en-Caux", "type": "Gare accessible", "transport": "carTER", "nombre_trajet_moyen": 0.65, "transport_legende": "\ud83d\udeb2 \ud83d\udc94 Car TER \ud83d\ude8d"}, "geometry": {"type": "Point", "coordinates": [0.713232, 49.861137]}}, {"type": "Feature", "properties": {"start": "Crasville-la-Mallet", "stop_name": "N\u00e9ville Salle des Sports", "type": "Gare accessible", "transport": "carTER", "nombre_trajet_moyen": 0.65, "transport_legende": "\ud83d\udeb2 \ud83d\udc94 Car TER \ud83d\ude8d"}, "geometry": {"type": "Point", "coordinates": [0.70985, 49.827051]}}, {"type": "Feature", "properties": {"start": "Crasville-la-Mallet", "stop_name": "N\u00e9ville Les Broussailles", "type": "Gare accessible", "transport": "carTER", "nombre_trajet_moyen": 0.65, "transport_legende": "\ud83d\udeb2 \ud83d\udc94 Car TER \ud83d\ude8d"}, "geometry": {"type": "Point", "coordinates": [0.70356, 49.823173]}}, {"type": "Feature", "properties": {"start": "Crasville-la-Mallet", "stop_name": "Ocqueville", "type": "Gare accessible", "transport": "carTER", "nombre_trajet_moyen": 0.65, "transport_legende": "\ud83d\udeb2 \ud83d\udc94 Car TER \ud83d\ude8d"}, "geometry": {"type": "Point", "coordinates": [0.697468, 49.801549]}}, {"type": "Feature", "properties": {"start": "Crasville-la-Mallet", "stop_name": "Cany-Barville", "type": "Gare accessible", "transport": "carTER", "nombre_trajet_moyen": 0.65, "transport_legende": "\ud83d\udeb2 \ud83d\udc94 Car TER \ud83d\ude8d"}, "geometry": {"type": "Point", "coordinates": [0.637805, 49.788629]}}, {"type": "Feature", "properties": {"start": "Crasville-la-Mallet", "stop_name": "Saint-Vaast-Dieppedalle", "type": "Gare accessible", "transport": "carTER", "nombre_trajet_moyen": 0.65, "transport_legende": "\ud83d\udeb2 \ud83d\udc94 Car TER \ud83d\ude8d"}, "geometry": {"type": "Point", "coordinates": [0.721415, 49.75585]}}, {"type": "Feature", "properties": {"start": "Crasville-la-Mallet", "stop_name": "Saint-Vaast-Dieppedalle \u00c9glise", "type": "Gare accessible", "transport": "carTER", "nombre_trajet_moyen": 0.65, "transport_legende": "\ud83d\udeb2 \ud83d\udc94 Car TER \ud83d\ude8d"}, "geometry": {"type": "Point", "coordinates": [0.721378, 49.755823]}}, {"type": "Feature", "properties": {"start": "Crasville-la-Mallet", "stop_name": "Doudeville", "type": "Gare accessible", "transport": "carTER", "nombre_trajet_moyen": 0.65, "transport_legende": "\ud83d\udeb2 \ud83d\udc94 Car TER \ud83d\ude8d"}, "geometry": {"type": "Point", "coordinates": [0.774708, 49.720352]}}, {"type": "Feature", "properties": {"start": "Crasville-la-Mallet", "stop_name": "Gr\u00e9monville", "type": "Gare accessible", "transport": "carTER", "nombre_trajet_moyen": 0.65, "transport_legende": "\ud83d\udeb2 \ud83d\udc94 Car TER \ud83d\ude8d"}, "geometry": {"type": "Point", "coordinates": [0.833211, 49.652224]}}, {"type": "Feature", "properties": {"start": "Crasville-la-Mallet", "stop_name": "Yvetot", "type": "Gare accessible", "transport": "carTER", "nombre_trajet_moyen": 0.65, "transport_legende": "\ud83d\udeb2 \ud83d\udc94 Car TER \ud83d\ude8d"}, "geometry": {"type": "Point", "coordinates": [0.750139, 49.622115]}}, {"type": "Feature", "properties": {"start": "Crasville-la-Mallet", "stop_name": "Yvetot Rd-Pt Dames Blanches", "type": "Gare accessible", "transport": "carTER", "nombre_trajet_moyen": 0.54, "transport_legende": "\ud83d\udeb2 \ud83d\udc94 Car TER \ud83d\ude8d"}, "geometry": {"type": "Point", "coordinates": [0.758192, 49.622322]}}, {"type": "Feature", "properties": {"start": "Crasville-la-Mallet", "stop_name": "Yvecrique Mairie", "type": "Gare accessible", "transport": "carTER", "nombre_trajet_moyen": 0.54, "transport_legende": "\ud83d\udeb2 \ud83d\udc94 Car TER \ud83d\ude8d"}, "geometry": {"type": "Point", "coordinates": [0.810247, 49.688849]}}]}