{"type": "FeatureCollection", "features": [{"type": "Feature", "properties": {"start": "Dole", "stop_name": "Dole", "type": "Gare s\u00e9lectionn\u00e9e", "transport": "carTER", "transport_legende": "\ud83d\udeb2 \ud83d\udc94 Car TER \ud83d\ude8d"}, "geometry": {"type": "Point", "coordinates": [5.48806, 47.09615]}}, {"type": "Feature", "properties": {"start": "Dole", "stop_name": "Lons-le-Saunier", "type": "Gare accessible", "transport": "carTER", "transport_legende": "\ud83d\udeb2 \ud83d\udc94 Car TER \ud83d\ude8d"}, "geometry": {"type": "Point", "coordinates": [5.551108, 46.66858]}}, {"type": "Feature", "properties": {"start": "Dole", "stop_name": "Selli\u00e8res", "type": "Gare accessible", "transport": "carTER", "transport_legende": "\ud83d\udeb2 \ud83d\udc94 Car TER \ud83d\ude8d"}, "geometry": {"type": "Point", "coordinates": [5.565172, 46.827441]}}, {"type": "Feature", "properties": {"start": "Dole", "stop_name": "Tasseni\u00e8res", "type": "Gare accessible", "transport": "carTER", "transport_legende": "\ud83d\udeb2 \ud83d\udc94 Car TER \ud83d\ude8d"}, "geometry": {"type": "Point", "coordinates": [5.515425, 46.922527]}}, {"type": "Feature", "properties": {"start": "Dole", "stop_name": "Le Deschaux", "type": "Gare accessible", "transport": "carTER", "transport_legende": "\ud83d\udeb2 \ud83d\udc94 Car TER \ud83d\ude8d"}, "geometry": {"type": "Point", "coordinates": [5.502108, 46.951619]}}, {"type": "Feature", "properties": {"start": "Dole", "stop_name": "Selli\u00e8res D475", "type": "Gare accessible", "transport": "carTER", "transport_legende": "\ud83d\udeb2 \ud83d\udc94 Car TER \ud83d\ude8d"}, "geometry": {"type": "Point", "coordinates": [5.572048, 46.833652]}}]}