{"type": "FeatureCollection", "features": [{"type": "Feature", "properties": {"start": "GEX Centre", "stop_name": "GEX Centre", "type": "Gare s\u00e9lectionn\u00e9e", "transport": "carTER", "nombre_trajet_moyen": 3.71, "transport_legende": "\ud83d\udeb2 \ud83d\udc94 Car TER \ud83d\ude8d"}, "geometry": {"type": "Point", "coordinates": [6.05837, 46.331773]}}, {"type": "Feature", "properties": {"start": "GEX Centre", "stop_name": "Divonne-les-Bains Ancienne Gare", "type": "Gare accessible", "transport": "carTER", "nombre_trajet_moyen": 3.71, "transport_legende": "\ud83d\udeb2 \ud83d\udc94 Car TER \ud83d\ude8d"}, "geometry": {"type": "Point", "coordinates": [6.137003, 46.353462]}}, {"type": "Feature", "properties": {"start": "GEX Centre", "stop_name": "Gex Vertes Campagnes", "type": "Gare accessible", "transport": "carTER", "nombre_trajet_moyen": 3.71, "transport_legende": "\ud83d\udeb2 \ud83d\udc94 Car TER \ud83d\ude8d"}, "geometry": {"type": "Point", "coordinates": [6.055178, 46.326057]}}, {"type": "Feature", "properties": {"start": "GEX Centre", "stop_name": "ECHENEVEX RD984", "type": "Gare accessible", "transport": "carTER", "nombre_trajet_moyen": 3.71, "transport_legende": "\ud83d\udeb2 \ud83d\udc94 Car TER \ud83d\ude8d"}, "geometry": {"type": "Point", "coordinates": [6.049014, 46.310653]}}, {"type": "Feature", "properties": {"start": "GEX Centre", "stop_name": "CHEVRY Mairie", "type": "Gare accessible", "transport": "carTER", "nombre_trajet_moyen": 3.71, "transport_legende": "\ud83d\udeb2 \ud83d\udc94 Car TER \ud83d\ude8d"}, "geometry": {"type": "Point", "coordinates": [6.038532, 46.28222]}}, {"type": "Feature", "properties": {"start": "GEX Centre", "stop_name": "Saint-Genis-Pouilly Allondon", "type": "Gare accessible", "transport": "carTER", "nombre_trajet_moyen": 3.71, "transport_legende": "\ud83d\udeb2 \ud83d\udc94 Car TER \ud83d\ude8d"}, "geometry": {"type": "Point", "coordinates": [6.02749, 46.255547]}}, {"type": "Feature", "properties": {"start": "GEX Centre", "stop_name": "Saint-Genis-Pouilly Centre Jean Monnet", "type": "Gare accessible", "transport": "carTER", "nombre_trajet_moyen": 3.71, "transport_legende": "\ud83d\udeb2 \ud83d\udc94 Car TER \ud83d\ude8d"}, "geometry": {"type": "Point", "coordinates": [6.022978, 46.244904]}}, {"type": "Feature", "properties": {"start": "GEX Centre", "stop_name": "Saint-Genis-Pouilly Porte de France", "type": "Gare accessible", "transport": "carTER", "nombre_trajet_moyen": 3.71, "transport_legende": "\ud83d\udeb2 \ud83d\udc94 Car TER \ud83d\ude8d"}, "geometry": {"type": "Point", "coordinates": [6.029241, 46.240849]}}, {"type": "Feature", "properties": {"start": "GEX Centre", "stop_name": "THOIRY Val Thoiry", "type": "Gare accessible", "transport": "carTER", "nombre_trajet_moyen": 3.71, "transport_legende": "\ud83d\udeb2 \ud83d\udc94 Car TER \ud83d\ude8d"}, "geometry": {"type": "Point", "coordinates": [5.992444, 46.227114]}}, {"type": "Feature", "properties": {"start": "GEX Centre", "stop_name": "COLLONGES Poste (Ain)", "type": "Gare accessible", "transport": "carTER", "nombre_trajet_moyen": 3.71, "transport_legende": "\ud83d\udeb2 \ud83d\udc94 Car TER \ud83d\ude8d"}, "geometry": {"type": "Point", "coordinates": [5.903134, 46.136811]}}, {"type": "Feature", "properties": {"start": "GEX Centre", "stop_name": "Bellegarde Gare Routi\u00e8re", "type": "Gare accessible", "transport": "carTER", "nombre_trajet_moyen": 3.71, "transport_legende": "\ud83d\udeb2 \ud83d\udc94 Car TER \ud83d\ude8d"}, "geometry": {"type": "Point", "coordinates": [5.824986, 46.110645]}}, {"type": "Feature", "properties": {"start": "GEX Centre", "stop_name": "Bellegarde-sur-Valserine Lyc\u00e9e", "type": "Gare accessible", "transport": "carTER", "nombre_trajet_moyen": 0.34, "transport_legende": "\ud83d\udeb2 \ud83d\udc94 Car TER \ud83d\ude8d"}, "geometry": {"type": "Point", "coordinates": [5.815965, 46.11534]}}]}