{"type": "FeatureCollection", "features": [{"type": "Feature", "properties": {"start": "Keskastel Rue de la Lib\u00e9ration", "stop_name": "Keskastel Rue de la Lib\u00e9ration", "type": "Gare s\u00e9lectionn\u00e9e", "transport": "carTER", "transport_legende": "\ud83d\udeb2 \ud83d\udc94 Car TER \ud83d\ude8d"}, "geometry": {"type": "Point", "coordinates": [7.046092, 48.977149]}}, {"type": "Feature", "properties": {"start": "Keskastel Rue de la Lib\u00e9ration", "stop_name": "Herbitzheim Rue de Hambach", "type": "Gare accessible", "transport": "carTER", "transport_legende": "\ud83d\udeb2 \ud83d\udc94 Car TER \ud83d\ude8d"}, "geometry": {"type": "Point", "coordinates": [7.076665, 49.021414]}}, {"type": "Feature", "properties": {"start": "Keskastel Rue de la Lib\u00e9ration", "stop_name": "Herbitzheim Msp", "type": "Gare accessible", "transport": "carTER", "transport_legende": "\ud83d\udeb2 \ud83d\udc94 Car TER \ud83d\ude8d"}, "geometry": {"type": "Point", "coordinates": [7.081511, 49.012883]}}, {"type": "Feature", "properties": {"start": "Keskastel Rue de la Lib\u00e9ration", "stop_name": "Keskastel Gare", "type": "Gare accessible", "transport": "carTER", "transport_legende": "\ud83d\udeb2 \ud83d\udc94 Car TER \ud83d\ude8d"}, "geometry": {"type": "Point", "coordinates": [7.049639, 48.966364]}}, {"type": "Feature", "properties": {"start": "Keskastel Rue de la Lib\u00e9ration", "stop_name": "Sarre-Union", "type": "Gare accessible", "transport": "carTER", "transport_legende": "\ud83d\udeb2 \ud83d\udc94 Car TER \ud83d\ude8d"}, "geometry": {"type": "Point", "coordinates": [7.085044, 48.936017]}}, {"type": "Feature", "properties": {"start": "Keskastel Rue de la Lib\u00e9ration", "stop_name": "Herbitzheim Mairie", "type": "Gare accessible", "transport": "carTER", "transport_legende": "\ud83d\udeb2 \ud83d\udc94 Car TER \ud83d\ude8d"}, "geometry": {"type": "Point", "coordinates": [7.082943, 49.01705]}}]}