{"type": "FeatureCollection", "features": [{"type": "Feature", "properties": {"start": "Les M\u00e9es", "stop_name": "Les M\u00e9es", "type": "Gare s\u00e9lectionn\u00e9e", "transport": "carTER", "nombre_trajet_moyen": 1.16, "transport_legende": "\ud83d\udeb2 \ud83d\udc94 Car TER \ud83d\ude8d"}, "geometry": {"type": "Point", "coordinates": [5.948668, 44.032803]}}, {"type": "Feature", "properties": {"start": "Les M\u00e9es", "stop_name": "Digne-les-Bains", "type": "Gare accessible", "transport": "carTER", "nombre_trajet_moyen": 1.16, "transport_legende": "\ud83d\udeb2 \ud83d\udc94 Car TER \ud83d\ude8d"}, "geometry": {"type": "Point", "coordinates": [6.223133, 44.088631]}}, {"type": "Feature", "properties": {"start": "Les M\u00e9es", "stop_name": "Mallemoisson", "type": "Gare accessible", "transport": "carTER", "nombre_trajet_moyen": 1.16, "transport_legende": "\ud83d\udeb2 \ud83d\udc94 Car TER \ud83d\ude8d"}, "geometry": {"type": "Point", "coordinates": [6.127305, 44.042245]}}, {"type": "Feature", "properties": {"start": "Les M\u00e9es", "stop_name": "Malijai", "type": "Gare accessible", "transport": "carTER", "nombre_trajet_moyen": 1.16, "transport_legende": "\ud83d\udeb2 \ud83d\udc94 Car TER \ud83d\ude8d"}, "geometry": {"type": "Point", "coordinates": [6.03188, 44.046354]}}, {"type": "Feature", "properties": {"start": "Les M\u00e9es", "stop_name": "Peyruis P\u00e9age", "type": "Gare accessible", "transport": "carTER", "nombre_trajet_moyen": 1.16, "transport_legende": "\ud83d\udeb2 \ud83d\udc94 Car TER \ud83d\ude8d"}, "geometry": {"type": "Point", "coordinates": [5.937107, 44.027242]}}, {"type": "Feature", "properties": {"start": "Les M\u00e9es", "stop_name": "Manosque - Gr\u00e9oux-les-Bains", "type": "Gare accessible", "transport": "carTER", "nombre_trajet_moyen": 1.16, "transport_legende": "\ud83d\udeb2 \ud83d\udc94 Car TER \ud83d\ude8d"}, "geometry": {"type": "Point", "coordinates": [5.793324, 43.823194]}}, {"type": "Feature", "properties": {"start": "Les M\u00e9es", "stop_name": "Aix-en-Provence TGV", "type": "Gare accessible", "transport": "carTER", "nombre_trajet_moyen": 1.16, "transport_legende": "\ud83d\udeb2 \ud83d\udc94 Car TER \ud83d\ude8d"}, "geometry": {"type": "Point", "coordinates": [5.317534, 43.455237]}}]}