{"type": "FeatureCollection", "features": [{"type": "Feature", "properties": {"start": "Les Neyrolles Centre", "stop_name": "Les Neyrolles Centre", "type": "Gare s\u00e9lectionn\u00e9e", "transport": "carTER", "transport_legende": "\ud83d\udeb2 \ud83d\udc94 Car TER \ud83d\ude8d"}, "geometry": {"type": "Point", "coordinates": [5.630536, 46.140683]}}, {"type": "Feature", "properties": {"start": "Les Neyrolles Centre", "stop_name": "Nurieux Gare", "type": "Gare accessible", "transport": "carTER", "transport_legende": "\ud83d\udeb2 \ud83d\udc94 Car TER \ud83d\ude8d"}, "geometry": {"type": "Point", "coordinates": [5.5273, 46.186468]}}, {"type": "Feature", "properties": {"start": "Les Neyrolles Centre", "stop_name": "Brion - Montr\u00e9al-la-Cluse Gare", "type": "Gare accessible", "transport": "carTER", "transport_legende": "\ud83d\udeb2 \ud83d\udc94 Car TER \ud83d\ude8d"}, "geometry": {"type": "Point", "coordinates": [5.558513, 46.175774]}}, {"type": "Feature", "properties": {"start": "Les Neyrolles Centre", "stop_name": "MONTREAL La Cluse Ville", "type": "Gare accessible", "transport": "carTER", "transport_legende": "\ud83d\udeb2 \ud83d\udc94 Car TER \ud83d\ude8d"}, "geometry": {"type": "Point", "coordinates": [5.573158, 46.171287]}}, {"type": "Feature", "properties": {"start": "Les Neyrolles Centre", "stop_name": "Nantua Esplanade", "type": "Gare accessible", "transport": "carTER", "transport_legende": "\ud83d\udeb2 \ud83d\udc94 Car TER \ud83d\ude8d"}, "geometry": {"type": "Point", "coordinates": [5.603607, 46.156179]}}, {"type": "Feature", "properties": {"start": "Les Neyrolles Centre", "stop_name": "Nantua M\u00e9diath\u00e8que", "type": "Gare accessible", "transport": "carTER", "transport_legende": "\ud83d\udeb2 \ud83d\udc94 Car TER \ud83d\ude8d"}, "geometry": {"type": "Point", "coordinates": [5.603886, 46.151193]}}, {"type": "Feature", "properties": {"start": "Les Neyrolles Centre", "stop_name": "LE POIZAT-LALLEYRIAT RD1084", "type": "Gare accessible", "transport": "carTER", "transport_legende": "\ud83d\udeb2 \ud83d\udc94 Car TER \ud83d\ude8d"}, "geometry": {"type": "Point", "coordinates": [5.689644, 46.167187]}}, {"type": "Feature", "properties": {"start": "Les Neyrolles Centre", "stop_name": "Saint-Germain-de-Joux centre", "type": "Gare accessible", "transport": "carTER", "transport_legende": "\ud83d\udeb2 \ud83d\udc94 Car TER \ud83d\ude8d"}, "geometry": {"type": "Point", "coordinates": [5.73776, 46.17807]}}, {"type": "Feature", "properties": {"start": "Les Neyrolles Centre", "stop_name": "Ch\u00e2tillon-en-Michaille centre", "type": "Gare accessible", "transport": "carTER", "transport_legende": "\ud83d\udeb2 \ud83d\udc94 Car TER \ud83d\ude8d"}, "geometry": {"type": "Point", "coordinates": [5.798421, 46.144399]}}, {"type": "Feature", "properties": {"start": "Les Neyrolles Centre", "stop_name": "Bellegarde-sur-Valserine Lyc\u00e9e", "type": "Gare accessible", "transport": "carTER", "transport_legende": "\ud83d\udeb2 \ud83d\udc94 Car TER \ud83d\ude8d"}, "geometry": {"type": "Point", "coordinates": [5.815965, 46.11534]}}, {"type": "Feature", "properties": {"start": "Les Neyrolles Centre", "stop_name": "Bellegarde Gare Routi\u00e8re", "type": "Gare accessible", "transport": "carTER", "transport_legende": "\ud83d\udeb2 \ud83d\udc94 Car TER \ud83d\ude8d"}, "geometry": {"type": "Point", "coordinates": [5.824986, 46.110645]}}, {"type": "Feature", "properties": {"start": "Les Neyrolles Centre", "stop_name": "Bourg-en-Bresse Gare Routi\u00e8re", "type": "Gare accessible", "transport": "carTER", "transport_legende": "\ud83d\udeb2 \ud83d\udc94 Car TER \ud83d\ude8d"}, "geometry": {"type": "Point", "coordinates": [5.215381, 46.199498]}}, {"type": "Feature", "properties": {"start": "Les Neyrolles Centre", "stop_name": "Ceyzeriat-Mairie", "type": "Gare accessible", "transport": "carTER", "transport_legende": "\ud83d\udeb2 \ud83d\udc94 Car TER \ud83d\ude8d"}, "geometry": {"type": "Point", "coordinates": [5.322512, 46.178929]}}, {"type": "Feature", "properties": {"start": "Les Neyrolles Centre", "stop_name": "Villereversure", "type": "Gare accessible", "transport": "carTER", "transport_legende": "\ud83d\udeb2 \ud83d\udc94 Car TER \ud83d\ude8d"}, "geometry": {"type": "Point", "coordinates": [5.397474, 46.194192]}}, {"type": "Feature", "properties": {"start": "Les Neyrolles Centre", "stop_name": "Hautecour - Ecole-Primaire", "type": "Gare accessible", "transport": "carTER", "transport_legende": "\ud83d\udeb2 \ud83d\udc94 Car TER \ud83d\ude8d"}, "geometry": {"type": "Point", "coordinates": [5.417231, 46.159673]}}]}