{"type": "FeatureCollection", "features": [{"type": "Feature", "properties": {"start": "Lorentzen Rue principale", "stop_name": "Lorentzen Rue principale", "type": "Gare s\u00e9lectionn\u00e9e", "transport": "carTER", "transport_legende": "\ud83d\udeb2 \ud83d\udc94 Car TER \ud83d\ude8d"}, "geometry": {"type": "Point", "coordinates": [7.175649, 48.952522]}}, {"type": "Feature", "properties": {"start": "Lorentzen Rue principale", "stop_name": "Sarralbe Centre", "type": "Gare accessible", "transport": "carTER", "transport_legende": "\ud83d\udeb2 \ud83d\udc94 Car TER \ud83d\ude8d"}, "geometry": {"type": "Point", "coordinates": [7.028793, 48.998501]}}, {"type": "Feature", "properties": {"start": "Lorentzen Rue principale", "stop_name": "Sarre-Union", "type": "Gare accessible", "transport": "carTER", "transport_legende": "\ud83d\udeb2 \ud83d\udc94 Car TER \ud83d\ude8d"}, "geometry": {"type": "Point", "coordinates": [7.085044, 48.936017]}}, {"type": "Feature", "properties": {"start": "Lorentzen Rue principale", "stop_name": "Sarre-Union Rue des Roses", "type": "Gare accessible", "transport": "carTER", "transport_legende": "\ud83d\udeb2 \ud83d\udc94 Car TER \ud83d\ude8d"}, "geometry": {"type": "Point", "coordinates": [7.091307, 48.937562]}}, {"type": "Feature", "properties": {"start": "Lorentzen Rue principale", "stop_name": "DOMFESSEL Abri rue principale", "type": "Gare accessible", "transport": "carTER", "transport_legende": "\ud83d\udeb2 \ud83d\udc94 Car TER \ud83d\ude8d"}, "geometry": {"type": "Point", "coordinates": [7.160614, 48.951581]}}, {"type": "Feature", "properties": {"start": "Lorentzen Rue principale", "stop_name": "Diemeringen", "type": "Gare accessible", "transport": "carTER", "transport_legende": "\ud83d\udeb2 \ud83d\udc94 Car TER \ud83d\ude8d"}, "geometry": {"type": "Point", "coordinates": [7.185252, 48.940533]}}]}