{"type": "FeatureCollection", "features": [{"type": "Feature", "properties": {"start": "Martres-Tolosane", "stop_name": "Martres-Tolosane", "type": "Gare s\u00e9lectionn\u00e9e", "transport": "carTER", "transport_legende": "\ud83d\udeb2 \ud83d\udc94 Car TER \ud83d\ude8d"}, "geometry": {"type": "Point", "coordinates": [1.016416, 43.196254]}}, {"type": "Feature", "properties": {"start": "Martres-Tolosane", "stop_name": "Boussens", "type": "Gare accessible", "transport": "carTER", "transport_legende": "\ud83d\udeb2 \ud83d\udc94 Car TER \ud83d\ude8d"}, "geometry": {"type": "Point", "coordinates": [0.972543, 43.179617]}}, {"type": "Feature", "properties": {"start": "Martres-Tolosane", "stop_name": "Caz\u00e8res", "type": "Gare accessible", "transport": "carTER", "transport_legende": "\ud83d\udeb2 \ud83d\udc94 Car TER \ud83d\ude8d"}, "geometry": {"type": "Point", "coordinates": [1.083106, 43.212834]}}, {"type": "Feature", "properties": {"start": "Martres-Tolosane", "stop_name": "Carbonne", "type": "Gare accessible", "transport": "carTER", "transport_legende": "\ud83d\udeb2 \ud83d\udc94 Car TER \ud83d\ude8d"}, "geometry": {"type": "Point", "coordinates": [1.212514, 43.298219]}}, {"type": "Feature", "properties": {"start": "Martres-Tolosane", "stop_name": "Longages - No\u00e9", "type": "Gare accessible", "transport": "carTER", "transport_legende": "\ud83d\udeb2 \ud83d\udc94 Car TER \ud83d\ude8d"}, "geometry": {"type": "Point", "coordinates": [1.251657, 43.356471]}}, {"type": "Feature", "properties": {"start": "Martres-Tolosane", "stop_name": "Le Fauga", "type": "Gare accessible", "transport": "carTER", "transport_legende": "\ud83d\udeb2 \ud83d\udc94 Car TER \ud83d\ude8d"}, "geometry": {"type": "Point", "coordinates": [1.28306, 43.404424]}}, {"type": "Feature", "properties": {"start": "Martres-Tolosane", "stop_name": "Muret", "type": "Gare accessible", "transport": "carTER", "transport_legende": "\ud83d\udeb2 \ud83d\udc94 Car TER \ud83d\ude8d"}, "geometry": {"type": "Point", "coordinates": [1.324449, 43.464824]}}, {"type": "Feature", "properties": {"start": "Martres-Tolosane", "stop_name": "Portet Saint-Simon", "type": "Gare accessible", "transport": "carTER", "transport_legende": "\ud83d\udeb2 \ud83d\udc94 Car TER \ud83d\ude8d"}, "geometry": {"type": "Point", "coordinates": [1.389243, 43.527904]}}, {"type": "Feature", "properties": {"start": "Martres-Tolosane", "stop_name": "Toulouse Matabiau", "type": "Gare accessible", "transport": "carTER", "transport_legende": "\ud83d\udeb2 \ud83d\udc94 Car TER \ud83d\ude8d"}, "geometry": {"type": "Point", "coordinates": [1.453616, 43.611206]}}]}