{"type": "FeatureCollection", "features": [{"type": "Feature", "properties": {"start": "Nalliers Centre", "stop_name": "Nalliers Centre", "type": "Gare s\u00e9lectionn\u00e9e", "transport": "carTER", "transport_legende": "\ud83d\udeb2 \ud83d\udc94 Car TER \ud83d\ude8d"}, "geometry": {"type": "Point", "coordinates": [-1.024175, 46.470867]}}, {"type": "Feature", "properties": {"start": "Nalliers Centre", "stop_name": "Fontenay-le-Comte PEMU", "type": "Gare accessible", "transport": "carTER", "transport_legende": "\ud83d\udeb2 \ud83d\udc94 Car TER \ud83d\ude8d"}, "geometry": {"type": "Point", "coordinates": [-0.809593, 46.461074]}}, {"type": "Feature", "properties": {"start": "Nalliers Centre", "stop_name": "Fontenay-le-Comte P\u00f4le Sant\u00e9", "type": "Gare accessible", "transport": "carTER", "transport_legende": "\ud83d\udeb2 \ud83d\udc94 Car TER \ud83d\ude8d"}, "geometry": {"type": "Point", "coordinates": [-0.82586, 46.466832]}}, {"type": "Feature", "properties": {"start": "Nalliers Centre", "stop_name": "Mouzeuil-Saint-Martin Centre", "type": "Gare accessible", "transport": "carTER", "transport_legende": "\ud83d\udeb2 \ud83d\udc94 Car TER \ud83d\ude8d"}, "geometry": {"type": "Point", "coordinates": [-0.982991, 46.465134]}}, {"type": "Feature", "properties": {"start": "Nalliers Centre", "stop_name": "Lu\u00e7on", "type": "Gare accessible", "transport": "carTER", "transport_legende": "\ud83d\udeb2 \ud83d\udc94 Car TER \ud83d\ude8d"}, "geometry": {"type": "Point", "coordinates": [-1.17632, 46.470771]}}, {"type": "Feature", "properties": {"start": "Nalliers Centre", "stop_name": "Mareuil-sur-Lay-Dissais", "type": "Gare accessible", "transport": "carTER", "transport_legende": "\ud83d\udeb2 \ud83d\udc94 Car TER \ud83d\ude8d"}, "geometry": {"type": "Point", "coordinates": [-1.224182, 46.535706]}}, {"type": "Feature", "properties": {"start": "Nalliers Centre", "stop_name": "La Roche-sur-Yon", "type": "Gare accessible", "transport": "carTER", "transport_legende": "\ud83d\udeb2 \ud83d\udc94 Car TER \ud83d\ude8d"}, "geometry": {"type": "Point", "coordinates": [-1.43566, 46.672075]}}]}