{"type": "FeatureCollection", "features": [{"type": "Feature", "properties": {"start": "Orthez", "stop_name": "Orthez", "type": "Gare s\u00e9lectionn\u00e9e", "transport": "carTER", "nombre_trajet_moyen": 0.98, "transport_legende": "\ud83d\udeb2 \ud83d\udc94 Car TER \ud83d\ude8d"}, "geometry": {"type": "Point", "coordinates": [-0.76776, 43.484242]}}, {"type": "Feature", "properties": {"start": "Orthez", "stop_name": "Morcenx", "type": "Gare accessible", "transport": "carTER", "nombre_trajet_moyen": 0.02, "transport_legende": "\ud83d\udeb2 \ud83d\udc94 Car TER \ud83d\ude8d"}, "geometry": {"type": "Point", "coordinates": [-0.90864, 44.033565]}}, {"type": "Feature", "properties": {"start": "Orthez", "stop_name": "Dax", "type": "Gare accessible", "transport": "carTER", "nombre_trajet_moyen": 0.02, "transport_legende": "\ud83d\udeb2 \ud83d\udc94 Car TER \ud83d\ude8d"}, "geometry": {"type": "Point", "coordinates": [-1.050301, 43.720472]}}, {"type": "Feature", "properties": {"start": "Orthez", "stop_name": "Puyo\u00f4", "type": "Gare accessible", "transport": "carTER", "nombre_trajet_moyen": 0.02, "transport_legende": "\ud83d\udeb2 \ud83d\udc94 Car TER \ud83d\ude8d"}, "geometry": {"type": "Point", "coordinates": [-0.910812, 43.524682]}}, {"type": "Feature", "properties": {"start": "Orthez", "stop_name": "Artix", "type": "Gare accessible", "transport": "carTER", "nombre_trajet_moyen": 0.02, "transport_legende": "\ud83d\udeb2 \ud83d\udc94 Car TER \ud83d\ude8d"}, "geometry": {"type": "Point", "coordinates": [-0.570082, 43.393195]}}, {"type": "Feature", "properties": {"start": "Orthez", "stop_name": "Pau", "type": "Gare accessible", "transport": "carTER", "nombre_trajet_moyen": 0.98, "transport_legende": "\ud83d\udeb2 \ud83d\udc94 Car TER \ud83d\ude8d"}, "geometry": {"type": "Point", "coordinates": [-0.369675, 43.291711]}}, {"type": "Feature", "properties": {"start": "Orthez", "stop_name": "Coarraze - Nay", "type": "Gare accessible", "transport": "carTER", "nombre_trajet_moyen": 0.01, "transport_legende": "\ud83d\udeb2 \ud83d\udc94 Car TER \ud83d\ude8d"}, "geometry": {"type": "Point", "coordinates": [-0.241699, 43.18183]}}, {"type": "Feature", "properties": {"start": "Orthez", "stop_name": "Lourdes", "type": "Gare accessible", "transport": "carTER", "nombre_trajet_moyen": 0.97, "transport_legende": "\ud83d\udeb2 \ud83d\udc94 Car TER \ud83d\ude8d"}, "geometry": {"type": "Point", "coordinates": [-0.042186, 43.100429]}}, {"type": "Feature", "properties": {"start": "Orthez", "stop_name": "Tarbes", "type": "Gare accessible", "transport": "carTER", "nombre_trajet_moyen": 0.97, "transport_legende": "\ud83d\udeb2 \ud83d\udc94 Car TER \ud83d\ude8d"}, "geometry": {"type": "Point", "coordinates": [0.069442, 43.239863]}}, {"type": "Feature", "properties": {"start": "Orthez", "stop_name": "Toulouse Matabiau", "type": "Gare accessible", "transport": "carTER", "nombre_trajet_moyen": 0.96, "transport_legende": "\ud83d\udeb2 \ud83d\udc94 Car TER \ud83d\ude8d"}, "geometry": {"type": "Point", "coordinates": [1.453616, 43.611206]}}, {"type": "Feature", "properties": {"start": "Orthez", "stop_name": "Bayonne", "type": "Gare accessible", "transport": "carTER", "nombre_trajet_moyen": 0.96, "transport_legende": "\ud83d\udeb2 \ud83d\udc94 Car TER \ud83d\ude8d"}, "geometry": {"type": "Point", "coordinates": [-1.470368, 43.496793]}}]}