{"type": "FeatureCollection", "features": [{"type": "Feature", "properties": {"start": "P\u00e9rigueux", "stop_name": "P\u00e9rigueux", "type": "Gare s\u00e9lectionn\u00e9e", "transport": "carTER", "nombre_trajet_moyen": 0.11, "transport_legende": "\ud83d\udeb2 \ud83d\udc94 Car TER \ud83d\ude8d"}, "geometry": {"type": "Point", "coordinates": [0.707879, 45.187408]}}, {"type": "Feature", "properties": {"start": "P\u00e9rigueux", "stop_name": "Limoges B\u00e9n\u00e9dictins", "type": "Gare accessible", "transport": "carTER", "nombre_trajet_moyen": 0.11, "transport_legende": "\ud83d\udeb2 \ud83d\udc94 Car TER \ud83d\ude8d"}, "geometry": {"type": "Point", "coordinates": [1.267419, 45.836207]}}, {"type": "Feature", "properties": {"start": "P\u00e9rigueux", "stop_name": "Nexon", "type": "Gare accessible", "transport": "carTER", "nombre_trajet_moyen": 0.11, "transport_legende": "\ud83d\udeb2 \ud83d\udc94 Car TER \ud83d\ude8d"}, "geometry": {"type": "Point", "coordinates": [1.178431, 45.691565]}}, {"type": "Feature", "properties": {"start": "P\u00e9rigueux", "stop_name": "Bussi\u00e8re-Galant", "type": "Gare accessible", "transport": "carTER", "nombre_trajet_moyen": 0.11, "transport_legende": "\ud83d\udeb2 \ud83d\udc94 Car TER \ud83d\ude8d"}, "geometry": {"type": "Point", "coordinates": [1.026176, 45.607611]}}, {"type": "Feature", "properties": {"start": "P\u00e9rigueux", "stop_name": "La Coquille", "type": "Gare accessible", "transport": "carTER", "nombre_trajet_moyen": 0.11, "transport_legende": "\ud83d\udeb2 \ud83d\udc94 Car TER \ud83d\ude8d"}, "geometry": {"type": "Point", "coordinates": [0.974417, 45.540778]}}, {"type": "Feature", "properties": {"start": "P\u00e9rigueux", "stop_name": "Thiviers", "type": "Gare accessible", "transport": "carTER", "nombre_trajet_moyen": 0.11, "transport_legende": "\ud83d\udeb2 \ud83d\udc94 Car TER \ud83d\ude8d"}, "geometry": {"type": "Point", "coordinates": [0.92135, 45.418977]}}]}