{"type": "FeatureCollection", "features": [{"type": "Feature", "properties": {"start": "Saint-Satur Fontenay", "stop_name": "Saint-Satur Fontenay", "type": "Gare s\u00e9lectionn\u00e9e", "transport": "carTER", "nombre_trajet_moyen": 1.65, "transport_legende": "\ud83d\udeb2 \ud83d\udc94 Car TER \ud83d\ude8d"}, "geometry": {"type": "Point", "coordinates": [2.844, 47.339521]}}, {"type": "Feature", "properties": {"start": "Saint-Satur Fontenay", "stop_name": "Bourges", "type": "Gare accessible", "transport": "carTER", "nombre_trajet_moyen": 1.65, "transport_legende": "\ud83d\udeb2 \ud83d\udc94 Car TER \ud83d\ude8d"}, "geometry": {"type": "Point", "coordinates": [2.394236, 47.094129]}}, {"type": "Feature", "properties": {"start": "Saint-Satur Fontenay", "stop_name": "Bourges Gare Routi\u00e8re", "type": "Gare accessible", "transport": "carTER", "nombre_trajet_moyen": 1.65, "transport_legende": "\ud83d\udeb2 \ud83d\udc94 Car TER \ud83d\ude8d"}, "geometry": {"type": "Point", "coordinates": [2.386895, 47.082812]}}, {"type": "Feature", "properties": {"start": "Saint-Satur Fontenay", "stop_name": "Sancerre-H\u00f4tel-du-Rempart", "type": "Gare accessible", "transport": "carTER", "nombre_trajet_moyen": 1.65, "transport_legende": "\ud83d\udeb2 \ud83d\udc94 Car TER \ud83d\ude8d"}, "geometry": {"type": "Point", "coordinates": [2.836975, 47.332515]}}, {"type": "Feature", "properties": {"start": "Saint-Satur Fontenay", "stop_name": "Saint-Satur Place de la R\u00e9publique", "type": "Gare accessible", "transport": "carTER", "nombre_trajet_moyen": 1.65, "transport_legende": "\ud83d\udeb2 \ud83d\udc94 Car TER \ud83d\ude8d"}, "geometry": {"type": "Point", "coordinates": [2.857009, 47.339761]}}, {"type": "Feature", "properties": {"start": "Saint-Satur Fontenay", "stop_name": "Bannay Bourg", "type": "Gare accessible", "transport": "carTER", "nombre_trajet_moyen": 1.65, "transport_legende": "\ud83d\udeb2 \ud83d\udc94 Car TER \ud83d\ude8d"}, "geometry": {"type": "Point", "coordinates": [2.885861, 47.386964]}}, {"type": "Feature", "properties": {"start": "Saint-Satur Fontenay", "stop_name": "Bannay les Hautes de Bussy", "type": "Gare accessible", "transport": "carTER", "nombre_trajet_moyen": 1.65, "transport_legende": "\ud83d\udeb2 \ud83d\udc94 Car TER \ud83d\ude8d"}, "geometry": {"type": "Point", "coordinates": [2.88571, 47.386664]}}, {"type": "Feature", "properties": {"start": "Saint-Satur Fontenay", "stop_name": "Cosne-sur-Loire", "type": "Gare accessible", "transport": "carTER", "nombre_trajet_moyen": 1.65, "transport_legende": "\ud83d\udeb2 \ud83d\udc94 Car TER \ud83d\ude8d"}, "geometry": {"type": "Point", "coordinates": [2.93192, 47.413966]}}]}