{"type": "FeatureCollection", "features": [{"type": "Feature", "properties": {"start": "Saint-Lactencin", "stop_name": "Saint-Lactencin", "type": "Gare s\u00e9lectionn\u00e9e", "transport": "carTER", "nombre_trajet_moyen": 0.66, "transport_legende": "\ud83d\udeb2 \ud83d\udc94 Car TER \ud83d\ude8d"}, "geometry": {"type": "Point", "coordinates": [1.492016, 46.89778]}}, {"type": "Feature", "properties": {"start": "Saint-Lactencin", "stop_name": "Loches", "type": "Gare accessible", "transport": "carTER", "nombre_trajet_moyen": 0.34, "transport_legende": "\ud83d\udeb2 \ud83d\udc94 Car TER \ud83d\ude8d"}, "geometry": {"type": "Point", "coordinates": [1.000467, 47.130464]}}, {"type": "Feature", "properties": {"start": "Saint-Lactencin", "stop_name": "Loches Agn\u00e8s Sorel", "type": "Gare accessible", "transport": "carTER", "nombre_trajet_moyen": 0.34, "transport_legende": "\ud83d\udeb2 \ud83d\udc94 Car TER \ud83d\ude8d"}, "geometry": {"type": "Point", "coordinates": [0.993458, 47.125447]}}, {"type": "Feature", "properties": {"start": "Saint-Lactencin", "stop_name": "Perrusson", "type": "Gare accessible", "transport": "carTER", "nombre_trajet_moyen": 0.34, "transport_legende": "\ud83d\udeb2 \ud83d\udc94 Car TER \ud83d\ude8d"}, "geometry": {"type": "Point", "coordinates": [1.013618, 47.09947]}}, {"type": "Feature", "properties": {"start": "Saint-Lactencin", "stop_name": "Saint-Jean-Saint-Germain H\u00f4tel", "type": "Gare accessible", "transport": "carTER", "nombre_trajet_moyen": 0.34, "transport_legende": "\ud83d\udeb2 \ud83d\udc94 Car TER \ud83d\ude8d"}, "geometry": {"type": "Point", "coordinates": [1.035815, 47.082587]}}, {"type": "Feature", "properties": {"start": "Saint-Lactencin", "stop_name": "Verneuil-Laiterie", "type": "Gare accessible", "transport": "carTER", "nombre_trajet_moyen": 0.34, "transport_legende": "\ud83d\udeb2 \ud83d\udc94 Car TER \ud83d\ude8d"}, "geometry": {"type": "Point", "coordinates": [1.058378, 47.076386]}}, {"type": "Feature", "properties": {"start": "Saint-Lactencin", "stop_name": "Bridor\u00e9 Saint Martin", "type": "Gare accessible", "transport": "carTER", "nombre_trajet_moyen": 0.34, "transport_legende": "\ud83d\udeb2 \ud83d\udc94 Car TER \ud83d\ude8d"}, "geometry": {"type": "Point", "coordinates": [1.081901, 47.026245]}}, {"type": "Feature", "properties": {"start": "Saint-Lactencin", "stop_name": "Bridor\u00e9 Carrefour 943", "type": "Gare accessible", "transport": "carTER", "nombre_trajet_moyen": 0.34, "transport_legende": "\ud83d\udeb2 \ud83d\udc94 Car TER \ud83d\ude8d"}, "geometry": {"type": "Point", "coordinates": [1.095583, 47.033073]}}, {"type": "Feature", "properties": {"start": "Saint-Lactencin", "stop_name": "Fl\u00e9r\u00e9-la-Rivi\u00e8re Mairie", "type": "Gare accessible", "transport": "carTER", "nombre_trajet_moyen": 0.34, "transport_legende": "\ud83d\udeb2 \ud83d\udc94 Car TER \ud83d\ude8d"}, "geometry": {"type": "Point", "coordinates": [1.107253, 47.020852]}}, {"type": "Feature", "properties": {"start": "Saint-Lactencin", "stop_name": "Ch\u00e2tillon Place du Mail", "type": "Gare accessible", "transport": "carTER", "nombre_trajet_moyen": 0.66, "transport_legende": "\ud83d\udeb2 \ud83d\udc94 Car TER \ud83d\ude8d"}, "geometry": {"type": "Point", "coordinates": [1.17352, 46.987279]}}, {"type": "Feature", "properties": {"start": "Saint-Lactencin", "stop_name": "Chatillon - H\u00f4tel - Saint-Antoine", "type": "Gare accessible", "transport": "carTER", "nombre_trajet_moyen": 0.66, "transport_legende": "\ud83d\udeb2 \ud83d\udc94 Car TER \ud83d\ude8d"}, "geometry": {"type": "Point", "coordinates": [1.171825, 46.988208]}}, {"type": "Feature", "properties": {"start": "Saint-Lactencin", "stop_name": "Clion", "type": "Gare accessible", "transport": "carTER", "nombre_trajet_moyen": 0.66, "transport_legende": "\ud83d\udeb2 \ud83d\udc94 Car TER \ud83d\ude8d"}, "geometry": {"type": "Point", "coordinates": [1.238678, 46.945076]}}, {"type": "Feature", "properties": {"start": "Saint-Lactencin", "stop_name": "Le Tranger", "type": "Gare accessible", "transport": "carTER", "nombre_trajet_moyen": 0.66, "transport_legende": "\ud83d\udeb2 \ud83d\udc94 Car TER \ud83d\ude8d"}, "geometry": {"type": "Point", "coordinates": [1.240304, 46.956683]}}, {"type": "Feature", "properties": {"start": "Saint-Lactencin", "stop_name": "Palluau Mairie", "type": "Gare accessible", "transport": "carTER", "nombre_trajet_moyen": 0.66, "transport_legende": "\ud83d\udeb2 \ud83d\udc94 Car TER \ud83d\ude8d"}, "geometry": {"type": "Point", "coordinates": [1.314752, 46.944183]}}, {"type": "Feature", "properties": {"start": "Saint-Lactencin", "stop_name": "Palluau-Onzay", "type": "Gare accessible", "transport": "carTER", "nombre_trajet_moyen": 0.66, "transport_legende": "\ud83d\udeb2 \ud83d\udc94 Car TER \ud83d\ude8d"}, "geometry": {"type": "Point", "coordinates": [1.316452, 46.930752]}}, {"type": "Feature", "properties": {"start": "Saint-Lactencin", "stop_name": "Saint-Genou \u00c9cole", "type": "Gare accessible", "transport": "carTER", "nombre_trajet_moyen": 0.66, "transport_legende": "\ud83d\udeb2 \ud83d\udc94 Car TER \ud83d\ude8d"}, "geometry": {"type": "Point", "coordinates": [1.337993, 46.92748]}}, {"type": "Feature", "properties": {"start": "Saint-Lactencin", "stop_name": "Saint-Genou ZI", "type": "Gare accessible", "transport": "carTER", "nombre_trajet_moyen": 0.66, "transport_legende": "\ud83d\udeb2 \ud83d\udc94 Car TER \ud83d\ude8d"}, "geometry": {"type": "Point", "coordinates": [1.354204, 46.905033]}}, {"type": "Feature", "properties": {"start": "Saint-Lactencin", "stop_name": "Buzan\u00e7ais", "type": "Gare accessible", "transport": "carTER", "nombre_trajet_moyen": 0.66, "transport_legende": "\ud83d\udeb2 \ud83d\udc94 Car TER \ud83d\ude8d"}, "geometry": {"type": "Point", "coordinates": [1.418776, 46.885237]}}, {"type": "Feature", "properties": {"start": "Saint-Lactencin", "stop_name": "Buzan\u00e7ais Sapin Vert", "type": "Gare accessible", "transport": "carTER", "nombre_trajet_moyen": 0.66, "transport_legende": "\ud83d\udeb2 \ud83d\udc94 Car TER \ud83d\ude8d"}, "geometry": {"type": "Point", "coordinates": [1.430433, 46.887548]}}, {"type": "Feature", "properties": {"start": "Saint-Lactencin", "stop_name": "Villedieu Le Pouillou", "type": "Gare accessible", "transport": "carTER", "nombre_trajet_moyen": 0.66, "transport_legende": "\ud83d\udeb2 \ud83d\udc94 Car TER \ud83d\ude8d"}, "geometry": {"type": "Point", "coordinates": [1.534332, 46.848569]}}, {"type": "Feature", "properties": {"start": "Saint-Lactencin", "stop_name": "Villedieu Chambon", "type": "Gare accessible", "transport": "carTER", "nombre_trajet_moyen": 0.66, "transport_legende": "\ud83d\udeb2 \ud83d\udc94 Car TER \ud83d\ude8d"}, "geometry": {"type": "Point", "coordinates": [1.540411, 46.842873]}}, {"type": "Feature", "properties": {"start": "Saint-Lactencin", "stop_name": "Villedieu \u00c9glise", "type": "Gare accessible", "transport": "carTER", "nombre_trajet_moyen": 0.66, "transport_legende": "\ud83d\udeb2 \ud83d\udc94 Car TER \ud83d\ude8d"}, "geometry": {"type": "Point", "coordinates": [1.538354, 46.847355]}}, {"type": "Feature", "properties": {"start": "Saint-Lactencin", "stop_name": "Villedieu Golf", "type": "Gare accessible", "transport": "carTER", "nombre_trajet_moyen": 0.66, "transport_legende": "\ud83d\udeb2 \ud83d\udc94 Car TER \ud83d\ude8d"}, "geometry": {"type": "Point", "coordinates": [1.54345, 46.846427]}}, {"type": "Feature", "properties": {"start": "Saint-Lactencin", "stop_name": "Mehun", "type": "Gare accessible", "transport": "carTER", "nombre_trajet_moyen": 0.66, "transport_legende": "\ud83d\udeb2 \ud83d\udc94 Car TER \ud83d\ude8d"}, "geometry": {"type": "Point", "coordinates": [1.530865, 46.840853]}}, {"type": "Feature", "properties": {"start": "Saint-Lactencin", "stop_name": "Niherne les Roches", "type": "Gare accessible", "transport": "carTER", "nombre_trajet_moyen": 0.66, "transport_legende": "\ud83d\udeb2 \ud83d\udc94 Car TER \ud83d\ude8d"}, "geometry": {"type": "Point", "coordinates": [1.546412, 46.827432]}}, {"type": "Feature", "properties": {"start": "Saint-Lactencin", "stop_name": "Niherne Centre", "type": "Gare accessible", "transport": "carTER", "nombre_trajet_moyen": 0.66, "transport_legende": "\ud83d\udeb2 \ud83d\udc94 Car TER \ud83d\ude8d"}, "geometry": {"type": "Point", "coordinates": [1.564474, 46.829161]}}, {"type": "Feature", "properties": {"start": "Saint-Lactencin", "stop_name": "Surins", "type": "Gare accessible", "transport": "carTER", "nombre_trajet_moyen": 0.66, "transport_legende": "\ud83d\udeb2 \ud83d\udc94 Car TER \ud83d\ude8d"}, "geometry": {"type": "Point", "coordinates": [1.565581, 46.83502]}}, {"type": "Feature", "properties": {"start": "Saint-Lactencin", "stop_name": "Surins Carrrefour RN143-RD80", "type": "Gare accessible", "transport": "carTER", "nombre_trajet_moyen": 0.66, "transport_legende": "\ud83d\udeb2 \ud83d\udc94 Car TER \ud83d\ude8d"}, "geometry": {"type": "Point", "coordinates": [1.57038, 46.840776]}}, {"type": "Feature", "properties": {"start": "Saint-Lactencin", "stop_name": "Ch\u00e2teauroux Croix Perrine", "type": "Gare accessible", "transport": "carTER", "nombre_trajet_moyen": 0.66, "transport_legende": "\ud83d\udeb2 \ud83d\udc94 Car TER \ud83d\ude8d"}, "geometry": {"type": "Point", "coordinates": [1.684771, 46.819753]}}, {"type": "Feature", "properties": {"start": "Saint-Lactencin", "stop_name": "Ch\u00e2teauroux-Pr\u00e9fecture", "type": "Gare accessible", "transport": "carTER", "nombre_trajet_moyen": 0.66, "transport_legende": "\ud83d\udeb2 \ud83d\udc94 Car TER \ud83d\ude8d"}, "geometry": {"type": "Point", "coordinates": [1.68675, 46.810726]}}, {"type": "Feature", "properties": {"start": "Saint-Lactencin", "stop_name": "Chateauroux GR", "type": "Gare accessible", "transport": "carTER", "nombre_trajet_moyen": 0.66, "transport_legende": "\ud83d\udeb2 \ud83d\udc94 Car TER \ud83d\ude8d"}, "geometry": {"type": "Point", "coordinates": [1.698721, 46.8095]}}, {"type": "Feature", "properties": {"start": "Saint-Lactencin", "stop_name": "Ch\u00e2teauroux Lyc\u00e9e Blaise Pascal", "type": "Gare accessible", "transport": "carTER", "nombre_trajet_moyen": 0.34, "transport_legende": "\ud83d\udeb2 \ud83d\udc94 Car TER \ud83d\ude8d"}, "geometry": {"type": "Point", "coordinates": [1.711364, 46.798046]}}, {"type": "Feature", "properties": {"start": "Saint-Lactencin", "stop_name": "Ch\u00e2teauroux Lyc\u00e9e Les Charmilles", "type": "Gare accessible", "transport": "carTER", "nombre_trajet_moyen": 0.34, "transport_legende": "\ud83d\udeb2 \ud83d\udc94 Car TER \ud83d\ude8d"}, "geometry": {"type": "Point", "coordinates": [1.716914, 46.801176]}}, {"type": "Feature", "properties": {"start": "Saint-Lactencin", "stop_name": "Ch\u00e2teauroux - Lyc\u00e9e - Giraudoux", "type": "Gare accessible", "transport": "carTER", "nombre_trajet_moyen": 0.34, "transport_legende": "\ud83d\udeb2 \ud83d\udc94 Car TER \ud83d\ude8d"}, "geometry": {"type": "Point", "coordinates": [1.696765, 46.81573]}}, {"type": "Feature", "properties": {"start": "Saint-Lactencin", "stop_name": "Saint-Genou", "type": "Gare accessible", "transport": "carTER", "nombre_trajet_moyen": 0.34, "transport_legende": "\ud83d\udeb2 \ud83d\udc94 Car TER \ud83d\ude8d"}, "geometry": {"type": "Point", "coordinates": [1.327715, 46.929019]}}]}