{"type": "FeatureCollection", "features": [{"type": "Feature", "properties": {"start": "Saint-Marcellin", "stop_name": "Saint-Marcellin", "type": "Gare s\u00e9lectionn\u00e9e", "transport": "carTER", "transport_legende": "\ud83d\udeb2 \ud83d\udc94 Car TER \ud83d\ude8d"}, "geometry": {"type": "Point", "coordinates": [5.323654, 45.150885]}}, {"type": "Feature", "properties": {"start": "Saint-Marcellin", "stop_name": "Grenoble", "type": "Gare accessible", "transport": "carTER", "transport_legende": "\ud83d\udeb2 \ud83d\udc94 Car TER \ud83d\ude8d"}, "geometry": {"type": "Point", "coordinates": [5.714366, 45.192693]}}, {"type": "Feature", "properties": {"start": "Saint-Marcellin", "stop_name": "Romans-Gare-Routi\u00e8re", "type": "Gare accessible", "transport": "carTER", "transport_legende": "\ud83d\udeb2 \ud83d\udc94 Car TER \ud83d\ude8d"}, "geometry": {"type": "Point", "coordinates": [5.051394, 45.048391]}}, {"type": "Feature", "properties": {"start": "Saint-Marcellin", "stop_name": "Valence Gare Routi\u00e8re", "type": "Gare accessible", "transport": "carTER", "transport_legende": "\ud83d\udeb2 \ud83d\udc94 Car TER \ud83d\ude8d"}, "geometry": {"type": "Point", "coordinates": [4.892222, 44.927222]}}, {"type": "Feature", "properties": {"start": "Saint-Marcellin", "stop_name": "Tournon-Centre", "type": "Gare accessible", "transport": "carTER", "transport_legende": "\ud83d\udeb2 \ud83d\udc94 Car TER \ud83d\ude8d"}, "geometry": {"type": "Point", "coordinates": [4.83421, 45.06298]}}, {"type": "Feature", "properties": {"start": "Saint-Marcellin", "stop_name": "Annonay-Gare Routi\u00e8re", "type": "Gare accessible", "transport": "carTER", "transport_legende": "\ud83d\udeb2 \ud83d\udc94 Car TER \ud83d\ude8d"}, "geometry": {"type": "Point", "coordinates": [4.66863, 45.24373]}}]}