{"type": "FeatureCollection", "features": [{"type": "Feature", "properties": {"start": "Saint-Sauves-d'Auvergne Bourg", "stop_name": "Saint-Sauves-d'Auvergne Bourg", "type": "Gare s\u00e9lectionn\u00e9e", "transport": "carTER", "transport_legende": "\ud83d\udeb2 \ud83d\udc94 Car TER \ud83d\ude8d"}, "geometry": {"type": "Point", "coordinates": [2.687917, 45.606802]}}, {"type": "Feature", "properties": {"start": "Saint-Sauves-d'Auvergne Bourg", "stop_name": "Laqueuille", "type": "Gare accessible", "transport": "carTER", "transport_legende": "\ud83d\udeb2 \ud83d\udc94 Car TER \ud83d\ude8d"}, "geometry": {"type": "Point", "coordinates": [2.704976, 45.646917]}}, {"type": "Feature", "properties": {"start": "Saint-Sauves-d'Auvergne Bourg", "stop_name": "La Bourboule Centre", "type": "Gare accessible", "transport": "carTER", "transport_legende": "\ud83d\udeb2 \ud83d\udc94 Car TER \ud83d\ude8d"}, "geometry": {"type": "Point", "coordinates": [2.741159, 45.588976]}}, {"type": "Feature", "properties": {"start": "Saint-Sauves-d'Auvergne Bourg", "stop_name": "La Bourboule", "type": "Gare accessible", "transport": "carTER", "transport_legende": "\ud83d\udeb2 \ud83d\udc94 Car TER \ud83d\ude8d"}, "geometry": {"type": "Point", "coordinates": [2.746349, 45.590449]}}, {"type": "Feature", "properties": {"start": "Saint-Sauves-d'Auvergne Bourg", "stop_name": "Le Mont-Dore Centre", "type": "Gare accessible", "transport": "carTER", "transport_legende": "\ud83d\udeb2 \ud83d\udc94 Car TER \ud83d\ude8d"}, "geometry": {"type": "Point", "coordinates": [2.812262, 45.57157]}}, {"type": "Feature", "properties": {"start": "Saint-Sauves-d'Auvergne Bourg", "stop_name": "Mont-Dore", "type": "Gare accessible", "transport": "carTER", "transport_legende": "\ud83d\udeb2 \ud83d\udc94 Car TER \ud83d\ude8d"}, "geometry": {"type": "Point", "coordinates": [2.804775, 45.579415]}}, {"type": "Feature", "properties": {"start": "Saint-Sauves-d'Auvergne Bourg", "stop_name": "Clermont-Ferrand", "type": "Gare accessible", "transport": "carTER", "transport_legende": "\ud83d\udeb2 \ud83d\udc94 Car TER \ud83d\ude8d"}, "geometry": {"type": "Point", "coordinates": [3.100543, 45.778945]}}, {"type": "Feature", "properties": {"start": "Saint-Sauves-d'Auvergne Bourg", "stop_name": "Le Mont-Dore Ski", "type": "Gare accessible", "transport": "carTER", "transport_legende": "\ud83d\udeb2 \ud83d\udc94 Car TER \ud83d\ude8d"}, "geometry": {"type": "Point", "coordinates": [2.816722, 45.542111]}}]}