{"type": "FeatureCollection", "features": [{"type": "Feature", "properties": {"start": "Saint-Pierre-des-Corps", "stop_name": "Saint-Pierre-des-Corps", "type": "Gare s\u00e9lectionn\u00e9e", "transport": "carTER", "transport_legende": "\ud83d\udeb2 \ud83d\udc94 Car TER \ud83d\ude8d"}, "geometry": {"type": "Point", "coordinates": [0.723539, 47.38614]}}, {"type": "Feature", "properties": {"start": "Saint-Pierre-des-Corps", "stop_name": "Chinon", "type": "Gare accessible", "transport": "carTER", "transport_legende": "\ud83d\udeb2 \ud83d\udc94 Car TER \ud83d\ude8d"}, "geometry": {"type": "Point", "coordinates": [0.251645, 47.163073]}}, {"type": "Feature", "properties": {"start": "Saint-Pierre-des-Corps", "stop_name": "Saint-Benoit-la-For\u00eat H\u00f4pital", "type": "Gare accessible", "transport": "carTER", "transport_legende": "\ud83d\udeb2 \ud83d\udc94 Car TER \ud83d\ude8d"}, "geometry": {"type": "Point", "coordinates": [0.290977, 47.189078]}}, {"type": "Feature", "properties": {"start": "Saint-Pierre-des-Corps", "stop_name": "Azay-le-Rideau Mairie", "type": "Gare accessible", "transport": "carTER", "transport_legende": "\ud83d\udeb2 \ud83d\udc94 Car TER \ud83d\ude8d"}, "geometry": {"type": "Point", "coordinates": [0.466138, 47.262332]}}, {"type": "Feature", "properties": {"start": "Saint-Pierre-des-Corps", "stop_name": "Ballan", "type": "Gare accessible", "transport": "carTER", "transport_legende": "\ud83d\udeb2 \ud83d\udc94 Car TER \ud83d\ude8d"}, "geometry": {"type": "Point", "coordinates": [0.617807, 47.336747]}}, {"type": "Feature", "properties": {"start": "Saint-Pierre-des-Corps", "stop_name": "Jou\u00e9-l\u00e8s-Tours Gamard", "type": "Gare accessible", "transport": "carTER", "transport_legende": "\ud83d\udeb2 \ud83d\udc94 Car TER \ud83d\ude8d"}, "geometry": {"type": "Point", "coordinates": [0.664222, 47.348913]}}, {"type": "Feature", "properties": {"start": "Saint-Pierre-des-Corps", "stop_name": "Jou\u00e9-l\u00e8s-Tours", "type": "Gare accessible", "transport": "carTER", "transport_legende": "\ud83d\udeb2 \ud83d\udc94 Car TER \ud83d\ude8d"}, "geometry": {"type": "Point", "coordinates": [0.667559, 47.354174]}}, {"type": "Feature", "properties": {"start": "Saint-Pierre-des-Corps", "stop_name": "Tours", "type": "Gare accessible", "transport": "carTER", "transport_legende": "\ud83d\udeb2 \ud83d\udc94 Car TER \ud83d\ude8d"}, "geometry": {"type": "Point", "coordinates": [0.692831, 47.389866]}}]}