{"type": "FeatureCollection", "features": [{"type": "Feature", "properties": {"start": "Saint-Mihiel D\u00e9tention", "stop_name": "Saint-Mihiel D\u00e9tention", "type": "Gare s\u00e9lectionn\u00e9e", "transport": "carTER", "transport_legende": "\ud83d\udeb2 \ud83d\udc94 Car TER \ud83d\ude8d"}, "geometry": {"type": "Point", "coordinates": [5.536063, 48.885058]}}, {"type": "Feature", "properties": {"start": "Saint-Mihiel D\u00e9tention", "stop_name": "Commercy", "type": "Gare accessible", "transport": "carTER", "transport_legende": "\ud83d\udeb2 \ud83d\udc94 Car TER \ud83d\ude8d"}, "geometry": {"type": "Point", "coordinates": [5.58861, 48.765749]}}, {"type": "Feature", "properties": {"start": "Saint-Mihiel D\u00e9tention", "stop_name": "L\u00e9rouville", "type": "Gare accessible", "transport": "carTER", "transport_legende": "\ud83d\udeb2 \ud83d\udc94 Car TER \ud83d\ude8d"}, "geometry": {"type": "Point", "coordinates": [5.538437, 48.796902]}}, {"type": "Feature", "properties": {"start": "Saint-Mihiel D\u00e9tention", "stop_name": "Sampigny Centre", "type": "Gare accessible", "transport": "carTER", "transport_legende": "\ud83d\udeb2 \ud83d\udc94 Car TER \ud83d\ude8d"}, "geometry": {"type": "Point", "coordinates": [5.50868, 48.830237]}}, {"type": "Feature", "properties": {"start": "Saint-Mihiel D\u00e9tention", "stop_name": "Saint-Mihiel", "type": "Gare accessible", "transport": "carTER", "transport_legende": "\ud83d\udeb2 \ud83d\udc94 Car TER \ud83d\ude8d"}, "geometry": {"type": "Point", "coordinates": [5.54194, 48.8887]}}, {"type": "Feature", "properties": {"start": "Saint-Mihiel D\u00e9tention", "stop_name": "Fresnes-au-Mont", "type": "Gare accessible", "transport": "carTER", "transport_legende": "\ud83d\udeb2 \ud83d\udc94 Car TER \ud83d\ude8d"}, "geometry": {"type": "Point", "coordinates": [5.439869, 48.896119]}}, {"type": "Feature", "properties": {"start": "Saint-Mihiel D\u00e9tention", "stop_name": "Pierrefitte-sur-Aire", "type": "Gare accessible", "transport": "carTER", "transport_legende": "\ud83d\udeb2 \ud83d\udc94 Car TER \ud83d\ude8d"}, "geometry": {"type": "Point", "coordinates": [5.3294, 48.8995]}}, {"type": "Feature", "properties": {"start": "Saint-Mihiel D\u00e9tention", "stop_name": "Meuse TGV", "type": "Gare accessible", "transport": "carTER", "transport_legende": "\ud83d\udeb2 \ud83d\udc94 Car TER \ud83d\ude8d"}, "geometry": {"type": "Point", "coordinates": [5.271024, 48.978583]}}, {"type": "Feature", "properties": {"start": "Saint-Mihiel D\u00e9tention", "stop_name": "Commercy Zone du Seugnon", "type": "Gare accessible", "transport": "carTER", "transport_legende": "\ud83d\udeb2 \ud83d\udc94 Car TER \ud83d\ude8d"}, "geometry": {"type": "Point", "coordinates": [5.600013, 48.749547]}}]}