{"type": "FeatureCollection", "features": [{"type": "Feature", "properties": {"start": "Saujon", "stop_name": "Saujon", "type": "Gare s\u00e9lectionn\u00e9e", "transport": "carTER", "transport_legende": "\ud83d\udeb2 \ud83d\udc94 Car TER \ud83d\ude8d"}, "geometry": {"type": "Point", "coordinates": [-0.930019, 45.666502]}}, {"type": "Feature", "properties": {"start": "Saujon", "stop_name": "Royan", "type": "Gare accessible", "transport": "carTER", "transport_legende": "\ud83d\udeb2 \ud83d\udc94 Car TER \ud83d\ude8d"}, "geometry": {"type": "Point", "coordinates": [-1.016703, 45.625886]}}, {"type": "Feature", "properties": {"start": "Saujon", "stop_name": "Saintes", "type": "Gare accessible", "transport": "carTER", "transport_legende": "\ud83d\udeb2 \ud83d\udc94 Car TER \ud83d\ude8d"}, "geometry": {"type": "Point", "coordinates": [-0.6179, 45.74874]}}, {"type": "Feature", "properties": {"start": "Saujon", "stop_name": "Saint-Jean-d'Ang\u00e9ly", "type": "Gare accessible", "transport": "carTER", "transport_legende": "\ud83d\udeb2 \ud83d\udc94 Car TER \ud83d\ude8d"}, "geometry": {"type": "Point", "coordinates": [-0.510006, 45.940759]}}, {"type": "Feature", "properties": {"start": "Saujon", "stop_name": "Beauvoir-sur-Niort", "type": "Gare accessible", "transport": "carTER", "transport_legende": "\ud83d\udeb2 \ud83d\udc94 Car TER \ud83d\ude8d"}, "geometry": {"type": "Point", "coordinates": [-0.468873, 46.17687]}}, {"type": "Feature", "properties": {"start": "Saujon", "stop_name": "Niort", "type": "Gare accessible", "transport": "carTER", "transport_legende": "\ud83d\udeb2 \ud83d\udc94 Car TER \ud83d\ude8d"}, "geometry": {"type": "Point", "coordinates": [-0.454639, 46.319491]}}, {"type": "Feature", "properties": {"start": "Saujon", "stop_name": "Fors", "type": "Gare accessible", "transport": "carTER", "transport_legende": "\ud83d\udeb2 \ud83d\udc94 Car TER \ud83d\ude8d"}, "geometry": {"type": "Point", "coordinates": [-0.406931, 46.234552]}}]}