{"type": "FeatureCollection", "features": [{"type": "Feature", "properties": {"start": "Schweighouse Mar\u00e9chal Leclerc", "stop_name": "Schweighouse Mar\u00e9chal Leclerc", "type": "Gare s\u00e9lectionn\u00e9e", "transport": "carTER", "transport_legende": "\ud83d\udeb2 \ud83d\udc94 Car TER \ud83d\ude8d"}, "geometry": {"type": "Point", "coordinates": [7.731436, 48.822099]}}, {"type": "Feature", "properties": {"start": "Schweighouse Mar\u00e9chal Leclerc", "stop_name": "Bouxwiller Lyc\u00e9e Schattenmann", "type": "Gare accessible", "transport": "carTER", "transport_legende": "\ud83d\udeb2 \ud83d\udc94 Car TER \ud83d\ude8d"}, "geometry": {"type": "Point", "coordinates": [7.476432, 48.828994]}}, {"type": "Feature", "properties": {"start": "Schweighouse Mar\u00e9chal Leclerc", "stop_name": "Bouxwiller Centre", "type": "Gare accessible", "transport": "carTER", "transport_legende": "\ud83d\udeb2 \ud83d\udc94 Car TER \ud83d\ude8d"}, "geometry": {"type": "Point", "coordinates": [7.483024, 48.827393]}}, {"type": "Feature", "properties": {"start": "Schweighouse Mar\u00e9chal Leclerc", "stop_name": "Bouxwiller Clos Des Seigneurs", "type": "Gare accessible", "transport": "carTER", "transport_legende": "\ud83d\udeb2 \ud83d\udc94 Car TER \ud83d\ude8d"}, "geometry": {"type": "Point", "coordinates": [7.486641, 48.828192]}}, {"type": "Feature", "properties": {"start": "Schweighouse Mar\u00e9chal Leclerc", "stop_name": "Obermodern", "type": "Gare accessible", "transport": "carTER", "transport_legende": "\ud83d\udeb2 \ud83d\udc94 Car TER \ud83d\ude8d"}, "geometry": {"type": "Point", "coordinates": [7.547135, 48.842587]}}, {"type": "Feature", "properties": {"start": "Schweighouse Mar\u00e9chal Leclerc", "stop_name": "Pfaffenhoffen Pl. R\u00e9publique", "type": "Gare accessible", "transport": "carTER", "transport_legende": "\ud83d\udeb2 \ud83d\udc94 Car TER \ud83d\ude8d"}, "geometry": {"type": "Point", "coordinates": [7.607554, 48.844006]}}, {"type": "Feature", "properties": {"start": "Schweighouse Mar\u00e9chal Leclerc", "stop_name": "Pfaffenhoffen Mairie", "type": "Gare accessible", "transport": "carTER", "transport_legende": "\ud83d\udeb2 \ud83d\udc94 Car TER \ud83d\ude8d"}, "geometry": {"type": "Point", "coordinates": [7.610925, 48.844724]}}, {"type": "Feature", "properties": {"start": "Schweighouse Mar\u00e9chal Leclerc", "stop_name": "La Walck Monument Aux Morts", "type": "Gare accessible", "transport": "carTER", "transport_legende": "\ud83d\udeb2 \ud83d\udc94 Car TER \ud83d\ude8d"}, "geometry": {"type": "Point", "coordinates": [7.611428, 48.848123]}}, {"type": "Feature", "properties": {"start": "Schweighouse Mar\u00e9chal Leclerc", "stop_name": "Niedermodern Pont de la Moder", "type": "Gare accessible", "transport": "carTER", "transport_legende": "\ud83d\udeb2 \ud83d\udc94 Car TER \ud83d\ude8d"}, "geometry": {"type": "Point", "coordinates": [7.627771, 48.846462]}}, {"type": "Feature", "properties": {"start": "Schweighouse Mar\u00e9chal Leclerc", "stop_name": "Neubourg \u00c9glise", "type": "Gare accessible", "transport": "carTER", "transport_legende": "\ud83d\udeb2 \ud83d\udc94 Car TER \ud83d\ude8d"}, "geometry": {"type": "Point", "coordinates": [7.68113, 48.838559]}}, {"type": "Feature", "properties": {"start": "Schweighouse Mar\u00e9chal Leclerc", "stop_name": "Schweighouse \u00c9gl. protestante", "type": "Gare accessible", "transport": "carTER", "transport_legende": "\ud83d\udeb2 \ud83d\udc94 Car TER \ud83d\ude8d"}, "geometry": {"type": "Point", "coordinates": [7.740845, 48.820347]}}, {"type": "Feature", "properties": {"start": "Schweighouse Mar\u00e9chal Leclerc", "stop_name": "Haguenau Arr\u00eat Ritmo Moulin Neuf", "type": "Gare accessible", "transport": "carTER", "transport_legende": "\ud83d\udeb2 \ud83d\udc94 Car TER \ud83d\ude8d"}, "geometry": {"type": "Point", "coordinates": [7.780509, 48.815794]}}, {"type": "Feature", "properties": {"start": "Schweighouse Mar\u00e9chal Leclerc", "stop_name": "Ingwiller", "type": "Gare accessible", "transport": "carTER", "transport_legende": "\ud83d\udeb2 \ud83d\udc94 Car TER \ud83d\ude8d"}, "geometry": {"type": "Point", "coordinates": [7.477162, 48.872407]}}, {"type": "Feature", "properties": {"start": "Schweighouse Mar\u00e9chal Leclerc", "stop_name": "Menchhoffen Abri", "type": "Gare accessible", "transport": "carTER", "transport_legende": "\ud83d\udeb2 \ud83d\udc94 Car TER \ud83d\ude8d"}, "geometry": {"type": "Point", "coordinates": [7.496546, 48.858842]}}, {"type": "Feature", "properties": {"start": "Schweighouse Mar\u00e9chal Leclerc", "stop_name": "Dossenheim Lotissement", "type": "Gare accessible", "transport": "carTER", "transport_legende": "\ud83d\udeb2 \ud83d\udc94 Car TER \ud83d\ude8d"}, "geometry": {"type": "Point", "coordinates": [7.402116, 48.807528]}}, {"type": "Feature", "properties": {"start": "Schweighouse Mar\u00e9chal Leclerc", "stop_name": "Neuwiller Pharmacie", "type": "Gare accessible", "transport": "carTER", "transport_legende": "\ud83d\udeb2 \ud83d\udc94 Car TER \ud83d\ude8d"}, "geometry": {"type": "Point", "coordinates": [7.402853, 48.823614]}}, {"type": "Feature", "properties": {"start": "Schweighouse Mar\u00e9chal Leclerc", "stop_name": "Neuwiller Rue de Bouxwiller", "type": "Gare accessible", "transport": "carTER", "transport_legende": "\ud83d\udeb2 \ud83d\udc94 Car TER \ud83d\ude8d"}, "geometry": {"type": "Point", "coordinates": [7.407151, 48.822848]}}, {"type": "Feature", "properties": {"start": "Schweighouse Mar\u00e9chal Leclerc", "stop_name": "Dossenheim Mairie", "type": "Gare accessible", "transport": "carTER", "transport_legende": "\ud83d\udeb2 \ud83d\udc94 Car TER \ud83d\ude8d"}, "geometry": {"type": "Point", "coordinates": [7.402476, 48.805191]}}, {"type": "Feature", "properties": {"start": "Schweighouse Mar\u00e9chal Leclerc", "stop_name": "Saverne", "type": "Gare accessible", "transport": "carTER", "transport_legende": "\ud83d\udeb2 \ud83d\udc94 Car TER \ud83d\ude8d"}, "geometry": {"type": "Point", "coordinates": [7.362055, 48.744483]}}]}