{"type": "FeatureCollection", "features": [{"type": "Feature", "properties": {"start": "Teterchen Rue Jeanne D'Arc", "stop_name": "Teterchen Rue Jeanne D'Arc", "type": "Gare s\u00e9lectionn\u00e9e", "transport": "carTER", "transport_legende": "\ud83d\udeb2 \ud83d\udc94 Car TER \ud83d\ude8d"}, "geometry": {"type": "Point", "coordinates": [6.562968, 49.230392]}}, {"type": "Feature", "properties": {"start": "Teterchen Rue Jeanne D'Arc", "stop_name": "Thionville", "type": "Gare accessible", "transport": "carTER", "transport_legende": "\ud83d\udeb2 \ud83d\udc94 Car TER \ud83d\ude8d"}, "geometry": {"type": "Point", "coordinates": [6.168582, 49.353965]}}, {"type": "Feature", "properties": {"start": "Teterchen Rue Jeanne D'Arc", "stop_name": "Yutz Saint-Vitus", "type": "Gare accessible", "transport": "carTER", "transport_legende": "\ud83d\udeb2 \ud83d\udc94 Car TER \ud83d\ude8d"}, "geometry": {"type": "Point", "coordinates": [6.19203, 49.35616]}}, {"type": "Feature", "properties": {"start": "Teterchen Rue Jeanne D'Arc", "stop_name": "Yutz Poitiers", "type": "Gare accessible", "transport": "carTER", "transport_legende": "\ud83d\udeb2 \ud83d\udc94 Car TER \ud83d\ude8d"}, "geometry": {"type": "Point", "coordinates": [6.209395, 49.361354]}}, {"type": "Feature", "properties": {"start": "Teterchen Rue Jeanne D'Arc", "stop_name": "Kuntzig Place de la Libert\u00e9", "type": "Gare accessible", "transport": "carTER", "transport_legende": "\ud83d\udeb2 \ud83d\udc94 Car TER \ud83d\ude8d"}, "geometry": {"type": "Point", "coordinates": [6.237059, 49.34721]}}, {"type": "Feature", "properties": {"start": "Teterchen Rue Jeanne D'Arc", "stop_name": "Kuntzig Bibiche", "type": "Gare accessible", "transport": "carTER", "transport_legende": "\ud83d\udeb2 \ud83d\udc94 Car TER \ud83d\ude8d"}, "geometry": {"type": "Point", "coordinates": [6.24297, 49.343873]}}, {"type": "Feature", "properties": {"start": "Teterchen Rue Jeanne D'Arc", "stop_name": "Distroff \u00c9glise", "type": "Gare accessible", "transport": "carTER", "transport_legende": "\ud83d\udeb2 \ud83d\udc94 Car TER \ud83d\ude8d"}, "geometry": {"type": "Point", "coordinates": [6.263028, 49.332214]}}, {"type": "Feature", "properties": {"start": "Teterchen Rue Jeanne D'Arc", "stop_name": "Metzervisse \u00c9glise", "type": "Gare accessible", "transport": "carTER", "transport_legende": "\ud83d\udeb2 \ud83d\udc94 Car TER \ud83d\ude8d"}, "geometry": {"type": "Point", "coordinates": [6.282173, 49.314181]}}, {"type": "Feature", "properties": {"start": "Teterchen Rue Jeanne D'Arc", "stop_name": "Metzervisse Centre", "type": "Gare accessible", "transport": "carTER", "transport_legende": "\ud83d\udeb2 \ud83d\udc94 Car TER \ud83d\ude8d"}, "geometry": {"type": "Point", "coordinates": [6.285255, 49.315557]}}, {"type": "Feature", "properties": {"start": "Teterchen Rue Jeanne D'Arc", "stop_name": "K\u00e9dange Gare", "type": "Gare accessible", "transport": "carTER", "transport_legende": "\ud83d\udeb2 \ud83d\udc94 Car TER \ud83d\ude8d"}, "geometry": {"type": "Point", "coordinates": [6.332512, 49.305855]}}, {"type": "Feature", "properties": {"start": "Teterchen Rue Jeanne D'Arc", "stop_name": "K\u00e9dange \u00c9glise", "type": "Gare accessible", "transport": "carTER", "transport_legende": "\ud83d\udeb2 \ud83d\udc94 Car TER \ud83d\ude8d"}, "geometry": {"type": "Point", "coordinates": [6.33836, 49.308345]}}, {"type": "Feature", "properties": {"start": "Teterchen Rue Jeanne D'Arc", "stop_name": "Hombourg Tilleuls", "type": "Gare accessible", "transport": "carTER", "transport_legende": "\ud83d\udeb2 \ud83d\udc94 Car TER \ud83d\ude8d"}, "geometry": {"type": "Point", "coordinates": [6.339154, 49.297728]}}, {"type": "Feature", "properties": {"start": "Teterchen Rue Jeanne D'Arc", "stop_name": "Hombourg Chapelle", "type": "Gare accessible", "transport": "carTER", "transport_legende": "\ud83d\udeb2 \ud83d\udc94 Car TER \ud83d\ude8d"}, "geometry": {"type": "Point", "coordinates": [6.343475, 49.295863]}}, {"type": "Feature", "properties": {"start": "Teterchen Rue Jeanne D'Arc", "stop_name": "Budange Rue D'Aboncourt", "type": "Gare accessible", "transport": "carTER", "transport_legende": "\ud83d\udeb2 \ud83d\udc94 Car TER \ud83d\ude8d"}, "geometry": {"type": "Point", "coordinates": [6.344782, 49.276705]}}, {"type": "Feature", "properties": {"start": "Teterchen Rue Jeanne D'Arc", "stop_name": "Aboncourt Mairie", "type": "Gare accessible", "transport": "carTER", "transport_legende": "\ud83d\udeb2 \ud83d\udc94 Car TER \ud83d\ude8d"}, "geometry": {"type": "Point", "coordinates": [6.346603, 49.261076]}}, {"type": "Feature", "properties": {"start": "Teterchen Rue Jeanne D'Arc", "stop_name": "Ebersviller Centre", "type": "Gare accessible", "transport": "carTER", "transport_legende": "\ud83d\udeb2 \ud83d\udc94 Car TER \ud83d\ude8d"}, "geometry": {"type": "Point", "coordinates": [6.401942, 49.276338]}}, {"type": "Feature", "properties": {"start": "Teterchen Rue Jeanne D'Arc", "stop_name": "Hestroff Eglise", "type": "Gare accessible", "transport": "carTER", "transport_legende": "\ud83d\udeb2 \ud83d\udc94 Car TER \ud83d\ude8d"}, "geometry": {"type": "Point", "coordinates": [6.433667, 49.262268]}}, {"type": "Feature", "properties": {"start": "Teterchen Rue Jeanne D'Arc", "stop_name": "Anzeling", "type": "Gare accessible", "transport": "carTER", "transport_legende": "\ud83d\udeb2 \ud83d\udc94 Car TER \ud83d\ude8d"}, "geometry": {"type": "Point", "coordinates": [6.460265, 49.262072]}}, {"type": "Feature", "properties": {"start": "Teterchen Rue Jeanne D'Arc", "stop_name": "Anzeling Carrefour", "type": "Gare accessible", "transport": "carTER", "transport_legende": "\ud83d\udeb2 \ud83d\udc94 Car TER \ud83d\ude8d"}, "geometry": {"type": "Point", "coordinates": [6.463126, 49.26394]}}, {"type": "Feature", "properties": {"start": "Teterchen Rue Jeanne D'Arc", "stop_name": "Freistroff Passage \u00c0 Niveau", "type": "Gare accessible", "transport": "carTER", "transport_legende": "\ud83d\udeb2 \ud83d\udc94 Car TER \ud83d\ude8d"}, "geometry": {"type": "Point", "coordinates": [6.492212, 49.278361]}}, {"type": "Feature", "properties": {"start": "Teterchen Rue Jeanne D'Arc", "stop_name": "Remelfang Giratoire", "type": "Gare accessible", "transport": "carTER", "transport_legende": "\ud83d\udeb2 \ud83d\udc94 Car TER \ud83d\ude8d"}, "geometry": {"type": "Point", "coordinates": [6.504478, 49.27212]}}, {"type": "Feature", "properties": {"start": "Teterchen Rue Jeanne D'Arc", "stop_name": "Vaudreching Bernanos", "type": "Gare accessible", "transport": "carTER", "transport_legende": "\ud83d\udeb2 \ud83d\udc94 Car TER \ud83d\ude8d"}, "geometry": {"type": "Point", "coordinates": [6.524449, 49.285029]}}, {"type": "Feature", "properties": {"start": "Teterchen Rue Jeanne D'Arc", "stop_name": "Bouzonville Institut Providenc", "type": "Gare accessible", "transport": "carTER", "transport_legende": "\ud83d\udeb2 \ud83d\udc94 Car TER \ud83d\ude8d"}, "geometry": {"type": "Point", "coordinates": [6.531394, 49.292247]}}, {"type": "Feature", "properties": {"start": "Teterchen Rue Jeanne D'Arc", "stop_name": "Bouzonville", "type": "Gare accessible", "transport": "carTER", "transport_legende": "\ud83d\udeb2 \ud83d\udc94 Car TER \ud83d\ude8d"}, "geometry": {"type": "Point", "coordinates": [6.529374, 49.289974]}}, {"type": "Feature", "properties": {"start": "Teterchen Rue Jeanne D'Arc", "stop_name": "Bouzonville Rue d'Alzing", "type": "Gare accessible", "transport": "carTER", "transport_legende": "\ud83d\udeb2 \ud83d\udc94 Car TER \ud83d\ude8d"}, "geometry": {"type": "Point", "coordinates": [6.535495, 49.289873]}}, {"type": "Feature", "properties": {"start": "Teterchen Rue Jeanne D'Arc", "stop_name": "Alzing Rue de Brettnach", "type": "Gare accessible", "transport": "carTER", "transport_legende": "\ud83d\udeb2 \ud83d\udc94 Car TER \ud83d\ude8d"}, "geometry": {"type": "Point", "coordinates": [6.552207, 49.278966]}}, {"type": "Feature", "properties": {"start": "Teterchen Rue Jeanne D'Arc", "stop_name": "Brettnach Centre", "type": "Gare accessible", "transport": "carTER", "transport_legende": "\ud83d\udeb2 \ud83d\udc94 Car TER \ud83d\ude8d"}, "geometry": {"type": "Point", "coordinates": [6.563805, 49.257999]}}, {"type": "Feature", "properties": {"start": "Teterchen Rue Jeanne D'Arc", "stop_name": "Hargarten-aux-Mines Rue Principale", "type": "Gare accessible", "transport": "carTER", "transport_legende": "\ud83d\udeb2 \ud83d\udc94 Car TER \ud83d\ude8d"}, "geometry": {"type": "Point", "coordinates": [6.609196, 49.225295]}}, {"type": "Feature", "properties": {"start": "Teterchen Rue Jeanne D'Arc", "stop_name": "Falck Gare", "type": "Gare accessible", "transport": "carTER", "transport_legende": "\ud83d\udeb2 \ud83d\udc94 Car TER \ud83d\ude8d"}, "geometry": {"type": "Point", "coordinates": [6.633661, 49.218823]}}, {"type": "Feature", "properties": {"start": "Teterchen Rue Jeanne D'Arc", "stop_name": "Falck Rue Principale", "type": "Gare accessible", "transport": "carTER", "transport_legende": "\ud83d\udeb2 \ud83d\udc94 Car TER \ud83d\ude8d"}, "geometry": {"type": "Point", "coordinates": [6.632988, 49.229231]}}, {"type": "Feature", "properties": {"start": "Teterchen Rue Jeanne D'Arc", "stop_name": "Merten R\u00e9publique", "type": "Gare accessible", "transport": "carTER", "transport_legende": "\ud83d\udeb2 \ud83d\udc94 Car TER \ud83d\ude8d"}, "geometry": {"type": "Point", "coordinates": [6.667031, 49.248988]}}, {"type": "Feature", "properties": {"start": "Teterchen Rue Jeanne D'Arc", "stop_name": "Merten Centre", "type": "Gare accessible", "transport": "carTER", "transport_legende": "\ud83d\udeb2 \ud83d\udc94 Car TER \ud83d\ude8d"}, "geometry": {"type": "Point", "coordinates": [6.661803, 49.248703]}}, {"type": "Feature", "properties": {"start": "Teterchen Rue Jeanne D'Arc", "stop_name": "Creutzwald Gare Routi\u00e8re", "type": "Gare accessible", "transport": "carTER", "transport_legende": "\ud83d\udeb2 \ud83d\udc94 Car TER \ud83d\ude8d"}, "geometry": {"type": "Point", "coordinates": [6.697243, 49.207797]}}, {"type": "Feature", "properties": {"start": "Teterchen Rue Jeanne D'Arc", "stop_name": "Metzeresche Fontaine", "type": "Gare accessible", "transport": "carTER", "transport_legende": "\ud83d\udeb2 \ud83d\udc94 Car TER \ud83d\ude8d"}, "geometry": {"type": "Point", "coordinates": [6.304945, 49.299185]}}]}