{"type": "FeatureCollection", "features": [{"type": "Feature", "properties": {"start": "Volvic", "stop_name": "Volvic", "type": "Gare s\u00e9lectionn\u00e9e", "transport": "carTER", "nombre_trajet_moyen": 0.86, "transport_legende": "\ud83d\udeb2 \ud83d\udc94 Car TER \ud83d\ude8d"}, "geometry": {"type": "Point", "coordinates": [3.003083, 45.864649]}}, {"type": "Feature", "properties": {"start": "Volvic", "stop_name": "Le Vauriat", "type": "Gare accessible", "transport": "carTER", "nombre_trajet_moyen": 0.6, "transport_legende": "\ud83d\udeb2 \ud83d\udc94 Car TER \ud83d\ude8d"}, "geometry": {"type": "Point", "coordinates": [2.920555, 45.860369]}}, {"type": "Feature", "properties": {"start": "Volvic", "stop_name": "Saint Ours les Roches", "type": "Gare accessible", "transport": "carTER", "nombre_trajet_moyen": 0.6, "transport_legende": "\ud83d\udeb2 \ud83d\udc94 Car TER \ud83d\ude8d"}, "geometry": {"type": "Point", "coordinates": [2.893284, 45.85044]}}, {"type": "Feature", "properties": {"start": "Volvic", "stop_name": "Pontgibaud - Place R\u00e9publique", "type": "Gare accessible", "transport": "carTER", "nombre_trajet_moyen": 0.6, "transport_legende": "\ud83d\udeb2 \ud83d\udc94 Car TER \ud83d\ude8d"}, "geometry": {"type": "Point", "coordinates": [2.851253, 45.832298]}}, {"type": "Feature", "properties": {"start": "Volvic", "stop_name": "Durtol T2C square Ch Sabourin", "type": "Gare accessible", "transport": "carTER", "nombre_trajet_moyen": 0.69, "transport_legende": "\ud83d\udeb2 \ud83d\udc94 Car TER \ud83d\ude8d"}, "geometry": {"type": "Point", "coordinates": [3.052708, 45.794429]}}, {"type": "Feature", "properties": {"start": "Volvic", "stop_name": "Royat T2C Beausite", "type": "Gare accessible", "transport": "carTER", "nombre_trajet_moyen": 0.69, "transport_legende": "\ud83d\udeb2 \ud83d\udc94 Car TER \ud83d\ude8d"}, "geometry": {"type": "Point", "coordinates": [3.061838, 45.768241]}}, {"type": "Feature", "properties": {"start": "Volvic", "stop_name": "Clermont Universit\u00e9 T2C", "type": "Gare accessible", "transport": "carTER", "nombre_trajet_moyen": 0.69, "transport_legende": "\ud83d\udeb2 \ud83d\udc94 Car TER \ud83d\ude8d"}, "geometry": {"type": "Point", "coordinates": [3.089133, 45.771355]}}, {"type": "Feature", "properties": {"start": "Volvic", "stop_name": "Clermont-Ferrand", "type": "Gare accessible", "transport": "carTER", "nombre_trajet_moyen": 0.69, "transport_legende": "\ud83d\udeb2 \ud83d\udc94 Car TER \ud83d\ude8d"}, "geometry": {"type": "Point", "coordinates": [3.100543, 45.778945]}}]}