{"type": "FeatureCollection", "features": [{"type": "Feature", "properties": {"start": "Wingen-sur-Moder", "stop_name": "Wingen-sur-Moder", "type": "Gare s\u00e9lectionn\u00e9e", "transport": "carTER", "nombre_trajet_moyen": 1.36, "transport_legende": "\ud83d\udeb2 \ud83d\udc94 Car TER \ud83d\ude8d"}, "geometry": {"type": "Point", "coordinates": [7.380538, 48.920092]}}, {"type": "Feature", "properties": {"start": "Wingen-sur-Moder", "stop_name": "Frohmuhl Lavoir", "type": "Gare accessible", "transport": "carTER", "nombre_trajet_moyen": 1.36, "transport_legende": "\ud83d\udeb2 \ud83d\udc94 Car TER \ud83d\ude8d"}, "geometry": {"type": "Point", "coordinates": [7.280985, 48.907795]}}, {"type": "Feature", "properties": {"start": "Wingen-sur-Moder", "stop_name": "Col de Puberg", "type": "Gare accessible", "transport": "carTER", "nombre_trajet_moyen": 1.36, "transport_legende": "\ud83d\udeb2 \ud83d\udc94 Car TER \ud83d\ude8d"}, "geometry": {"type": "Point", "coordinates": [7.318055, 48.916898]}}, {"type": "Feature", "properties": {"start": "Wingen-sur-Moder", "stop_name": "Rosteig Monument aux Morts", "type": "Gare accessible", "transport": "carTER", "nombre_trajet_moyen": 1.36, "transport_legende": "\ud83d\udeb2 \ud83d\udc94 Car TER \ud83d\ude8d"}, "geometry": {"type": "Point", "coordinates": [7.340953, 48.93297]}}, {"type": "Feature", "properties": {"start": "Wingen-sur-Moder", "stop_name": "Wingen-sur-Moder Mairie", "type": "Gare accessible", "transport": "carTER", "nombre_trajet_moyen": 1.36, "transport_legende": "\ud83d\udeb2 \ud83d\udc94 Car TER \ud83d\ude8d"}, "geometry": {"type": "Point", "coordinates": [7.371182, 48.923275]}}, {"type": "Feature", "properties": {"start": "Wingen-sur-Moder", "stop_name": "Wimmenau D.919 - Rue de la Gare", "type": "Gare accessible", "transport": "carTER", "nombre_trajet_moyen": 1.36, "transport_legende": "\ud83d\udeb2 \ud83d\udc94 Car TER \ud83d\ude8d"}, "geometry": {"type": "Point", "coordinates": [7.420315, 48.910025]}}, {"type": "Feature", "properties": {"start": "Wingen-sur-Moder", "stop_name": "Ingwiller", "type": "Gare accessible", "transport": "carTER", "nombre_trajet_moyen": 1.36, "transport_legende": "\ud83d\udeb2 \ud83d\udc94 Car TER \ud83d\ude8d"}, "geometry": {"type": "Point", "coordinates": [7.477162, 48.872407]}}, {"type": "Feature", "properties": {"start": "Wingen-sur-Moder", "stop_name": "Saverne", "type": "Gare accessible", "transport": "carTER", "nombre_trajet_moyen": 1.36, "transport_legende": "\ud83d\udeb2 \ud83d\udc94 Car TER \ud83d\ude8d"}, "geometry": {"type": "Point", "coordinates": [7.362055, 48.744483]}}, {"type": "Feature", "properties": {"start": "Wingen-sur-Moder", "stop_name": "Saverne Lyc\u00e9e Verne", "type": "Gare accessible", "transport": "carTER", "nombre_trajet_moyen": 0.92, "transport_legende": "\ud83d\udeb2 \ud83d\udc94 Car TER \ud83d\ude8d"}, "geometry": {"type": "Point", "coordinates": [7.373398, 48.736039]}}, {"type": "Feature", "properties": {"start": "Wingen-sur-Moder", "stop_name": "Saverne Place des Dragons", "type": "Gare accessible", "transport": "carTER", "nombre_trajet_moyen": 0.57, "transport_legende": "\ud83d\udeb2 \ud83d\udc94 Car TER \ud83d\ude8d"}, "geometry": {"type": "Point", "coordinates": [7.361915, 48.739602]}}, {"type": "Feature", "properties": {"start": "Wingen-sur-Moder", "stop_name": "Saverne Haut Barr", "type": "Gare accessible", "transport": "carTER", "nombre_trajet_moyen": 0.92, "transport_legende": "\ud83d\udeb2 \ud83d\udc94 Car TER \ud83d\ude8d"}, "geometry": {"type": "Point", "coordinates": [7.352343, 48.73148]}}, {"type": "Feature", "properties": {"start": "Wingen-sur-Moder", "stop_name": "Menchhoffen Abri", "type": "Gare accessible", "transport": "carTER", "nombre_trajet_moyen": 0.76, "transport_legende": "\ud83d\udeb2 \ud83d\udc94 Car TER \ud83d\ude8d"}, "geometry": {"type": "Point", "coordinates": [7.496546, 48.858842]}}, {"type": "Feature", "properties": {"start": "Wingen-sur-Moder", "stop_name": "Uttwiller Croisement", "type": "Gare accessible", "transport": "carTER", "nombre_trajet_moyen": 0.69, "transport_legende": "\ud83d\udeb2 \ud83d\udc94 Car TER \ud83d\ude8d"}, "geometry": {"type": "Point", "coordinates": [7.487526, 48.846149]}}]}