{"type": "FeatureCollection", "features": [{"type": "Feature", "properties": {"start": "Commentry", "stop_name": "Commentry", "type": "Gare s\u00e9lectionn\u00e9e", "transport": "carTER", "transport_legende": "\ud83d\udeb2 \ud83d\udc94 Car TER \ud83d\ude8d"}, "geometry": {"type": "Point", "coordinates": [2.739938, 46.295105]}}, {"type": "Feature", "properties": {"start": "Commentry", "stop_name": "Vichy", "type": "Gare accessible", "transport": "carTER", "transport_legende": "\ud83d\udeb2 \ud83d\udc94 Car TER \ud83d\ude8d"}, "geometry": {"type": "Point", "coordinates": [3.430476, 46.126991]}}, {"type": "Feature", "properties": {"start": "Commentry", "stop_name": "Gannat", "type": "Gare accessible", "transport": "carTER", "transport_legende": "\ud83d\udeb2 \ud83d\udc94 Car TER \ud83d\ude8d"}, "geometry": {"type": "Point", "coordinates": [3.204773, 46.097592]}}, {"type": "Feature", "properties": {"start": "Commentry", "stop_name": "Montlu\u00e7on", "type": "Gare accessible", "transport": "carTER", "transport_legende": "\ud83d\udeb2 \ud83d\udc94 Car TER \ud83d\ude8d"}, "geometry": {"type": "Point", "coordinates": [2.596159, 46.338101]}}, {"type": "Feature", "properties": {"start": "Commentry", "stop_name": "Lapeyrouse", "type": "Gare accessible", "transport": "carTER", "transport_legende": "\ud83d\udeb2 \ud83d\udc94 Car TER \ud83d\ude8d"}, "geometry": {"type": "Point", "coordinates": [2.893315, 46.226759]}}, {"type": "Feature", "properties": {"start": "Commentry", "stop_name": "Riom - Ch\u00e2tel-Guyon", "type": "Gare accessible", "transport": "carTER", "transport_legende": "\ud83d\udeb2 \ud83d\udc94 Car TER \ud83d\ude8d"}, "geometry": {"type": "Point", "coordinates": [3.120498, 45.889965]}}, {"type": "Feature", "properties": {"start": "Commentry", "stop_name": "Clermont-Ferrand", "type": "Gare accessible", "transport": "carTER", "transport_legende": "\ud83d\udeb2 \ud83d\udc94 Car TER \ud83d\ude8d"}, "geometry": {"type": "Point", "coordinates": [3.100543, 45.778945]}}, {"type": "Feature", "properties": {"start": "Commentry", "stop_name": "Neris les Bains Place", "type": "Gare accessible", "transport": "carTER", "transport_legende": "\ud83d\udeb2 \ud83d\udc94 Car TER \ud83d\ude8d"}, "geometry": {"type": "Point", "coordinates": [2.661615, 46.287584]}}, {"type": "Feature", "properties": {"start": "Commentry", "stop_name": "Montaigut en Combraille", "type": "Gare accessible", "transport": "carTER", "transport_legende": "\ud83d\udeb2 \ud83d\udc94 Car TER \ud83d\ude8d"}, "geometry": {"type": "Point", "coordinates": [2.808141, 46.180395]}}, {"type": "Feature", "properties": {"start": "Commentry", "stop_name": "Saint-\u00c9loy-les-Mines", "type": "Gare accessible", "transport": "carTER", "transport_legende": "\ud83d\udeb2 \ud83d\udc94 Car TER \ud83d\ude8d"}, "geometry": {"type": "Point", "coordinates": [2.834344, 46.169524]}}]}