{"type": "FeatureCollection", "features": [{"type": "Feature", "properties": {"start": "Coubladour", "stop_name": "Coubladour", "type": "Gare s\u00e9lectionn\u00e9e", "transport": "carTER", "nombre_trajet_moyen": 1.26, "transport_legende": "\ud83d\udeb2 \ud83d\udc94 Car TER \ud83d\ude8d"}, "geometry": {"type": "Point", "coordinates": [3.74372, 45.115018]}}, {"type": "Feature", "properties": {"start": "Coubladour", "stop_name": "La Chaise-Dieu", "type": "Gare accessible", "transport": "carTER", "nombre_trajet_moyen": 1.26, "transport_legende": "\ud83d\udeb2 \ud83d\udc94 Car TER \ud83d\ude8d"}, "geometry": {"type": "Point", "coordinates": [3.697009, 45.316443]}}, {"type": "Feature", "properties": {"start": "Coubladour", "stop_name": "Sembadel", "type": "Gare accessible", "transport": "carTER", "nombre_trajet_moyen": 1.26, "transport_legende": "\ud83d\udeb2 \ud83d\udc94 Car TER \ud83d\ude8d"}, "geometry": {"type": "Point", "coordinates": [3.721924, 45.277691]}}, {"type": "Feature", "properties": {"start": "Coubladour", "stop_name": "Monlet", "type": "Gare accessible", "transport": "carTER", "nombre_trajet_moyen": 1.26, "transport_legende": "\ud83d\udeb2 \ud83d\udc94 Car TER \ud83d\ude8d"}, "geometry": {"type": "Point", "coordinates": [3.714192, 45.219737]}}, {"type": "Feature", "properties": {"start": "Coubladour", "stop_name": "All\u00e8gre", "type": "Gare accessible", "transport": "carTER", "nombre_trajet_moyen": 1.26, "transport_legende": "\ud83d\udeb2 \ud83d\udc94 Car TER \ud83d\ude8d"}, "geometry": {"type": "Point", "coordinates": [3.713787, 45.202996]}}, {"type": "Feature", "properties": {"start": "Coubladour", "stop_name": "Allegre Maison Retraite", "type": "Gare accessible", "transport": "carTER", "nombre_trajet_moyen": 1.26, "transport_legende": "\ud83d\udeb2 \ud83d\udc94 Car TER \ud83d\ude8d"}, "geometry": {"type": "Point", "coordinates": [3.713792, 45.201985]}}, {"type": "Feature", "properties": {"start": "Coubladour", "stop_name": "Serres Haute Loire", "type": "Gare accessible", "transport": "carTER", "nombre_trajet_moyen": 1.26, "transport_legende": "\ud83d\udeb2 \ud83d\udc94 Car TER \ud83d\ude8d"}, "geometry": {"type": "Point", "coordinates": [3.725739, 45.180736]}}, {"type": "Feature", "properties": {"start": "Coubladour", "stop_name": "C\u00e9aux-d'All\u00e8gre", "type": "Gare accessible", "transport": "carTER", "nombre_trajet_moyen": 1.26, "transport_legende": "\ud83d\udeb2 \ud83d\udc94 Car TER \ud83d\ude8d"}, "geometry": {"type": "Point", "coordinates": [3.731663, 45.178023]}}, {"type": "Feature", "properties": {"start": "Coubladour", "stop_name": "Darsac", "type": "Gare accessible", "transport": "carTER", "nombre_trajet_moyen": 1.26, "transport_legende": "\ud83d\udeb2 \ud83d\udc94 Car TER \ud83d\ude8d"}, "geometry": {"type": "Point", "coordinates": [3.736628, 45.142183]}}, {"type": "Feature", "properties": {"start": "Coubladour", "stop_name": "Darsac Lotissement", "type": "Gare accessible", "transport": "carTER", "nombre_trajet_moyen": 1.26, "transport_legende": "\ud83d\udeb2 \ud83d\udc94 Car TER \ud83d\ude8d"}, "geometry": {"type": "Point", "coordinates": [3.738543, 45.138868]}}, {"type": "Feature", "properties": {"start": "Coubladour", "stop_name": "Freyssenet", "type": "Gare accessible", "transport": "carTER", "nombre_trajet_moyen": 1.26, "transport_legende": "\ud83d\udeb2 \ud83d\udc94 Car TER \ud83d\ude8d"}, "geometry": {"type": "Point", "coordinates": [3.736977, 45.131964]}}, {"type": "Feature", "properties": {"start": "Coubladour", "stop_name": "Le Puy-en-Velay Hermitage", "type": "Gare accessible", "transport": "carTER", "nombre_trajet_moyen": 1.26, "transport_legende": "\ud83d\udeb2 \ud83d\udc94 Car TER \ud83d\ude8d"}, "geometry": {"type": "Point", "coordinates": [3.865865, 45.054464]}}, {"type": "Feature", "properties": {"start": "Coubladour", "stop_name": "Le Puy En Velay H\u00f4pital E.Roux", "type": "Gare accessible", "transport": "carTER", "nombre_trajet_moyen": 1.26, "transport_legende": "\ud83d\udeb2 \ud83d\udc94 Car TER \ud83d\ude8d"}, "geometry": {"type": "Point", "coordinates": [3.8772, 45.049219]}}, {"type": "Feature", "properties": {"start": "Coubladour", "stop_name": "Le Puy-en-Velay Lafayette", "type": "Gare accessible", "transport": "carTER", "nombre_trajet_moyen": 1.26, "transport_legende": "\ud83d\udeb2 \ud83d\udc94 Car TER \ud83d\ude8d"}, "geometry": {"type": "Point", "coordinates": [3.879959, 45.043962]}}, {"type": "Feature", "properties": {"start": "Coubladour", "stop_name": "Le Puy-en-Velay Fayolle", "type": "Gare accessible", "transport": "carTER", "nombre_trajet_moyen": 0.68, "transport_legende": "\ud83d\udeb2 \ud83d\udc94 Car TER \ud83d\ude8d"}, "geometry": {"type": "Point", "coordinates": [3.88614, 45.041686]}}, {"type": "Feature", "properties": {"start": "Coubladour", "stop_name": "Le Puy-en-Velay", "type": "Gare accessible", "transport": "carTER", "nombre_trajet_moyen": 1.26, "transport_legende": "\ud83d\udeb2 \ud83d\udc94 Car TER \ud83d\ude8d"}, "geometry": {"type": "Point", "coordinates": [3.892421, 45.042866]}}, {"type": "Feature", "properties": {"start": "Coubladour", "stop_name": "Ambert Halte Routi\u00e8re", "type": "Gare accessible", "transport": "carTER", "nombre_trajet_moyen": 0.26, "transport_legende": "\ud83d\udeb2 \ud83d\udc94 Car TER \ud83d\ude8d"}, "geometry": {"type": "Point", "coordinates": [3.735035, 45.549644]}}, {"type": "Feature", "properties": {"start": "Coubladour", "stop_name": "Ambert", "type": "Gare accessible", "transport": "carTER", "nombre_trajet_moyen": 0.26, "transport_legende": "\ud83d\udeb2 \ud83d\udc94 Car TER \ud83d\ude8d"}, "geometry": {"type": "Point", "coordinates": [3.739699, 45.550621]}}, {"type": "Feature", "properties": {"start": "Coubladour", "stop_name": "Marsac-en-Livradois", "type": "Gare accessible", "transport": "carTER", "nombre_trajet_moyen": 0.26, "transport_legende": "\ud83d\udeb2 \ud83d\udc94 Car TER \ud83d\ude8d"}, "geometry": {"type": "Point", "coordinates": [3.726393, 45.481506]}}, {"type": "Feature", "properties": {"start": "Coubladour", "stop_name": "Arlanc Place de l'\u00e9glise", "type": "Gare accessible", "transport": "carTER", "nombre_trajet_moyen": 0.26, "transport_legende": "\ud83d\udeb2 \ud83d\udc94 Car TER \ud83d\ude8d"}, "geometry": {"type": "Point", "coordinates": [3.724574, 45.413229]}}, {"type": "Feature", "properties": {"start": "Coubladour", "stop_name": "Dore-l'\u00c9glise", "type": "Gare accessible", "transport": "carTER", "nombre_trajet_moyen": 0.26, "transport_legende": "\ud83d\udeb2 \ud83d\udc94 Car TER \ud83d\ude8d"}, "geometry": {"type": "Point", "coordinates": [3.748108, 45.381017]}}]}