{"type": "FeatureCollection", "features": [{"type": "Feature", "properties": {"start": "Diarville Place Raymond Midon", "stop_name": "Diarville Place Raymond Midon", "type": "Gare s\u00e9lectionn\u00e9e", "transport": "carTER", "transport_legende": "\ud83d\udeb2 \ud83d\udc94 Car TER \ud83d\ude8d"}, "geometry": {"type": "Point", "coordinates": [6.131793, 48.39461]}}, {"type": "Feature", "properties": {"start": "Diarville Place Raymond Midon", "stop_name": "Mirecourt", "type": "Gare accessible", "transport": "carTER", "transport_legende": "\ud83d\udeb2 \ud83d\udc94 Car TER \ud83d\ude8d"}, "geometry": {"type": "Point", "coordinates": [6.129464, 48.299249]}}, {"type": "Feature", "properties": {"start": "Diarville Place Raymond Midon", "stop_name": "Praye-sous-Vaud\u00e9mont PN", "type": "Gare accessible", "transport": "carTER", "transport_legende": "\ud83d\udeb2 \ud83d\udc94 Car TER \ud83d\ude8d"}, "geometry": {"type": "Point", "coordinates": [6.100488, 48.433054]}}, {"type": "Feature", "properties": {"start": "Diarville Place Raymond Midon", "stop_name": "Tantonville Rue Louis Pasteur", "type": "Gare accessible", "transport": "carTER", "transport_legende": "\ud83d\udeb2 \ud83d\udc94 Car TER \ud83d\ude8d"}, "geometry": {"type": "Point", "coordinates": [6.135556, 48.467881]}}, {"type": "Feature", "properties": {"start": "Diarville Place Raymond Midon", "stop_name": "V\u00e9zelise Beauregard", "type": "Gare accessible", "transport": "carTER", "transport_legende": "\ud83d\udeb2 \ud83d\udc94 Car TER \ud83d\ude8d"}, "geometry": {"type": "Point", "coordinates": [6.093343, 48.488983]}}, {"type": "Feature", "properties": {"start": "Diarville Place Raymond Midon", "stop_name": "Ceintrey Eglise", "type": "Gare accessible", "transport": "carTER", "transport_legende": "\ud83d\udeb2 \ud83d\udc94 Car TER \ud83d\ude8d"}, "geometry": {"type": "Point", "coordinates": [6.163995, 48.524463]}}, {"type": "Feature", "properties": {"start": "Diarville Place Raymond Midon", "stop_name": "Nancy", "type": "Gare accessible", "transport": "carTER", "transport_legende": "\ud83d\udeb2 \ud83d\udc94 Car TER \ud83d\ude8d"}, "geometry": {"type": "Point", "coordinates": [6.174579, 48.689857]}}, {"type": "Feature", "properties": {"start": "Diarville Place Raymond Midon", "stop_name": "Damblain \u00c9glise", "type": "Gare accessible", "transport": "carTER", "transport_legende": "\ud83d\udeb2 \ud83d\udc94 Car TER \ud83d\ude8d"}, "geometry": {"type": "Point", "coordinates": [5.652857, 48.097929]}}, {"type": "Feature", "properties": {"start": "Diarville Place Raymond Midon", "stop_name": "Rozi\u00e8res-sur-Mouzon", "type": "Gare accessible", "transport": "carTER", "transport_legende": "\ud83d\udeb2 \ud83d\udc94 Car TER \ud83d\ude8d"}, "geometry": {"type": "Point", "coordinates": [5.705391, 48.120926]}}, {"type": "Feature", "properties": {"start": "Diarville Place Raymond Midon", "stop_name": "Lamarche", "type": "Gare accessible", "transport": "carTER", "transport_legende": "\ud83d\udeb2 \ud83d\udc94 Car TER \ud83d\ude8d"}, "geometry": {"type": "Point", "coordinates": [5.760439, 48.09013]}}, {"type": "Feature", "properties": {"start": "Diarville Place Raymond Midon", "stop_name": "Lamarche Centre", "type": "Gare accessible", "transport": "carTER", "transport_legende": "\ud83d\udeb2 \ud83d\udc94 Car TER \ud83d\ude8d"}, "geometry": {"type": "Point", "coordinates": [5.782199, 48.070778]}}, {"type": "Feature", "properties": {"start": "Diarville Place Raymond Midon", "stop_name": "Martigny-les-Bains Thi\u00e9baut", "type": "Gare accessible", "transport": "carTER", "transport_legende": "\ud83d\udeb2 \ud83d\udc94 Car TER \ud83d\ude8d"}, "geometry": {"type": "Point", "coordinates": [5.823891, 48.104445]}}, {"type": "Feature", "properties": {"start": "Diarville Place Raymond Midon", "stop_name": "Martigny-les-Bains Gare", "type": "Gare accessible", "transport": "carTER", "transport_legende": "\ud83d\udeb2 \ud83d\udc94 Car TER \ud83d\ude8d"}, "geometry": {"type": "Point", "coordinates": [5.825703, 48.108552]}}, {"type": "Feature", "properties": {"start": "Diarville Place Raymond Midon", "stop_name": "Contrex\u00e9ville", "type": "Gare accessible", "transport": "carTER", "transport_legende": "\ud83d\udeb2 \ud83d\udc94 Car TER \ud83d\ude8d"}, "geometry": {"type": "Point", "coordinates": [5.890633, 48.179613]}}, {"type": "Feature", "properties": {"start": "Diarville Place Raymond Midon", "stop_name": "Vittel", "type": "Gare accessible", "transport": "carTER", "transport_legende": "\ud83d\udeb2 \ud83d\udc94 Car TER \ud83d\ude8d"}, "geometry": {"type": "Point", "coordinates": [5.942295, 48.202426]}}, {"type": "Feature", "properties": {"start": "Diarville Place Raymond Midon", "stop_name": "Hymont Mairie", "type": "Gare accessible", "transport": "carTER", "transport_legende": "\ud83d\udeb2 \ud83d\udc94 Car TER \ud83d\ude8d"}, "geometry": {"type": "Point", "coordinates": [6.142194, 48.265629]}}, {"type": "Feature", "properties": {"start": "Diarville Place Raymond Midon", "stop_name": "Mattaincourt la Poste", "type": "Gare accessible", "transport": "carTER", "transport_legende": "\ud83d\udeb2 \ud83d\udc94 Car TER \ud83d\ude8d"}, "geometry": {"type": "Point", "coordinates": [6.133343, 48.278999]}}, {"type": "Feature", "properties": {"start": "Diarville Place Raymond Midon", "stop_name": "Mirecourt Lyc\u00e9e Agricole", "type": "Gare accessible", "transport": "carTER", "transport_legende": "\ud83d\udeb2 \ud83d\udc94 Car TER \ud83d\ude8d"}, "geometry": {"type": "Point", "coordinates": [6.132072, 48.293598]}}, {"type": "Feature", "properties": {"start": "Diarville Place Raymond Midon", "stop_name": "Saxon-Sion Basilique", "type": "Gare accessible", "transport": "carTER", "transport_legende": "\ud83d\udeb2 \ud83d\udc94 Car TER \ud83d\ude8d"}, "geometry": {"type": "Point", "coordinates": [6.084929, 48.428594]}}, {"type": "Feature", "properties": {"start": "Diarville Place Raymond Midon", "stop_name": "Har\u00e9ville sous Monfort Centre", "type": "Gare accessible", "transport": "carTER", "transport_legende": "\ud83d\udeb2 \ud83d\udc94 Car TER \ud83d\ude8d"}, "geometry": {"type": "Point", "coordinates": [5.999557, 48.205615]}}]}