{"type": "FeatureCollection", "features": [{"type": "Feature", "properties": {"start": "Durdat-Larequille", "stop_name": "Durdat-Larequille", "type": "Gare s\u00e9lectionn\u00e9e", "transport": "carTER", "nombre_trajet_moyen": 0.78, "transport_legende": "\ud83d\udeb2 \ud83d\udc94 Car TER \ud83d\ude8d"}, "geometry": {"type": "Point", "coordinates": [2.702154, 46.250854]}}, {"type": "Feature", "properties": {"start": "Durdat-Larequille", "stop_name": "Saint-\u00c9loy-les-Mines", "type": "Gare accessible", "transport": "carTER", "nombre_trajet_moyen": 0.78, "transport_legende": "\ud83d\udeb2 \ud83d\udc94 Car TER \ud83d\ude8d"}, "geometry": {"type": "Point", "coordinates": [2.834344, 46.169524]}}, {"type": "Feature", "properties": {"start": "Durdat-Larequille", "stop_name": "Saint-\u00c9loy-les-Mines Lyc\u00e9e", "type": "Gare accessible", "transport": "carTER", "nombre_trajet_moyen": 0.78, "transport_legende": "\ud83d\udeb2 \ud83d\udc94 Car TER \ud83d\ude8d"}, "geometry": {"type": "Point", "coordinates": [2.832855, 46.159641]}}, {"type": "Feature", "properties": {"start": "Durdat-Larequille", "stop_name": "Montaigut en Combraille", "type": "Gare accessible", "transport": "carTER", "nombre_trajet_moyen": 0.78, "transport_legende": "\ud83d\udeb2 \ud83d\udc94 Car TER \ud83d\ude8d"}, "geometry": {"type": "Point", "coordinates": [2.808141, 46.180395]}}, {"type": "Feature", "properties": {"start": "Durdat-Larequille", "stop_name": "Neris les Bains Place", "type": "Gare accessible", "transport": "carTER", "nombre_trajet_moyen": 0.78, "transport_legende": "\ud83d\udeb2 \ud83d\udc94 Car TER \ud83d\ude8d"}, "geometry": {"type": "Point", "coordinates": [2.661615, 46.287584]}}, {"type": "Feature", "properties": {"start": "Durdat-Larequille", "stop_name": "Montlu\u00e7on", "type": "Gare accessible", "transport": "carTER", "nombre_trajet_moyen": 0.78, "transport_legende": "\ud83d\udeb2 \ud83d\udc94 Car TER \ud83d\ude8d"}, "geometry": {"type": "Point", "coordinates": [2.596159, 46.338101]}}]}