{"type": "FeatureCollection", "features": [{"type": "Feature", "properties": {"start": "Farschviller", "stop_name": "Farschviller", "type": "Gare s\u00e9lectionn\u00e9e", "transport": "carTER", "transport_legende": "\ud83d\udeb2 \ud83d\udc94 Car TER \ud83d\ude8d"}, "geometry": {"type": "Point", "coordinates": [6.908082, 49.087877]}}, {"type": "Feature", "properties": {"start": "Farschviller", "stop_name": "Sarreguemines Barth", "type": "Gare accessible", "transport": "carTER", "transport_legende": "\ud83d\udeb2 \ud83d\udc94 Car TER \ud83d\ude8d"}, "geometry": {"type": "Point", "coordinates": [7.050557, 49.101996]}}, {"type": "Feature", "properties": {"start": "Farschviller", "stop_name": "Sarreguemines Lyc\u00e9e Pange", "type": "Gare accessible", "transport": "carTER", "transport_legende": "\ud83d\udeb2 \ud83d\udc94 Car TER \ud83d\ude8d"}, "geometry": {"type": "Point", "coordinates": [7.064027, 49.108478]}}, {"type": "Feature", "properties": {"start": "Farschviller", "stop_name": "Ippling Rue de Sarreguemines", "type": "Gare accessible", "transport": "carTER", "transport_legende": "\ud83d\udeb2 \ud83d\udc94 Car TER \ud83d\ude8d"}, "geometry": {"type": "Point", "coordinates": [7.004908, 49.106359]}}, {"type": "Feature", "properties": {"start": "Farschviller", "stop_name": "Hundling Stade", "type": "Gare accessible", "transport": "carTER", "transport_legende": "\ud83d\udeb2 \ud83d\udc94 Car TER \ud83d\ude8d"}, "geometry": {"type": "Point", "coordinates": [6.981527, 49.107769]}}, {"type": "Feature", "properties": {"start": "Farschviller", "stop_name": "Metzing Centre", "type": "Gare accessible", "transport": "carTER", "transport_legende": "\ud83d\udeb2 \ud83d\udc94 Car TER \ud83d\ude8d"}, "geometry": {"type": "Point", "coordinates": [6.95713, 49.105861]}}, {"type": "Feature", "properties": {"start": "Farschviller", "stop_name": "Diebling Centre", "type": "Gare accessible", "transport": "carTER", "transport_legende": "\ud83d\udeb2 \ud83d\udc94 Car TER \ud83d\ude8d"}, "geometry": {"type": "Point", "coordinates": [6.939969, 49.109148]}}, {"type": "Feature", "properties": {"start": "Farschviller", "stop_name": "Diebling Maison Foresti\u00e8re", "type": "Gare accessible", "transport": "carTER", "transport_legende": "\ud83d\udeb2 \ud83d\udc94 Car TER \ud83d\ude8d"}, "geometry": {"type": "Point", "coordinates": [6.933545, 49.112022]}}, {"type": "Feature", "properties": {"start": "Farschviller", "stop_name": "Farschviller Centre", "type": "Gare accessible", "transport": "carTER", "transport_legende": "\ud83d\udeb2 \ud83d\udc94 Car TER \ud83d\ude8d"}, "geometry": {"type": "Point", "coordinates": [6.895772, 49.095277]}}, {"type": "Feature", "properties": {"start": "Farschviller", "stop_name": "Farschviller Croisement Gare", "type": "Gare accessible", "transport": "carTER", "transport_legende": "\ud83d\udeb2 \ud83d\udc94 Car TER \ud83d\ude8d"}, "geometry": {"type": "Point", "coordinates": [6.901817, 49.088581]}}, {"type": "Feature", "properties": {"start": "Farschviller", "stop_name": "Loupershouse centre", "type": "Gare accessible", "transport": "carTER", "transport_legende": "\ud83d\udeb2 \ud83d\udc94 Car TER \ud83d\ude8d"}, "geometry": {"type": "Point", "coordinates": [6.914367, 49.080859]}}, {"type": "Feature", "properties": {"start": "Farschviller", "stop_name": "Sarreguemines Lyc\u00e9e Technique", "type": "Gare accessible", "transport": "carTER", "transport_legende": "\ud83d\udeb2 \ud83d\udc94 Car TER \ud83d\ude8d"}, "geometry": {"type": "Point", "coordinates": [7.079192, 49.1163]}}, {"type": "Feature", "properties": {"start": "Farschviller", "stop_name": "Sarreguemines Coll\u00e8ge Fulrad", "type": "Gare accessible", "transport": "carTER", "transport_legende": "\ud83d\udeb2 \ud83d\udc94 Car TER \ud83d\ude8d"}, "geometry": {"type": "Point", "coordinates": [7.075506, 49.11873]}}, {"type": "Feature", "properties": {"start": "Farschviller", "stop_name": "Ebring Croisement", "type": "Gare accessible", "transport": "carTER", "transport_legende": "\ud83d\udeb2 \ud83d\udc94 Car TER \ud83d\ude8d"}, "geometry": {"type": "Point", "coordinates": [6.910941, 49.117002]}}]}