{"type": "FeatureCollection", "features": [{"type": "Feature", "properties": {"start": "La Fl\u00e8che", "stop_name": "La Fl\u00e8che", "type": "Gare s\u00e9lectionn\u00e9e", "transport": "carTER", "transport_legende": "\ud83d\udeb2 \ud83d\udc94 Car TER \ud83d\ude8d"}, "geometry": {"type": "Point", "coordinates": [-0.069453, 47.696422]}}, {"type": "Feature", "properties": {"start": "La Fl\u00e8che", "stop_name": "Clermont-Cr\u00e9ans", "type": "Gare accessible", "transport": "carTER", "transport_legende": "\ud83d\udeb2 \ud83d\udc94 Car TER \ud83d\ude8d"}, "geometry": {"type": "Point", "coordinates": [-0.018652, 47.723149]}}, {"type": "Feature", "properties": {"start": "La Fl\u00e8che", "stop_name": "La Fontaine-Saint-Martin le Ch", "type": "Gare accessible", "transport": "carTER", "transport_legende": "\ud83d\udeb2 \ud83d\udc94 Car TER \ud83d\ude8d"}, "geometry": {"type": "Point", "coordinates": [0.048323, 47.791247]}}, {"type": "Feature", "properties": {"start": "La Fl\u00e8che", "stop_name": "C\u00e9rans-Foulletourte Croissant", "type": "Gare accessible", "transport": "carTER", "transport_legende": "\ud83d\udeb2 \ud83d\udc94 Car TER \ud83d\ude8d"}, "geometry": {"type": "Point", "coordinates": [0.093883, 47.830013]}}, {"type": "Feature", "properties": {"start": "La Fl\u00e8che", "stop_name": "Gu\u00e9c\u00e9lard Eglise", "type": "Gare accessible", "transport": "carTER", "transport_legende": "\ud83d\udeb2 \ud83d\udc94 Car TER \ud83d\ude8d"}, "geometry": {"type": "Point", "coordinates": [0.129443, 47.87779]}}, {"type": "Feature", "properties": {"start": "La Fl\u00e8che", "stop_name": "Le Mans Boulevard Lefaucheux", "type": "Gare accessible", "transport": "carTER", "transport_legende": "\ud83d\udeb2 \ud83d\udc94 Car TER \ud83d\ude8d"}, "geometry": {"type": "Point", "coordinates": [0.172434, 47.975703]}}, {"type": "Feature", "properties": {"start": "La Fl\u00e8che", "stop_name": "Le Mans", "type": "Gare accessible", "transport": "carTER", "transport_legende": "\ud83d\udeb2 \ud83d\udc94 Car TER \ud83d\ude8d"}, "geometry": {"type": "Point", "coordinates": [0.192614, 47.995615]}}, {"type": "Feature", "properties": {"start": "La Fl\u00e8che", "stop_name": "Saumur", "type": "Gare accessible", "transport": "carTER", "transport_legende": "\ud83d\udeb2 \ud83d\udc94 Car TER \ud83d\ude8d"}, "geometry": {"type": "Point", "coordinates": [-0.071403, 47.268994]}}, {"type": "Feature", "properties": {"start": "La Fl\u00e8che", "stop_name": "Vivy", "type": "Gare accessible", "transport": "carTER", "transport_legende": "\ud83d\udeb2 \ud83d\udc94 Car TER \ud83d\ude8d"}, "geometry": {"type": "Point", "coordinates": [-0.055744, 47.325668]}}, {"type": "Feature", "properties": {"start": "La Fl\u00e8che", "stop_name": "Longu\u00e9-Jumellles Les 4 Chemins", "type": "Gare accessible", "transport": "carTER", "transport_legende": "\ud83d\udeb2 \ud83d\udc94 Car TER \ud83d\ude8d"}, "geometry": {"type": "Point", "coordinates": [-0.114263, 47.386722]}}, {"type": "Feature", "properties": {"start": "La Fl\u00e8che", "stop_name": "Baug\u00e9", "type": "Gare accessible", "transport": "carTER", "transport_legende": "\ud83d\udeb2 \ud83d\udc94 Car TER \ud83d\ude8d"}, "geometry": {"type": "Point", "coordinates": [-0.103675, 47.541229]}}, {"type": "Feature", "properties": {"start": "La Fl\u00e8che", "stop_name": "Saint-Jean-de-la-Motte", "type": "Gare accessible", "transport": "carTER", "transport_legende": "\ud83d\udeb2 \ud83d\udc94 Car TER \ud83d\ude8d"}, "geometry": {"type": "Point", "coordinates": [0.016662, 47.76335]}}, {"type": "Feature", "properties": {"start": "La Fl\u00e8che", "stop_name": "La Fontaine-Saint-Martin", "type": "Gare accessible", "transport": "carTER", "transport_legende": "\ud83d\udeb2 \ud83d\udc94 Car TER \ud83d\ude8d"}, "geometry": {"type": "Point", "coordinates": [0.048336, 47.791001]}}, {"type": "Feature", "properties": {"start": "La Fl\u00e8che", "stop_name": "Oiz\u00e9", "type": "Gare accessible", "transport": "carTER", "transport_legende": "\ud83d\udeb2 \ud83d\udc94 Car TER \ud83d\ude8d"}, "geometry": {"type": "Point", "coordinates": [0.104721, 47.808349]}}, {"type": "Feature", "properties": {"start": "La Fl\u00e8che", "stop_name": "C\u00e9rans-Foulletourte \u00c9glise", "type": "Gare accessible", "transport": "carTER", "transport_legende": "\ud83d\udeb2 \ud83d\udc94 Car TER \ud83d\ude8d"}, "geometry": {"type": "Point", "coordinates": [0.07579, 47.82765]}}, {"type": "Feature", "properties": {"start": "La Fl\u00e8che", "stop_name": "Parign\u00e9-le-P\u00f4lin Centre", "type": "Gare accessible", "transport": "carTER", "transport_legende": "\ud83d\udeb2 \ud83d\udc94 Car TER \ud83d\ude8d"}, "geometry": {"type": "Point", "coordinates": [-0.104558, 47.850961]}}, {"type": "Feature", "properties": {"start": "La Fl\u00e8che", "stop_name": "Gu\u00e9c\u00e9lard Belle \u00c9toile", "type": "Gare accessible", "transport": "carTER", "transport_legende": "\ud83d\udeb2 \ud83d\udc94 Car TER \ud83d\ude8d"}, "geometry": {"type": "Point", "coordinates": [0.1585, 47.9001]}}, {"type": "Feature", "properties": {"start": "La Fl\u00e8che", "stop_name": "Arnage rue du Port", "type": "Gare accessible", "transport": "carTER", "transport_legende": "\ud83d\udeb2 \ud83d\udc94 Car TER \ud83d\ude8d"}, "geometry": {"type": "Point", "coordinates": [0.186725, 47.93151]}}, {"type": "Feature", "properties": {"start": "La Fl\u00e8che", "stop_name": "Le Mans Pontlieue", "type": "Gare accessible", "transport": "carTER", "transport_legende": "\ud83d\udeb2 \ud83d\udc94 Car TER \ud83d\ude8d"}, "geometry": {"type": "Point", "coordinates": [0.210993, 47.982497]}}, {"type": "Feature", "properties": {"start": "La Fl\u00e8che", "stop_name": "Le Mans Viaduc", "type": "Gare accessible", "transport": "carTER", "transport_legende": "\ud83d\udeb2 \ud83d\udc94 Car TER \ud83d\ude8d"}, "geometry": {"type": "Point", "coordinates": [0.203719, 47.99265]}}]}