{"type": "FeatureCollection", "features": [{"type": "Feature", "properties": {"start": "Lablach\u00e8re centre", "stop_name": "Lablach\u00e8re centre", "type": "Gare s\u00e9lectionn\u00e9e", "transport": "carTER", "nombre_trajet_moyen": 1.0, "transport_legende": "\ud83d\udeb2 \ud83d\udc94 Car TER \ud83d\ude8d"}, "geometry": {"type": "Point", "coordinates": [4.214952, 44.463545]}}, {"type": "Feature", "properties": {"start": "Lablach\u00e8re centre", "stop_name": "Les Vans Centre", "type": "Gare accessible", "transport": "carTER", "nombre_trajet_moyen": 1.0, "transport_legende": "\ud83d\udeb2 \ud83d\udc94 Car TER \ud83d\ude8d"}, "geometry": {"type": "Point", "coordinates": [4.128448, 44.405289]}}, {"type": "Feature", "properties": {"start": "Lablach\u00e8re centre", "stop_name": "Joyeuse", "type": "Gare accessible", "transport": "carTER", "nombre_trajet_moyen": 1.0, "transport_legende": "\ud83d\udeb2 \ud83d\udc94 Car TER \ud83d\ude8d"}, "geometry": {"type": "Point", "coordinates": [4.242842, 44.479745]}}, {"type": "Feature", "properties": {"start": "Lablach\u00e8re centre", "stop_name": "Rosi\u00e8res Centre", "type": "Gare accessible", "transport": "carTER", "nombre_trajet_moyen": 1.0, "transport_legende": "\ud83d\udeb2 \ud83d\udc94 Car TER \ud83d\ude8d"}, "geometry": {"type": "Point", "coordinates": [4.258082, 44.484187]}}, {"type": "Feature", "properties": {"start": "Lablach\u00e8re centre", "stop_name": "Largenti\u00e8re Les Vergnades", "type": "Gare accessible", "transport": "carTER", "nombre_trajet_moyen": 1.0, "transport_legende": "\ud83d\udeb2 \ud83d\udc94 Car TER \ud83d\ude8d"}, "geometry": {"type": "Point", "coordinates": [4.292489, 44.538366]}}, {"type": "Feature", "properties": {"start": "Lablach\u00e8re centre", "stop_name": "Uzer-Centre", "type": "Gare accessible", "transport": "carTER", "nombre_trajet_moyen": 1.0, "transport_legende": "\ud83d\udeb2 \ud83d\udc94 Car TER \ud83d\ude8d"}, "geometry": {"type": "Point", "coordinates": [4.327638, 44.52048]}}, {"type": "Feature", "properties": {"start": "Lablach\u00e8re centre", "stop_name": "Lachapelle-sous-Aubenas", "type": "Gare accessible", "transport": "carTER", "nombre_trajet_moyen": 1.0, "transport_legende": "\ud83d\udeb2 \ud83d\udc94 Car TER \ud83d\ude8d"}, "geometry": {"type": "Point", "coordinates": [4.363361, 44.564182]}}, {"type": "Feature", "properties": {"start": "Lablach\u00e8re centre", "stop_name": "Saint-\u00c9tienne-de-Fontbellon D", "type": "Gare accessible", "transport": "carTER", "nombre_trajet_moyen": 1.0, "transport_legende": "\ud83d\udeb2 \ud83d\udc94 Car TER \ud83d\ude8d"}, "geometry": {"type": "Point", "coordinates": [4.387158, 44.603071]}}, {"type": "Feature", "properties": {"start": "Lablach\u00e8re centre", "stop_name": "Aubenas Place de la Paix", "type": "Gare accessible", "transport": "carTER", "nombre_trajet_moyen": 1.0, "transport_legende": "\ud83d\udeb2 \ud83d\udc94 Car TER \ud83d\ude8d"}, "geometry": {"type": "Point", "coordinates": [4.38922, 44.618129]}}, {"type": "Feature", "properties": {"start": "Lablach\u00e8re centre", "stop_name": "Aubenas Gare Routi\u00e8re", "type": "Gare accessible", "transport": "carTER", "nombre_trajet_moyen": 1.0, "transport_legende": "\ud83d\udeb2 \ud83d\udc94 Car TER \ud83d\ude8d"}, "geometry": {"type": "Point", "coordinates": [4.407164, 44.61095]}}, {"type": "Feature", "properties": {"start": "Lablach\u00e8re centre", "stop_name": "Saint-Didier-sous-Aubenas Centre", "type": "Gare accessible", "transport": "carTER", "nombre_trajet_moyen": 1.0, "transport_legende": "\ud83d\udeb2 \ud83d\udc94 Car TER \ud83d\ude8d"}, "geometry": {"type": "Point", "coordinates": [4.415037, 44.607465]}}, {"type": "Feature", "properties": {"start": "Lablach\u00e8re centre", "stop_name": "Lavilledieu ZA les Pers\u00e8des", "type": "Gare accessible", "transport": "carTER", "nombre_trajet_moyen": 1.0, "transport_legende": "\ud83d\udeb2 \ud83d\udc94 Car TER \ud83d\ude8d"}, "geometry": {"type": "Point", "coordinates": [4.442271, 44.590585]}}, {"type": "Feature", "properties": {"start": "Lablach\u00e8re centre", "stop_name": "Lavilledieu Centre", "type": "Gare accessible", "transport": "carTER", "nombre_trajet_moyen": 1.0, "transport_legende": "\ud83d\udeb2 \ud83d\udc94 Car TER \ud83d\ude8d"}, "geometry": {"type": "Point", "coordinates": [4.455409, 44.574187]}}, {"type": "Feature", "properties": {"start": "Lablach\u00e8re centre", "stop_name": "Villeneuve-de-Berg-Centre", "type": "Gare accessible", "transport": "carTER", "nombre_trajet_moyen": 1.0, "transport_legende": "\ud83d\udeb2 \ud83d\udc94 Car TER \ud83d\ude8d"}, "geometry": {"type": "Point", "coordinates": [4.498102, 44.554919]}}, {"type": "Feature", "properties": {"start": "Lablach\u00e8re centre", "stop_name": "Villeneuve-de-Berg les Pommiers", "type": "Gare accessible", "transport": "carTER", "nombre_trajet_moyen": 1.0, "transport_legende": "\ud83d\udeb2 \ud83d\udc94 Car TER \ud83d\ude8d"}, "geometry": {"type": "Point", "coordinates": [4.511974, 44.573073]}}, {"type": "Feature", "properties": {"start": "Lablach\u00e8re centre", "stop_name": "Saint-Jean-le-Centenier Centre", "type": "Gare accessible", "transport": "carTER", "nombre_trajet_moyen": 1.0, "transport_legende": "\ud83d\udeb2 \ud83d\udc94 Car TER \ud83d\ude8d"}, "geometry": {"type": "Point", "coordinates": [4.536514, 44.58959]}}, {"type": "Feature", "properties": {"start": "Lablach\u00e8re centre", "stop_name": "Alba-la-Romaine Ruines Romaines", "type": "Gare accessible", "transport": "carTER", "nombre_trajet_moyen": 1.0, "transport_legende": "\ud83d\udeb2 \ud83d\udc94 Car TER \ud83d\ude8d"}, "geometry": {"type": "Point", "coordinates": [4.587551, 44.570312]}}, {"type": "Feature", "properties": {"start": "Lablach\u00e8re centre", "stop_name": "Le Teil Sablons", "type": "Gare accessible", "transport": "carTER", "nombre_trajet_moyen": 1.0, "transport_legende": "\ud83d\udeb2 \ud83d\udc94 Car TER \ud83d\ude8d"}, "geometry": {"type": "Point", "coordinates": [4.685618, 44.5527]}}, {"type": "Feature", "properties": {"start": "Lablach\u00e8re centre", "stop_name": "Montelimar Gare Routi\u00e8re", "type": "Gare accessible", "transport": "carTER", "nombre_trajet_moyen": 1.0, "transport_legende": "\ud83d\udeb2 \ud83d\udc94 Car TER \ud83d\ude8d"}, "geometry": {"type": "Point", "coordinates": [4.745107, 44.559439]}}, {"type": "Feature", "properties": {"start": "Lablach\u00e8re centre", "stop_name": "Valence TGV Rh\u00f4ne-Alpes Sud", "type": "Gare accessible", "transport": "carTER", "nombre_trajet_moyen": 1.0, "transport_legende": "\ud83d\udeb2 \ud83d\udc94 Car TER \ud83d\ude8d"}, "geometry": {"type": "Point", "coordinates": [4.978652, 44.991907]}}]}