{"type": "FeatureCollection", "features": [{"type": "Feature", "properties": {"start": "Labouheyre", "stop_name": "Labouheyre", "type": "Gare s\u00e9lectionn\u00e9e", "transport": "carTER", "transport_legende": "\ud83d\udeb2 \ud83d\udc94 Car TER \ud83d\ude8d"}, "geometry": {"type": "Point", "coordinates": [-0.920974, 44.210613]}}, {"type": "Feature", "properties": {"start": "Labouheyre", "stop_name": "Biganos Facture", "type": "Gare accessible", "transport": "carTER", "transport_legende": "\ud83d\udeb2 \ud83d\udc94 Car TER \ud83d\ude8d"}, "geometry": {"type": "Point", "coordinates": [-0.96621, 44.637384]}}, {"type": "Feature", "properties": {"start": "Labouheyre", "stop_name": "Ychoux", "type": "Gare accessible", "transport": "carTER", "transport_legende": "\ud83d\udeb2 \ud83d\udc94 Car TER \ud83d\ude8d"}, "geometry": {"type": "Point", "coordinates": [-0.946335, 44.32927]}}, {"type": "Feature", "properties": {"start": "Labouheyre", "stop_name": "Morcenx", "type": "Gare accessible", "transport": "carTER", "transport_legende": "\ud83d\udeb2 \ud83d\udc94 Car TER \ud83d\ude8d"}, "geometry": {"type": "Point", "coordinates": [-0.90864, 44.033565]}}, {"type": "Feature", "properties": {"start": "Labouheyre", "stop_name": "Ygos", "type": "Gare accessible", "transport": "carTER", "transport_legende": "\ud83d\udeb2 \ud83d\udc94 Car TER \ud83d\ude8d"}, "geometry": {"type": "Point", "coordinates": [-0.736143, 43.978228]}}, {"type": "Feature", "properties": {"start": "Labouheyre", "stop_name": "Mont-de-Marsan", "type": "Gare accessible", "transport": "carTER", "transport_legende": "\ud83d\udeb2 \ud83d\udc94 Car TER \ud83d\ude8d"}, "geometry": {"type": "Point", "coordinates": [-0.50466, 43.884898]}}, {"type": "Feature", "properties": {"start": "Labouheyre", "stop_name": "Arengosse", "type": "Gare accessible", "transport": "carTER", "transport_legende": "\ud83d\udeb2 \ud83d\udc94 Car TER \ud83d\ude8d"}, "geometry": {"type": "Point", "coordinates": [-0.809053, 44.007044]}}, {"type": "Feature", "properties": {"start": "Labouheyre", "stop_name": "Saint-Martin-d'Oney", "type": "Gare accessible", "transport": "carTER", "transport_legende": "\ud83d\udeb2 \ud83d\udc94 Car TER \ud83d\ude8d"}, "geometry": {"type": "Point", "coordinates": [-0.651313, 43.930067]}}]}