{"type": "FeatureCollection", "features": [{"type": "Feature", "properties": {"start": "Lalinde", "stop_name": "Lalinde", "type": "Gare s\u00e9lectionn\u00e9e", "transport": "carTER", "transport_legende": "\ud83d\udeb2 \ud83d\udc94 Car TER \ud83d\ude8d"}, "geometry": {"type": "Point", "coordinates": [0.742806, 44.839602]}}, {"type": "Feature", "properties": {"start": "Lalinde", "stop_name": "Bergerac", "type": "Gare accessible", "transport": "carTER", "transport_legende": "\ud83d\udeb2 \ud83d\udc94 Car TER \ud83d\ude8d"}, "geometry": {"type": "Point", "coordinates": [0.489174, 44.857061]}}, {"type": "Feature", "properties": {"start": "Lalinde", "stop_name": "Le Buisson", "type": "Gare accessible", "transport": "carTER", "transport_legende": "\ud83d\udeb2 \ud83d\udc94 Car TER \ud83d\ude8d"}, "geometry": {"type": "Point", "coordinates": [0.90818, 44.847245]}}, {"type": "Feature", "properties": {"start": "Lalinde", "stop_name": "Siorac-en-P\u00e9rigord", "type": "Gare accessible", "transport": "carTER", "transport_legende": "\ud83d\udeb2 \ud83d\udc94 Car TER \ud83d\ude8d"}, "geometry": {"type": "Point", "coordinates": [0.984188, 44.819788]}}, {"type": "Feature", "properties": {"start": "Lalinde", "stop_name": "Saint-Cyprien", "type": "Gare accessible", "transport": "carTER", "transport_legende": "\ud83d\udeb2 \ud83d\udc94 Car TER \ud83d\ude8d"}, "geometry": {"type": "Point", "coordinates": [1.043574, 44.863407]}}, {"type": "Feature", "properties": {"start": "Lalinde", "stop_name": "Sarlat", "type": "Gare accessible", "transport": "carTER", "transport_legende": "\ud83d\udeb2 \ud83d\udc94 Car TER \ud83d\ude8d"}, "geometry": {"type": "Point", "coordinates": [1.220469, 44.877114]}}]}