{"type": "FeatureCollection", "features": [{"type": "Feature", "properties": {"start": "Loches Lyc\u00e9e Saint Denis", "stop_name": "Loches Lyc\u00e9e Saint Denis", "type": "Gare s\u00e9lectionn\u00e9e", "transport": "carTER", "transport_legende": "\ud83d\udeb2 \ud83d\udc94 Car TER \ud83d\ude8d"}, "geometry": {"type": "Point", "coordinates": [0.99172, 47.127224]}}, {"type": "Feature", "properties": {"start": "Loches Lyc\u00e9e Saint Denis", "stop_name": "Clion", "type": "Gare accessible", "transport": "carTER", "transport_legende": "\ud83d\udeb2 \ud83d\udc94 Car TER \ud83d\ude8d"}, "geometry": {"type": "Point", "coordinates": [1.238678, 46.945076]}}, {"type": "Feature", "properties": {"start": "Loches Lyc\u00e9e Saint Denis", "stop_name": "Chatillon - H\u00f4tel - Saint-Antoine", "type": "Gare accessible", "transport": "carTER", "transport_legende": "\ud83d\udeb2 \ud83d\udc94 Car TER \ud83d\ude8d"}, "geometry": {"type": "Point", "coordinates": [1.171825, 46.988208]}}, {"type": "Feature", "properties": {"start": "Loches Lyc\u00e9e Saint Denis", "stop_name": "Ch\u00e2tillon Place du Mail", "type": "Gare accessible", "transport": "carTER", "transport_legende": "\ud83d\udeb2 \ud83d\udc94 Car TER \ud83d\ude8d"}, "geometry": {"type": "Point", "coordinates": [1.17352, 46.987279]}}, {"type": "Feature", "properties": {"start": "Loches Lyc\u00e9e Saint Denis", "stop_name": "Fl\u00e9r\u00e9-la-Rivi\u00e8re Mairie", "type": "Gare accessible", "transport": "carTER", "transport_legende": "\ud83d\udeb2 \ud83d\udc94 Car TER \ud83d\ude8d"}, "geometry": {"type": "Point", "coordinates": [1.107253, 47.020852]}}, {"type": "Feature", "properties": {"start": "Loches Lyc\u00e9e Saint Denis", "stop_name": "Bridor\u00e9 Carrefour 943", "type": "Gare accessible", "transport": "carTER", "transport_legende": "\ud83d\udeb2 \ud83d\udc94 Car TER \ud83d\ude8d"}, "geometry": {"type": "Point", "coordinates": [1.095583, 47.033073]}}, {"type": "Feature", "properties": {"start": "Loches Lyc\u00e9e Saint Denis", "stop_name": "Bridor\u00e9 Saint Martin", "type": "Gare accessible", "transport": "carTER", "transport_legende": "\ud83d\udeb2 \ud83d\udc94 Car TER \ud83d\ude8d"}, "geometry": {"type": "Point", "coordinates": [1.081901, 47.026245]}}, {"type": "Feature", "properties": {"start": "Loches Lyc\u00e9e Saint Denis", "stop_name": "Verneuil-Laiterie", "type": "Gare accessible", "transport": "carTER", "transport_legende": "\ud83d\udeb2 \ud83d\udc94 Car TER \ud83d\ude8d"}, "geometry": {"type": "Point", "coordinates": [1.058378, 47.076386]}}, {"type": "Feature", "properties": {"start": "Loches Lyc\u00e9e Saint Denis", "stop_name": "Saint-Jean-Saint-Germain H\u00f4tel", "type": "Gare accessible", "transport": "carTER", "transport_legende": "\ud83d\udeb2 \ud83d\udc94 Car TER \ud83d\ude8d"}, "geometry": {"type": "Point", "coordinates": [1.035815, 47.082587]}}, {"type": "Feature", "properties": {"start": "Loches Lyc\u00e9e Saint Denis", "stop_name": "Perrusson", "type": "Gare accessible", "transport": "carTER", "transport_legende": "\ud83d\udeb2 \ud83d\udc94 Car TER \ud83d\ude8d"}, "geometry": {"type": "Point", "coordinates": [1.013618, 47.09947]}}, {"type": "Feature", "properties": {"start": "Loches Lyc\u00e9e Saint Denis", "stop_name": "Loches LEP", "type": "Gare accessible", "transport": "carTER", "transport_legende": "\ud83d\udeb2 \ud83d\udc94 Car TER \ud83d\ude8d"}, "geometry": {"type": "Point", "coordinates": [0.98131, 47.127564]}}, {"type": "Feature", "properties": {"start": "Loches Lyc\u00e9e Saint Denis", "stop_name": "Loches", "type": "Gare accessible", "transport": "carTER", "transport_legende": "\ud83d\udeb2 \ud83d\udc94 Car TER \ud83d\ude8d"}, "geometry": {"type": "Point", "coordinates": [1.000467, 47.130464]}}, {"type": "Feature", "properties": {"start": "Loches Lyc\u00e9e Saint Denis", "stop_name": "Buzan\u00e7ais Sapin Vert", "type": "Gare accessible", "transport": "carTER", "transport_legende": "\ud83d\udeb2 \ud83d\udc94 Car TER \ud83d\ude8d"}, "geometry": {"type": "Point", "coordinates": [1.430433, 46.887548]}}, {"type": "Feature", "properties": {"start": "Loches Lyc\u00e9e Saint Denis", "stop_name": "Buzan\u00e7ais", "type": "Gare accessible", "transport": "carTER", "transport_legende": "\ud83d\udeb2 \ud83d\udc94 Car TER \ud83d\ude8d"}, "geometry": {"type": "Point", "coordinates": [1.418776, 46.885237]}}, {"type": "Feature", "properties": {"start": "Loches Lyc\u00e9e Saint Denis", "stop_name": "Saint-Genou ZI", "type": "Gare accessible", "transport": "carTER", "transport_legende": "\ud83d\udeb2 \ud83d\udc94 Car TER \ud83d\ude8d"}, "geometry": {"type": "Point", "coordinates": [1.354204, 46.905033]}}, {"type": "Feature", "properties": {"start": "Loches Lyc\u00e9e Saint Denis", "stop_name": "Saint-Genou \u00c9cole", "type": "Gare accessible", "transport": "carTER", "transport_legende": "\ud83d\udeb2 \ud83d\udc94 Car TER \ud83d\ude8d"}, "geometry": {"type": "Point", "coordinates": [1.337993, 46.92748]}}, {"type": "Feature", "properties": {"start": "Loches Lyc\u00e9e Saint Denis", "stop_name": "Saint-Genou", "type": "Gare accessible", "transport": "carTER", "transport_legende": "\ud83d\udeb2 \ud83d\udc94 Car TER \ud83d\ude8d"}, "geometry": {"type": "Point", "coordinates": [1.327715, 46.929019]}}, {"type": "Feature", "properties": {"start": "Loches Lyc\u00e9e Saint Denis", "stop_name": "Palluau-Onzay", "type": "Gare accessible", "transport": "carTER", "transport_legende": "\ud83d\udeb2 \ud83d\udc94 Car TER \ud83d\ude8d"}, "geometry": {"type": "Point", "coordinates": [1.316452, 46.930752]}}, {"type": "Feature", "properties": {"start": "Loches Lyc\u00e9e Saint Denis", "stop_name": "Palluau Mairie", "type": "Gare accessible", "transport": "carTER", "transport_legende": "\ud83d\udeb2 \ud83d\udc94 Car TER \ud83d\ude8d"}, "geometry": {"type": "Point", "coordinates": [1.314752, 46.944183]}}, {"type": "Feature", "properties": {"start": "Loches Lyc\u00e9e Saint Denis", "stop_name": "Le Tranger", "type": "Gare accessible", "transport": "carTER", "transport_legende": "\ud83d\udeb2 \ud83d\udc94 Car TER \ud83d\ude8d"}, "geometry": {"type": "Point", "coordinates": [1.240304, 46.956683]}}]}