{"type": "FeatureCollection", "features": [{"type": "Feature", "properties": {"start": "Machecoul", "stop_name": "Machecoul", "type": "Gare s\u00e9lectionn\u00e9e", "transport": "carTER", "transport_legende": "\ud83d\udeb2 \ud83d\udc94 Car TER \ud83d\ude8d"}, "geometry": {"type": "Point", "coordinates": [-1.822647, 46.990587]}}, {"type": "Feature", "properties": {"start": "Machecoul", "stop_name": "Nantes", "type": "Gare accessible", "transport": "carTER", "transport_legende": "\ud83d\udeb2 \ud83d\udc94 Car TER \ud83d\ude8d"}, "geometry": {"type": "Point", "coordinates": [-1.542077, 47.217491]}}, {"type": "Feature", "properties": {"start": "Machecoul", "stop_name": "Sainte-Pazanne rue du Vigneau", "type": "Gare accessible", "transport": "carTER", "transport_legende": "\ud83d\udeb2 \ud83d\udc94 Car TER \ud83d\ude8d"}, "geometry": {"type": "Point", "coordinates": [-1.810864, 47.105861]}}, {"type": "Feature", "properties": {"start": "Machecoul", "stop_name": "Challans", "type": "Gare accessible", "transport": "carTER", "transport_legende": "\ud83d\udeb2 \ud83d\udc94 Car TER \ud83d\ude8d"}, "geometry": {"type": "Point", "coordinates": [-1.871814, 46.844148]}}, {"type": "Feature", "properties": {"start": "Machecoul", "stop_name": "Saint-Hilaire-De-Riez", "type": "Gare accessible", "transport": "carTER", "transport_legende": "\ud83d\udeb2 \ud83d\udc94 Car TER \ud83d\ude8d"}, "geometry": {"type": "Point", "coordinates": [-1.948609, 46.71676]}}, {"type": "Feature", "properties": {"start": "Machecoul", "stop_name": "Saint-Hilaire-de-Riez", "type": "Gare accessible", "transport": "carTER", "transport_legende": "\ud83d\udeb2 \ud83d\udc94 Car TER \ud83d\ude8d"}, "geometry": {"type": "Point", "coordinates": [-1.949617, 46.716629]}}, {"type": "Feature", "properties": {"start": "Machecoul", "stop_name": "Saint-Gilles-Croix-de-Vie", "type": "Gare accessible", "transport": "carTER", "transport_legende": "\ud83d\udeb2 \ud83d\udc94 Car TER \ud83d\ude8d"}, "geometry": {"type": "Point", "coordinates": [-1.941252, 46.696347]}}, {"type": "Feature", "properties": {"start": "Machecoul", "stop_name": "Nantes Pirmil", "type": "Gare accessible", "transport": "carTER", "transport_legende": "\ud83d\udeb2 \ud83d\udc94 Car TER \ud83d\ude8d"}, "geometry": {"type": "Point", "coordinates": [-1.543024, 47.196728]}}, {"type": "Feature", "properties": {"start": "Machecoul", "stop_name": "Saint-Jean-de-Monts", "type": "Gare accessible", "transport": "carTER", "transport_legende": "\ud83d\udeb2 \ud83d\udc94 Car TER \ud83d\ude8d"}, "geometry": {"type": "Point", "coordinates": [-2.059677, 46.790343]}}, {"type": "Feature", "properties": {"start": "Machecoul", "stop_name": "Le Perrier", "type": "Gare accessible", "transport": "carTER", "transport_legende": "\ud83d\udeb2 \ud83d\udc94 Car TER \ud83d\ude8d"}, "geometry": {"type": "Point", "coordinates": [-1.994346, 46.818439]}}, {"type": "Feature", "properties": {"start": "Machecoul", "stop_name": "St-Jean-de-Monts Odyss\u00e9a-Cong.", "type": "Gare accessible", "transport": "carTER", "transport_legende": "\ud83d\udeb2 \ud83d\udc94 Car TER \ud83d\ude8d"}, "geometry": {"type": "Point", "coordinates": [-2.06787, 46.781606]}}, {"type": "Feature", "properties": {"start": "Machecoul", "stop_name": "Saint-Jean-de-Monts Esplanade", "type": "Gare accessible", "transport": "carTER", "transport_legende": "\ud83d\udeb2 \ud83d\udc94 Car TER \ud83d\ude8d"}, "geometry": {"type": "Point", "coordinates": [-2.075145, 46.784847]}}]}