{"type": "FeatureCollection", "features": [{"type": "Feature", "properties": {"start": "Molinges", "stop_name": "Molinges", "type": "Gare s\u00e9lectionn\u00e9e", "transport": "carTER", "transport_legende": "\ud83d\udeb2 \ud83d\udc94 Car TER \ud83d\ude8d"}, "geometry": {"type": "Point", "coordinates": [5.768117, 46.357103]}}, {"type": "Feature", "properties": {"start": "Molinges", "stop_name": "Lyon-Part-Dieu Gare Routi\u00e8re", "type": "Gare accessible", "transport": "carTER", "transport_legende": "\ud83d\udeb2 \ud83d\udc94 Car TER \ud83d\ude8d"}, "geometry": {"type": "Point", "coordinates": [4.862984, 45.761064]}}, {"type": "Feature", "properties": {"start": "Molinges", "stop_name": "Brion - Montr\u00e9al-la-Cluse Gare", "type": "Gare accessible", "transport": "carTER", "transport_legende": "\ud83d\udeb2 \ud83d\udc94 Car TER \ud83d\ude8d"}, "geometry": {"type": "Point", "coordinates": [5.558513, 46.175774]}}, {"type": "Feature", "properties": {"start": "Molinges", "stop_name": "Bellignat - Lyc\u00e9e-Arbez-Carme", "type": "Gare accessible", "transport": "carTER", "transport_legende": "\ud83d\udeb2 \ud83d\udc94 Car TER \ud83d\ude8d"}, "geometry": {"type": "Point", "coordinates": [5.63221, 46.248547]}}, {"type": "Feature", "properties": {"start": "Molinges", "stop_name": "Oyonnax", "type": "Gare accessible", "transport": "carTER", "transport_legende": "\ud83d\udeb2 \ud83d\udc94 Car TER \ud83d\ude8d"}, "geometry": {"type": "Point", "coordinates": [5.653281, 46.259671]}}, {"type": "Feature", "properties": {"start": "Molinges", "stop_name": "Saint-Claude", "type": "Gare accessible", "transport": "carTER", "transport_legende": "\ud83d\udeb2 \ud83d\udc94 Car TER \ud83d\ude8d"}, "geometry": {"type": "Point", "coordinates": [5.860345, 46.389964]}}, {"type": "Feature", "properties": {"start": "Molinges", "stop_name": "Morez", "type": "Gare accessible", "transport": "carTER", "transport_legende": "\ud83d\udeb2 \ud83d\udc94 Car TER \ud83d\ude8d"}, "geometry": {"type": "Point", "coordinates": [6.023531, 46.526236]}}, {"type": "Feature", "properties": {"start": "Molinges", "stop_name": "Morez Lyc\u00e9e", "type": "Gare accessible", "transport": "carTER", "transport_legende": "\ud83d\udeb2 \ud83d\udc94 Car TER \ud83d\ude8d"}, "geometry": {"type": "Point", "coordinates": [6.025622, 46.517289]}}, {"type": "Feature", "properties": {"start": "Molinges", "stop_name": "DORTAN Mairie", "type": "Gare accessible", "transport": "carTER", "transport_legende": "\ud83d\udeb2 \ud83d\udc94 Car TER \ud83d\ude8d"}, "geometry": {"type": "Point", "coordinates": [5.659685, 46.318818]}}, {"type": "Feature", "properties": {"start": "Molinges", "stop_name": "Bellignat-Mairie", "type": "Gare accessible", "transport": "carTER", "transport_legende": "\ud83d\udeb2 \ud83d\udc94 Car TER \ud83d\ude8d"}, "geometry": {"type": "Point", "coordinates": [5.629689, 46.24246]}}, {"type": "Feature", "properties": {"start": "Molinges", "stop_name": "Martignat", "type": "Gare accessible", "transport": "carTER", "transport_legende": "\ud83d\udeb2 \ud83d\udc94 Car TER \ud83d\ude8d"}, "geometry": {"type": "Point", "coordinates": [5.610731, 46.209166]}}, {"type": "Feature", "properties": {"start": "Molinges", "stop_name": "Montr\u00e9al-la-Cluse", "type": "Gare accessible", "transport": "carTER", "transport_legende": "\ud83d\udeb2 \ud83d\udc94 Car TER \ud83d\ude8d"}, "geometry": {"type": "Point", "coordinates": [5.576972, 46.184733]}}, {"type": "Feature", "properties": {"start": "Molinges", "stop_name": "MONTREAL La Cluse Ville", "type": "Gare accessible", "transport": "carTER", "transport_legende": "\ud83d\udeb2 \ud83d\udc94 Car TER \ud83d\ude8d"}, "geometry": {"type": "Point", "coordinates": [5.573158, 46.171287]}}, {"type": "Feature", "properties": {"start": "Molinges", "stop_name": "Nantua Esplanade", "type": "Gare accessible", "transport": "carTER", "transport_legende": "\ud83d\udeb2 \ud83d\udc94 Car TER \ud83d\ude8d"}, "geometry": {"type": "Point", "coordinates": [5.603607, 46.156179]}}, {"type": "Feature", "properties": {"start": "Molinges", "stop_name": "Nantua M\u00e9diath\u00e8que", "type": "Gare accessible", "transport": "carTER", "transport_legende": "\ud83d\udeb2 \ud83d\udc94 Car TER \ud83d\ude8d"}, "geometry": {"type": "Point", "coordinates": [5.603886, 46.151193]}}]}