{"type": "FeatureCollection", "features": [{"type": "Feature", "properties": {"start": "Montelimar Gare Routi\u00e8re", "stop_name": "Montelimar Gare Routi\u00e8re", "type": "Gare s\u00e9lectionn\u00e9e", "transport": "carTER", "nombre_trajet_moyen": 3.99, "transport_legende": "\ud83d\udeb2 \ud83d\udc94 Car TER \ud83d\ude8d"}, "geometry": {"type": "Point", "coordinates": [4.745107, 44.559439]}}, {"type": "Feature", "properties": {"start": "Montelimar Gare Routi\u00e8re", "stop_name": "Grenoble", "type": "Gare accessible", "transport": "carTER", "nombre_trajet_moyen": 0.35, "transport_legende": "\ud83d\udeb2 \ud83d\udc94 Car TER \ud83d\ude8d"}, "geometry": {"type": "Point", "coordinates": [5.714366, 45.192693]}}, {"type": "Feature", "properties": {"start": "Montelimar Gare Routi\u00e8re", "stop_name": "Valence TGV Rh\u00f4ne-Alpes Sud", "type": "Gare accessible", "transport": "carTER", "nombre_trajet_moyen": 1.69, "transport_legende": "\ud83d\udeb2 \ud83d\udc94 Car TER \ud83d\ude8d"}, "geometry": {"type": "Point", "coordinates": [4.978652, 44.991907]}}, {"type": "Feature", "properties": {"start": "Montelimar Gare Routi\u00e8re", "stop_name": "Aubenas Place de la Paix", "type": "Gare accessible", "transport": "carTER", "nombre_trajet_moyen": 3.55, "transport_legende": "\ud83d\udeb2 \ud83d\udc94 Car TER \ud83d\ude8d"}, "geometry": {"type": "Point", "coordinates": [4.38922, 44.618129]}}, {"type": "Feature", "properties": {"start": "Montelimar Gare Routi\u00e8re", "stop_name": "Aubenas Gare Routi\u00e8re", "type": "Gare accessible", "transport": "carTER", "nombre_trajet_moyen": 3.55, "transport_legende": "\ud83d\udeb2 \ud83d\udc94 Car TER \ud83d\ude8d"}, "geometry": {"type": "Point", "coordinates": [4.407164, 44.61095]}}, {"type": "Feature", "properties": {"start": "Montelimar Gare Routi\u00e8re", "stop_name": "Lavilledieu Centre", "type": "Gare accessible", "transport": "carTER", "nombre_trajet_moyen": 3.55, "transport_legende": "\ud83d\udeb2 \ud83d\udc94 Car TER \ud83d\ude8d"}, "geometry": {"type": "Point", "coordinates": [4.455409, 44.574187]}}, {"type": "Feature", "properties": {"start": "Montelimar Gare Routi\u00e8re", "stop_name": "Villeneuve-de-Berg-Centre", "type": "Gare accessible", "transport": "carTER", "nombre_trajet_moyen": 3.55, "transport_legende": "\ud83d\udeb2 \ud83d\udc94 Car TER \ud83d\ude8d"}, "geometry": {"type": "Point", "coordinates": [4.498102, 44.554919]}}, {"type": "Feature", "properties": {"start": "Montelimar Gare Routi\u00e8re", "stop_name": "Saint-Jean-le-Centenier Centre", "type": "Gare accessible", "transport": "carTER", "nombre_trajet_moyen": 3.73, "transport_legende": "\ud83d\udeb2 \ud83d\udc94 Car TER \ud83d\ude8d"}, "geometry": {"type": "Point", "coordinates": [4.536514, 44.58959]}}, {"type": "Feature", "properties": {"start": "Montelimar Gare Routi\u00e8re", "stop_name": "Alba-la-Romaine Ruines Romaines", "type": "Gare accessible", "transport": "carTER", "nombre_trajet_moyen": 3.55, "transport_legende": "\ud83d\udeb2 \ud83d\udc94 Car TER \ud83d\ude8d"}, "geometry": {"type": "Point", "coordinates": [4.587551, 44.570312]}}, {"type": "Feature", "properties": {"start": "Montelimar Gare Routi\u00e8re", "stop_name": "Le Teil Sablons", "type": "Gare accessible", "transport": "carTER", "nombre_trajet_moyen": 3.73, "transport_legende": "\ud83d\udeb2 \ud83d\udc94 Car TER \ud83d\ude8d"}, "geometry": {"type": "Point", "coordinates": [4.685618, 44.5527]}}, {"type": "Feature", "properties": {"start": "Montelimar Gare Routi\u00e8re", "stop_name": "Grenoble-Champollion", "type": "Gare accessible", "transport": "carTER", "nombre_trajet_moyen": 0.13, "transport_legende": "\ud83d\udeb2 \ud83d\udc94 Car TER \ud83d\ude8d"}, "geometry": {"type": "Point", "coordinates": [5.725304, 45.186336]}}, {"type": "Feature", "properties": {"start": "Montelimar Gare Routi\u00e8re", "stop_name": "Saint-Martin-d'H\u00e8res", "type": "Gare accessible", "transport": "carTER", "nombre_trajet_moyen": 0.13, "transport_legende": "\ud83d\udeb2 \ud83d\udc94 Car TER \ud83d\ude8d"}, "geometry": {"type": "Point", "coordinates": [5.768919, 45.193022]}}, {"type": "Feature", "properties": {"start": "Montelimar Gare Routi\u00e8re", "stop_name": "Nyons Office de Tourisme", "type": "Gare accessible", "transport": "carTER", "nombre_trajet_moyen": 1.98, "transport_legende": "\ud83d\udeb2 \ud83d\udc94 Car TER \ud83d\ude8d"}, "geometry": {"type": "Point", "coordinates": [5.138667, 44.36029]}}, {"type": "Feature", "properties": {"start": "Montelimar Gare Routi\u00e8re", "stop_name": "Nyons Cave Coop\u00e9rative", "type": "Gare accessible", "transport": "carTER", "nombre_trajet_moyen": 1.98, "transport_legende": "\ud83d\udeb2 \ud83d\udc94 Car TER \ud83d\ude8d"}, "geometry": {"type": "Point", "coordinates": [5.139978, 44.360431]}}, {"type": "Feature", "properties": {"start": "Montelimar Gare Routi\u00e8re", "stop_name": "Venterol Gare", "type": "Gare accessible", "transport": "carTER", "nombre_trajet_moyen": 1.98, "transport_legende": "\ud83d\udeb2 \ud83d\udc94 Car TER \ud83d\ude8d"}, "geometry": {"type": "Point", "coordinates": [5.084841, 44.395462]}}, {"type": "Feature", "properties": {"start": "Montelimar Gare Routi\u00e8re", "stop_name": "ST-PANTALEON RD 541", "type": "Gare accessible", "transport": "carTER", "nombre_trajet_moyen": 1.98, "transport_legende": "\ud83d\udeb2 \ud83d\udc94 Car TER \ud83d\ude8d"}, "geometry": {"type": "Point", "coordinates": [5.043787, 44.39878]}}, {"type": "Feature", "properties": {"start": "Montelimar Gare Routi\u00e8re", "stop_name": "Valr\u00e9as", "type": "Gare accessible", "transport": "carTER", "nombre_trajet_moyen": 1.98, "transport_legende": "\ud83d\udeb2 \ud83d\udc94 Car TER \ud83d\ude8d"}, "geometry": {"type": "Point", "coordinates": [4.991293, 44.387429]}}, {"type": "Feature", "properties": {"start": "Montelimar Gare Routi\u00e8re", "stop_name": "Taulignan", "type": "Gare accessible", "transport": "carTER", "nombre_trajet_moyen": 1.98, "transport_legende": "\ud83d\udeb2 \ud83d\udc94 Car TER \ud83d\ude8d"}, "geometry": {"type": "Point", "coordinates": [4.979172, 44.444046]}}, {"type": "Feature", "properties": {"start": "Montelimar Gare Routi\u00e8re", "stop_name": "Grignan Avenue Chapon", "type": "Gare accessible", "transport": "carTER", "nombre_trajet_moyen": 1.98, "transport_legende": "\ud83d\udeb2 \ud83d\udc94 Car TER \ud83d\ude8d"}, "geometry": {"type": "Point", "coordinates": [4.904221, 44.418827]}}, {"type": "Feature", "properties": {"start": "Montelimar Gare Routi\u00e8re", "stop_name": "Valaurie", "type": "Gare accessible", "transport": "carTER", "nombre_trajet_moyen": 1.98, "transport_legende": "\ud83d\udeb2 \ud83d\udc94 Car TER \ud83d\ude8d"}, "geometry": {"type": "Point", "coordinates": [4.816421, 44.421046]}}, {"type": "Feature", "properties": {"start": "Montelimar Gare Routi\u00e8re", "stop_name": "Allan Menuiserie", "type": "Gare accessible", "transport": "carTER", "nombre_trajet_moyen": 1.98, "transport_legende": "\ud83d\udeb2 \ud83d\udc94 Car TER \ud83d\ude8d"}, "geometry": {"type": "Point", "coordinates": [4.76171, 44.480354]}}, {"type": "Feature", "properties": {"start": "Montelimar Gare Routi\u00e8re", "stop_name": "Saint-Didier-sous-Aubenas Centre", "type": "Gare accessible", "transport": "carTER", "nombre_trajet_moyen": 3.32, "transport_legende": "\ud83d\udeb2 \ud83d\udc94 Car TER \ud83d\ude8d"}, "geometry": {"type": "Point", "coordinates": [4.415037, 44.607465]}}, {"type": "Feature", "properties": {"start": "Montelimar Gare Routi\u00e8re", "stop_name": "Lavilledieu ZA les Pers\u00e8des", "type": "Gare accessible", "transport": "carTER", "nombre_trajet_moyen": 3.32, "transport_legende": "\ud83d\udeb2 \ud83d\udc94 Car TER \ud83d\ude8d"}, "geometry": {"type": "Point", "coordinates": [4.442271, 44.590585]}}, {"type": "Feature", "properties": {"start": "Montelimar Gare Routi\u00e8re", "stop_name": "Villeneuve-de-Berg les Pommiers", "type": "Gare accessible", "transport": "carTER", "nombre_trajet_moyen": 3.49, "transport_legende": "\ud83d\udeb2 \ud83d\udc94 Car TER \ud83d\ude8d"}, "geometry": {"type": "Point", "coordinates": [4.511974, 44.573073]}}, {"type": "Feature", "properties": {"start": "Montelimar Gare Routi\u00e8re", "stop_name": "Les Vans Centre", "type": "Gare accessible", "transport": "carTER", "nombre_trajet_moyen": 1.0, "transport_legende": "\ud83d\udeb2 \ud83d\udc94 Car TER \ud83d\ude8d"}, "geometry": {"type": "Point", "coordinates": [4.128448, 44.405289]}}, {"type": "Feature", "properties": {"start": "Montelimar Gare Routi\u00e8re", "stop_name": "Lablach\u00e8re centre", "type": "Gare accessible", "transport": "carTER", "nombre_trajet_moyen": 1.0, "transport_legende": "\ud83d\udeb2 \ud83d\udc94 Car TER \ud83d\ude8d"}, "geometry": {"type": "Point", "coordinates": [4.214952, 44.463545]}}, {"type": "Feature", "properties": {"start": "Montelimar Gare Routi\u00e8re", "stop_name": "Joyeuse", "type": "Gare accessible", "transport": "carTER", "nombre_trajet_moyen": 1.0, "transport_legende": "\ud83d\udeb2 \ud83d\udc94 Car TER \ud83d\ude8d"}, "geometry": {"type": "Point", "coordinates": [4.242842, 44.479745]}}, {"type": "Feature", "properties": {"start": "Montelimar Gare Routi\u00e8re", "stop_name": "Rosi\u00e8res Centre", "type": "Gare accessible", "transport": "carTER", "nombre_trajet_moyen": 1.0, "transport_legende": "\ud83d\udeb2 \ud83d\udc94 Car TER \ud83d\ude8d"}, "geometry": {"type": "Point", "coordinates": [4.258082, 44.484187]}}, {"type": "Feature", "properties": {"start": "Montelimar Gare Routi\u00e8re", "stop_name": "Largenti\u00e8re Les Vergnades", "type": "Gare accessible", "transport": "carTER", "nombre_trajet_moyen": 1.0, "transport_legende": "\ud83d\udeb2 \ud83d\udc94 Car TER \ud83d\ude8d"}, "geometry": {"type": "Point", "coordinates": [4.292489, 44.538366]}}, {"type": "Feature", "properties": {"start": "Montelimar Gare Routi\u00e8re", "stop_name": "Uzer-Centre", "type": "Gare accessible", "transport": "carTER", "nombre_trajet_moyen": 1.0, "transport_legende": "\ud83d\udeb2 \ud83d\udc94 Car TER \ud83d\ude8d"}, "geometry": {"type": "Point", "coordinates": [4.327638, 44.52048]}}, {"type": "Feature", "properties": {"start": "Montelimar Gare Routi\u00e8re", "stop_name": "Lachapelle-sous-Aubenas", "type": "Gare accessible", "transport": "carTER", "nombre_trajet_moyen": 1.0, "transport_legende": "\ud83d\udeb2 \ud83d\udc94 Car TER \ud83d\ude8d"}, "geometry": {"type": "Point", "coordinates": [4.363361, 44.564182]}}, {"type": "Feature", "properties": {"start": "Montelimar Gare Routi\u00e8re", "stop_name": "Saint-\u00c9tienne-de-Fontbellon D", "type": "Gare accessible", "transport": "carTER", "nombre_trajet_moyen": 1.0, "transport_legende": "\ud83d\udeb2 \ud83d\udc94 Car TER \ud83d\ude8d"}, "geometry": {"type": "Point", "coordinates": [4.387158, 44.603071]}}, {"type": "Feature", "properties": {"start": "Montelimar Gare Routi\u00e8re", "stop_name": "Vallon-Pont-d'Arc Gare Routi\u00e8re", "type": "Gare accessible", "transport": "carTER", "nombre_trajet_moyen": 1.27, "transport_legende": "\ud83d\udeb2 \ud83d\udc94 Car TER \ud83d\ude8d"}, "geometry": {"type": "Point", "coordinates": [4.390293, 44.405646]}}, {"type": "Feature", "properties": {"start": "Montelimar Gare Routi\u00e8re", "stop_name": "Sampzon Le Pont", "type": "Gare accessible", "transport": "carTER", "nombre_trajet_moyen": 1.27, "transport_legende": "\ud83d\udeb2 \ud83d\udc94 Car TER \ud83d\ude8d"}, "geometry": {"type": "Point", "coordinates": [4.357945, 44.429476]}}, {"type": "Feature", "properties": {"start": "Montelimar Gare Routi\u00e8re", "stop_name": "Ruoms D\u00e9viation", "type": "Gare accessible", "transport": "carTER", "nombre_trajet_moyen": 1.27, "transport_legende": "\ud83d\udeb2 \ud83d\udc94 Car TER \ud83d\ude8d"}, "geometry": {"type": "Point", "coordinates": [4.343408, 44.451769]}}, {"type": "Feature", "properties": {"start": "Montelimar Gare Routi\u00e8re", "stop_name": "Pradons Centre", "type": "Gare accessible", "transport": "carTER", "nombre_trajet_moyen": 1.27, "transport_legende": "\ud83d\udeb2 \ud83d\udc94 Car TER \ud83d\ude8d"}, "geometry": {"type": "Point", "coordinates": [4.358646, 44.474277]}}, {"type": "Feature", "properties": {"start": "Montelimar Gare Routi\u00e8re", "stop_name": "Balazuc RD579", "type": "Gare accessible", "transport": "carTER", "nombre_trajet_moyen": 1.27, "transport_legende": "\ud83d\udeb2 \ud83d\udc94 Car TER \ud83d\ude8d"}, "geometry": {"type": "Point", "coordinates": [4.386705, 44.502509]}}, {"type": "Feature", "properties": {"start": "Montelimar Gare Routi\u00e8re", "stop_name": "VOGUE Bausson", "type": "Gare accessible", "transport": "carTER", "nombre_trajet_moyen": 1.27, "transport_legende": "\ud83d\udeb2 \ud83d\udc94 Car TER \ud83d\ude8d"}, "geometry": {"type": "Point", "coordinates": [4.41726, 44.53941]}}]}