{"type": "FeatureCollection", "features": [{"type": "Feature", "properties": {"start": "Mor\u00e9e Centre", "stop_name": "Mor\u00e9e Centre", "type": "Gare s\u00e9lectionn\u00e9e", "transport": "carTER", "transport_legende": "\ud83d\udeb2 \ud83d\udc94 Car TER \ud83d\ude8d"}, "geometry": {"type": "Point", "coordinates": [1.234953, 47.902185]}}, {"type": "Feature", "properties": {"start": "Mor\u00e9e Centre", "stop_name": "Vend\u00f4me", "type": "Gare accessible", "transport": "carTER", "transport_legende": "\ud83d\udeb2 \ud83d\udc94 Car TER \ud83d\ude8d"}, "geometry": {"type": "Point", "coordinates": [1.068219, 47.801959]}}, {"type": "Feature", "properties": {"start": "Mor\u00e9e Centre", "stop_name": "Pezou", "type": "Gare accessible", "transport": "carTER", "transport_legende": "\ud83d\udeb2 \ud83d\udc94 Car TER \ud83d\ude8d"}, "geometry": {"type": "Point", "coordinates": [1.140958, 47.867153]}}, {"type": "Feature", "properties": {"start": "Mor\u00e9e Centre", "stop_name": "Fr\u00e9teval - Mor\u00e9e", "type": "Gare accessible", "transport": "carTER", "transport_legende": "\ud83d\udeb2 \ud83d\udc94 Car TER \ud83d\ude8d"}, "geometry": {"type": "Point", "coordinates": [1.211921, 47.891842]}}, {"type": "Feature", "properties": {"start": "Mor\u00e9e Centre", "stop_name": "Saint-Hilaire-la-Gravelle", "type": "Gare accessible", "transport": "carTER", "transport_legende": "\ud83d\udeb2 \ud83d\udc94 Car TER \ud83d\ude8d"}, "geometry": {"type": "Point", "coordinates": [1.207182, 47.924465]}}, {"type": "Feature", "properties": {"start": "Mor\u00e9e Centre", "stop_name": "CLOYES M\u00e9diath\u00e8que", "type": "Gare accessible", "transport": "carTER", "transport_legende": "\ud83d\udeb2 \ud83d\udc94 Car TER \ud83d\ude8d"}, "geometry": {"type": "Point", "coordinates": [1.236061, 47.995164]}}, {"type": "Feature", "properties": {"start": "Mor\u00e9e Centre", "stop_name": "Cloyes", "type": "Gare accessible", "transport": "carTER", "transport_legende": "\ud83d\udeb2 \ud83d\udc94 Car TER \ud83d\ude8d"}, "geometry": {"type": "Point", "coordinates": [1.243354, 47.992103]}}, {"type": "Feature", "properties": {"start": "Mor\u00e9e Centre", "stop_name": "Ch\u00e2teaudun", "type": "Gare accessible", "transport": "carTER", "transport_legende": "\ud83d\udeb2 \ud83d\udc94 Car TER \ud83d\ude8d"}, "geometry": {"type": "Point", "coordinates": [1.338114, 48.073409]}}, {"type": "Feature", "properties": {"start": "Mor\u00e9e Centre", "stop_name": "Tours", "type": "Gare accessible", "transport": "carTER", "transport_legende": "\ud83d\udeb2 \ud83d\udc94 Car TER \ud83d\ude8d"}, "geometry": {"type": "Point", "coordinates": [0.692831, 47.389866]}}, {"type": "Feature", "properties": {"start": "Mor\u00e9e Centre", "stop_name": "Monnaie Jean-Baptiste Moreau", "type": "Gare accessible", "transport": "carTER", "transport_legende": "\ud83d\udeb2 \ud83d\udc94 Car TER \ud83d\ude8d"}, "geometry": {"type": "Point", "coordinates": [0.79079, 47.502397]}}, {"type": "Feature", "properties": {"start": "Mor\u00e9e Centre", "stop_name": "Monnaie-Gendarmerie", "type": "Gare accessible", "transport": "carTER", "transport_legende": "\ud83d\udeb2 \ud83d\udc94 Car TER \ud83d\ude8d"}, "geometry": {"type": "Point", "coordinates": [0.79402, 47.504091]}}, {"type": "Feature", "properties": {"start": "Mor\u00e9e Centre", "stop_name": "Ch\u00e2teau-Renault", "type": "Gare accessible", "transport": "carTER", "transport_legende": "\ud83d\udeb2 \ud83d\udc94 Car TER \ud83d\ude8d"}, "geometry": {"type": "Point", "coordinates": [0.901524, 47.587796]}}]}