{"type": "FeatureCollection", "features": [{"type": "Feature", "properties": {"start": "Mo\u00fbtiers-Salins-Brides-les-B.", "stop_name": "Mo\u00fbtiers-Salins-Brides-les-B.", "type": "Gare s\u00e9lectionn\u00e9e", "transport": "carTER", "transport_legende": "\ud83d\udeb2 \ud83d\udc94 Car TER \ud83d\ude8d"}, "geometry": {"type": "Point", "coordinates": [6.531399, 45.48647]}}, {"type": "Feature", "properties": {"start": "Mo\u00fbtiers-Salins-Brides-les-B.", "stop_name": "Grenoble", "type": "Gare accessible", "transport": "carTER", "transport_legende": "\ud83d\udeb2 \ud83d\udc94 Car TER \ud83d\ude8d"}, "geometry": {"type": "Point", "coordinates": [5.714366, 45.192693]}}, {"type": "Feature", "properties": {"start": "Mo\u00fbtiers-Salins-Brides-les-B.", "stop_name": "Montm\u00e9lian", "type": "Gare accessible", "transport": "carTER", "transport_legende": "\ud83d\udeb2 \ud83d\udc94 Car TER \ud83d\ude8d"}, "geometry": {"type": "Point", "coordinates": [6.043175, 45.503082]}}, {"type": "Feature", "properties": {"start": "Mo\u00fbtiers-Salins-Brides-les-B.", "stop_name": "Albertville", "type": "Gare accessible", "transport": "carTER", "transport_legende": "\ud83d\udeb2 \ud83d\udc94 Car TER \ud83d\ude8d"}, "geometry": {"type": "Point", "coordinates": [6.383167, 45.672977]}}, {"type": "Feature", "properties": {"start": "Mo\u00fbtiers-Salins-Brides-les-B.", "stop_name": "Bourg-Saint-Maurice", "type": "Gare accessible", "transport": "carTER", "transport_legende": "\ud83d\udeb2 \ud83d\udc94 Car TER \ud83d\ude8d"}, "geometry": {"type": "Point", "coordinates": [6.771273, 45.619036]}}, {"type": "Feature", "properties": {"start": "Mo\u00fbtiers-Salins-Brides-les-B.", "stop_name": "Aime - La Plagne", "type": "Gare accessible", "transport": "carTER", "transport_legende": "\ud83d\udeb2 \ud83d\udc94 Car TER \ud83d\ude8d"}, "geometry": {"type": "Point", "coordinates": [6.648614, 45.554387]}}, {"type": "Feature", "properties": {"start": "Mo\u00fbtiers-Salins-Brides-les-B.", "stop_name": "Saint-Martin-d'H\u00e8res", "type": "Gare accessible", "transport": "carTER", "transport_legende": "\ud83d\udeb2 \ud83d\udc94 Car TER \ud83d\ude8d"}, "geometry": {"type": "Point", "coordinates": [5.768919, 45.193022]}}, {"type": "Feature", "properties": {"start": "Mo\u00fbtiers-Salins-Brides-les-B.", "stop_name": "Grenoble-Eug\u00e8ne-Chavant", "type": "Gare accessible", "transport": "carTER", "transport_legende": "\ud83d\udeb2 \ud83d\udc94 Car TER \ud83d\ude8d"}, "geometry": {"type": "Point", "coordinates": [5.724751, 45.172844]}}, {"type": "Feature", "properties": {"start": "Mo\u00fbtiers-Salins-Brides-les-B.", "stop_name": "Grenoble-Victor-Hugo", "type": "Gare accessible", "transport": "carTER", "transport_legende": "\ud83d\udeb2 \ud83d\udc94 Car TER \ud83d\ude8d"}, "geometry": {"type": "Point", "coordinates": [5.724939, 45.188405]}}]}