{"type": "FeatureCollection", "features": [{"type": "Feature", "properties": {"start": "Paray-le-Monial", "stop_name": "Paray-le-Monial", "type": "Gare s\u00e9lectionn\u00e9e", "transport": "carTER", "transport_legende": "\ud83d\udeb2 \ud83d\udc94 Car TER \ud83d\ude8d"}, "geometry": {"type": "Point", "coordinates": [4.113666, 46.447294]}}, {"type": "Feature", "properties": {"start": "Paray-le-Monial", "stop_name": "Moulins sur Allier", "type": "Gare accessible", "transport": "carTER", "transport_legende": "\ud83d\udeb2 \ud83d\udc94 Car TER \ud83d\ude8d"}, "geometry": {"type": "Point", "coordinates": [3.338782, 46.561394]}}, {"type": "Feature", "properties": {"start": "Paray-le-Monial", "stop_name": "Montbeugny Centre", "type": "Gare accessible", "transport": "carTER", "transport_legende": "\ud83d\udeb2 \ud83d\udc94 Car TER \ud83d\ude8d"}, "geometry": {"type": "Point", "coordinates": [3.488653, 46.528502]}}, {"type": "Feature", "properties": {"start": "Paray-le-Monial", "stop_name": "Thiel-sur-Acolin abris-bus", "type": "Gare accessible", "transport": "carTER", "transport_legende": "\ud83d\udeb2 \ud83d\udc94 Car TER \ud83d\ude8d"}, "geometry": {"type": "Point", "coordinates": [3.579035, 46.524233]}}, {"type": "Feature", "properties": {"start": "Paray-le-Monial", "stop_name": "Dompierre Sept Fons", "type": "Gare accessible", "transport": "carTER", "transport_legende": "\ud83d\udeb2 \ud83d\udc94 Car TER \ud83d\ude8d"}, "geometry": {"type": "Point", "coordinates": [3.674911, 46.526302]}}, {"type": "Feature", "properties": {"start": "Paray-le-Monial", "stop_name": "Diou Ville Bus", "type": "Gare accessible", "transport": "carTER", "transport_legende": "\ud83d\udeb2 \ud83d\udc94 Car TER \ud83d\ude8d"}, "geometry": {"type": "Point", "coordinates": [3.747953, 46.533357]}}, {"type": "Feature", "properties": {"start": "Paray-le-Monial", "stop_name": "Gilly-sur-Loire", "type": "Gare accessible", "transport": "carTER", "transport_legende": "\ud83d\udeb2 \ud83d\udc94 Car TER \ud83d\ude8d"}, "geometry": {"type": "Point", "coordinates": [3.782111, 46.536992]}}, {"type": "Feature", "properties": {"start": "Paray-le-Monial", "stop_name": "Perrigny-sur-Loire", "type": "Gare accessible", "transport": "carTER", "transport_legende": "\ud83d\udeb2 \ud83d\udc94 Car TER \ud83d\ude8d"}, "geometry": {"type": "Point", "coordinates": [3.846146, 46.530569]}}, {"type": "Feature", "properties": {"start": "Paray-le-Monial", "stop_name": "Saint-Agnan", "type": "Gare accessible", "transport": "carTER", "transport_legende": "\ud83d\udeb2 \ud83d\udc94 Car TER \ud83d\ude8d"}, "geometry": {"type": "Point", "coordinates": [3.878938, 46.502031]}}, {"type": "Feature", "properties": {"start": "Paray-le-Monial", "stop_name": "Digoin", "type": "Gare accessible", "transport": "carTER", "transport_legende": "\ud83d\udeb2 \ud83d\udc94 Car TER \ud83d\ude8d"}, "geometry": {"type": "Point", "coordinates": [3.987678, 46.485191]}}, {"type": "Feature", "properties": {"start": "Paray-le-Monial", "stop_name": "Chauffailles Gambetta", "type": "Gare accessible", "transport": "carTER", "transport_legende": "\ud83d\udeb2 \ud83d\udc94 Car TER \ud83d\ude8d"}, "geometry": {"type": "Point", "coordinates": [4.336512, 46.206915]}}, {"type": "Feature", "properties": {"start": "Paray-le-Monial", "stop_name": "La Chapelle-sous-Dun", "type": "Gare accessible", "transport": "carTER", "transport_legende": "\ud83d\udeb2 \ud83d\udc94 Car TER \ud83d\ude8d"}, "geometry": {"type": "Point", "coordinates": [4.293466, 46.260405]}}, {"type": "Feature", "properties": {"start": "Paray-le-Monial", "stop_name": "La Clayette - Baudemont", "type": "Gare accessible", "transport": "carTER", "transport_legende": "\ud83d\udeb2 \ud83d\udc94 Car TER \ud83d\ude8d"}, "geometry": {"type": "Point", "coordinates": [4.298436, 46.288148]}}, {"type": "Feature", "properties": {"start": "Paray-le-Monial", "stop_name": "Saint-Symphorien-des-Bois", "type": "Gare accessible", "transport": "carTER", "transport_legende": "\ud83d\udeb2 \ud83d\udc94 Car TER \ud83d\ude8d"}, "geometry": {"type": "Point", "coordinates": [4.281244, 46.332815]}}, {"type": "Feature", "properties": {"start": "Paray-le-Monial", "stop_name": "Dyo", "type": "Gare accessible", "transport": "carTER", "transport_legende": "\ud83d\udeb2 \ud83d\udc94 Car TER \ud83d\ude8d"}, "geometry": {"type": "Point", "coordinates": [4.266005, 46.351482]}}, {"type": "Feature", "properties": {"start": "Paray-le-Monial", "stop_name": "Le Guidon", "type": "Gare accessible", "transport": "carTER", "transport_legende": "\ud83d\udeb2 \ud83d\udc94 Car TER \ud83d\ude8d"}, "geometry": {"type": "Point", "coordinates": [4.249622, 46.378787]}}, {"type": "Feature", "properties": {"start": "Paray-le-Monial", "stop_name": "Changy Tourny Monument", "type": "Gare accessible", "transport": "carTER", "transport_legende": "\ud83d\udeb2 \ud83d\udc94 Car TER \ud83d\ude8d"}, "geometry": {"type": "Point", "coordinates": [4.253013, 46.403337]}}, {"type": "Feature", "properties": {"start": "Paray-le-Monial", "stop_name": "Charolles", "type": "Gare accessible", "transport": "carTER", "transport_legende": "\ud83d\udeb2 \ud83d\udc94 Car TER \ud83d\ude8d"}, "geometry": {"type": "Point", "coordinates": [4.273639, 46.435019]}}, {"type": "Feature", "properties": {"start": "Paray-le-Monial", "stop_name": "Digoin Lyc\u00e9e", "type": "Gare accessible", "transport": "carTER", "transport_legende": "\ud83d\udeb2 \ud83d\udc94 Car TER \ud83d\ude8d"}, "geometry": {"type": "Point", "coordinates": [3.991903, 46.477068]}}, {"type": "Feature", "properties": {"start": "Paray-le-Monial", "stop_name": "Lozanne", "type": "Gare accessible", "transport": "carTER", "transport_legende": "\ud83d\udeb2 \ud83d\udc94 Car TER \ud83d\ude8d"}, "geometry": {"type": "Point", "coordinates": [4.681474, 45.854174]}}, {"type": "Feature", "properties": {"start": "Paray-le-Monial", "stop_name": "Ch\u00e2tillon d'Azergues", "type": "Gare accessible", "transport": "carTER", "transport_legende": "\ud83d\udeb2 \ud83d\udc94 Car TER \ud83d\ude8d"}, "geometry": {"type": "Point", "coordinates": [4.64517, 45.875248]}}, {"type": "Feature", "properties": {"start": "Paray-le-Monial", "stop_name": "Chessy", "type": "Gare accessible", "transport": "carTER", "transport_legende": "\ud83d\udeb2 \ud83d\udc94 Car TER \ud83d\ude8d"}, "geometry": {"type": "Point", "coordinates": [4.622304, 45.885524]}}, {"type": "Feature", "properties": {"start": "Paray-le-Monial", "stop_name": "Bois-d'Oingt - L\u00e9gny", "type": "Gare accessible", "transport": "carTER", "transport_legende": "\ud83d\udeb2 \ud83d\udc94 Car TER \ud83d\ude8d"}, "geometry": {"type": "Point", "coordinates": [4.57513, 45.906545]}}, {"type": "Feature", "properties": {"start": "Paray-le-Monial", "stop_name": "Ternand", "type": "Gare accessible", "transport": "carTER", "transport_legende": "\ud83d\udeb2 \ud83d\udc94 Car TER \ud83d\ude8d"}, "geometry": {"type": "Point", "coordinates": [4.536302, 45.946122]}}, {"type": "Feature", "properties": {"start": "Paray-le-Monial", "stop_name": "L\u00e9tra Gabodi\u00e8re", "type": "Gare accessible", "transport": "carTER", "transport_legende": "\ud83d\udeb2 \ud83d\udc94 Car TER \ud83d\ude8d"}, "geometry": {"type": "Point", "coordinates": [4.516467, 45.961432]}}, {"type": "Feature", "properties": {"start": "Paray-le-Monial", "stop_name": "Chamelet Centre", "type": "Gare accessible", "transport": "carTER", "transport_legende": "\ud83d\udeb2 \ud83d\udc94 Car TER \ud83d\ude8d"}, "geometry": {"type": "Point", "coordinates": [4.508834, 45.982752]}}, {"type": "Feature", "properties": {"start": "Paray-le-Monial", "stop_name": "Chambost-Alli\u00e8res", "type": "Gare accessible", "transport": "carTER", "transport_legende": "\ud83d\udeb2 \ud83d\udc94 Car TER \ud83d\ude8d"}, "geometry": {"type": "Point", "coordinates": [4.499074, 46.018641]}}, {"type": "Feature", "properties": {"start": "Paray-le-Monial", "stop_name": "Grandris La Folleti\u00e8re", "type": "Gare accessible", "transport": "carTER", "transport_legende": "\ud83d\udeb2 \ud83d\udc94 Car TER \ud83d\ude8d"}, "geometry": {"type": "Point", "coordinates": [4.493623, 46.03569]}}, {"type": "Feature", "properties": {"start": "Paray-le-Monial", "stop_name": "Lamure-sur-Azergues Coll\u00e8ge", "type": "Gare accessible", "transport": "carTER", "transport_legende": "\ud83d\udeb2 \ud83d\udc94 Car TER \ud83d\ude8d"}, "geometry": {"type": "Point", "coordinates": [4.492917, 46.0521]}}, {"type": "Feature", "properties": {"start": "Paray-le-Monial", "stop_name": "Lamure-sur-Azergues", "type": "Gare accessible", "transport": "carTER", "transport_legende": "\ud83d\udeb2 \ud83d\udc94 Car TER \ud83d\ude8d"}, "geometry": {"type": "Point", "coordinates": [4.492121, 46.06111]}}, {"type": "Feature", "properties": {"start": "Paray-le-Monial", "stop_name": "Saint-Nizier-d'Azergues", "type": "Gare accessible", "transport": "carTER", "transport_legende": "\ud83d\udeb2 \ud83d\udc94 Car TER \ud83d\ude8d"}, "geometry": {"type": "Point", "coordinates": [4.480391, 46.087028]}}, {"type": "Feature", "properties": {"start": "Paray-le-Monial", "stop_name": "Poule", "type": "Gare accessible", "transport": "carTER", "transport_legende": "\ud83d\udeb2 \ud83d\udc94 Car TER \ud83d\ude8d"}, "geometry": {"type": "Point", "coordinates": [4.456603, 46.148042]}}, {"type": "Feature", "properties": {"start": "Paray-le-Monial", "stop_name": "Poule-les-\u00c9charmeaux Mairie", "type": "Gare accessible", "transport": "carTER", "transport_legende": "\ud83d\udeb2 \ud83d\udc94 Car TER \ud83d\ude8d"}, "geometry": {"type": "Point", "coordinates": [4.45663, 46.148161]}}, {"type": "Feature", "properties": {"start": "Paray-le-Monial", "stop_name": "Le Breuil (Rh\u00f4ne)", "type": "Gare accessible", "transport": "carTER", "transport_legende": "\ud83d\udeb2 \ud83d\udc94 Car TER \ud83d\ude8d"}, "geometry": {"type": "Point", "coordinates": [4.591384, 45.896591]}}, {"type": "Feature", "properties": {"start": "Paray-le-Monial", "stop_name": "Legny-Ponts-Tarrets", "type": "Gare accessible", "transport": "carTER", "transport_legende": "\ud83d\udeb2 \ud83d\udc94 Car TER \ud83d\ude8d"}, "geometry": {"type": "Point", "coordinates": [4.576109, 45.906675]}}, {"type": "Feature", "properties": {"start": "Paray-le-Monial", "stop_name": "Chamelet", "type": "Gare accessible", "transport": "carTER", "transport_legende": "\ud83d\udeb2 \ud83d\udc94 Car TER \ud83d\ude8d"}, "geometry": {"type": "Point", "coordinates": [4.507125, 45.981667]}}, {"type": "Feature", "properties": {"start": "Paray-le-Monial", "stop_name": "Chauffailles", "type": "Gare accessible", "transport": "carTER", "transport_legende": "\ud83d\udeb2 \ud83d\udc94 Car TER \ud83d\ude8d"}, "geometry": {"type": "Point", "coordinates": [4.345393, 46.207439]}}, {"type": "Feature", "properties": {"start": "Paray-le-Monial", "stop_name": "Le Coteau", "type": "Gare accessible", "transport": "carTER", "transport_legende": "\ud83d\udeb2 \ud83d\udc94 Car TER \ud83d\ude8d"}, "geometry": {"type": "Point", "coordinates": [4.086281, 46.023988]}}, {"type": "Feature", "properties": {"start": "Paray-le-Monial", "stop_name": "Roanne-Gare-Routi\u00e8re", "type": "Gare accessible", "transport": "carTER", "transport_legende": "\ud83d\udeb2 \ud83d\udc94 Car TER \ud83d\ude8d"}, "geometry": {"type": "Point", "coordinates": [4.060934, 46.041249]}}, {"type": "Feature", "properties": {"start": "Paray-le-Monial", "stop_name": "Roanne-Arsenal", "type": "Gare accessible", "transport": "carTER", "transport_legende": "\ud83d\udeb2 \ud83d\udc94 Car TER \ud83d\ude8d"}, "geometry": {"type": "Point", "coordinates": [4.089331, 46.066628]}}, {"type": "Feature", "properties": {"start": "Paray-le-Monial", "stop_name": "Pouilly Centre", "type": "Gare accessible", "transport": "carTER", "transport_legende": "\ud83d\udeb2 \ud83d\udc94 Car TER \ud83d\ude8d"}, "geometry": {"type": "Point", "coordinates": [4.108136, 46.143299]}}, {"type": "Feature", "properties": {"start": "Paray-le-Monial", "stop_name": "Marcigny - Saint-Martin-du-Lac", "type": "Gare accessible", "transport": "carTER", "transport_legende": "\ud83d\udeb2 \ud83d\udc94 Car TER \ud83d\ude8d"}, "geometry": {"type": "Point", "coordinates": [4.04549, 46.252657]}}, {"type": "Feature", "properties": {"start": "Paray-le-Monial", "stop_name": "Montchanin", "type": "Gare accessible", "transport": "carTER", "transport_legende": "\ud83d\udeb2 \ud83d\udc94 Car TER \ud83d\ude8d"}, "geometry": {"type": "Point", "coordinates": [4.48147, 46.759211]}}, {"type": "Feature", "properties": {"start": "Paray-le-Monial", "stop_name": "Le Creusot-TGV", "type": "Gare accessible", "transport": "carTER", "transport_legende": "\ud83d\udeb2 \ud83d\udc94 Car TER \ud83d\ude8d"}, "geometry": {"type": "Point", "coordinates": [4.49943, 46.765339]}}]}