{"type": "FeatureCollection", "features": [{"type": "Feature", "properties": {"start": "Reignac-Bourg-Du-Fau", "stop_name": "Reignac-Bourg-Du-Fau", "type": "Gare s\u00e9lectionn\u00e9e", "transport": "carTER", "nombre_trajet_moyen": 1.98, "transport_legende": "\ud83d\udeb2 \ud83d\udc94 Car TER \ud83d\ude8d"}, "geometry": {"type": "Point", "coordinates": [0.9154, 47.227175]}}, {"type": "Feature", "properties": {"start": "Reignac-Bourg-Du-Fau", "stop_name": "Loches", "type": "Gare accessible", "transport": "carTER", "nombre_trajet_moyen": 1.98, "transport_legende": "\ud83d\udeb2 \ud83d\udc94 Car TER \ud83d\ude8d"}, "geometry": {"type": "Point", "coordinates": [1.000467, 47.130464]}}, {"type": "Feature", "properties": {"start": "Reignac-Bourg-Du-Fau", "stop_name": "Loches Saint-Jacques", "type": "Gare accessible", "transport": "carTER", "nombre_trajet_moyen": 1.98, "transport_legende": "\ud83d\udeb2 \ud83d\udc94 Car TER \ud83d\ude8d"}, "geometry": {"type": "Point", "coordinates": [0.996408, 47.127046]}}, {"type": "Feature", "properties": {"start": "Reignac-Bourg-Du-Fau", "stop_name": "Chambourg-sur-Indre Chopin", "type": "Gare accessible", "transport": "carTER", "nombre_trajet_moyen": 1.98, "transport_legende": "\ud83d\udeb2 \ud83d\udc94 Car TER \ud83d\ude8d"}, "geometry": {"type": "Point", "coordinates": [0.96434, 47.183759]}}, {"type": "Feature", "properties": {"start": "Reignac-Bourg-Du-Fau", "stop_name": "Azay-sur-Indre Les 2 Rivi\u00e8res", "type": "Gare accessible", "transport": "carTER", "nombre_trajet_moyen": 1.98, "transport_legende": "\ud83d\udeb2 \ud83d\udc94 Car TER \ud83d\ude8d"}, "geometry": {"type": "Point", "coordinates": [0.946077, 47.209256]}}, {"type": "Feature", "properties": {"start": "Reignac-Bourg-Du-Fau", "stop_name": "Reignac", "type": "Gare accessible", "transport": "carTER", "nombre_trajet_moyen": 1.66, "transport_legende": "\ud83d\udeb2 \ud83d\udc94 Car TER \ud83d\ude8d"}, "geometry": {"type": "Point", "coordinates": [0.901533, 47.21787]}}, {"type": "Feature", "properties": {"start": "Reignac-Bourg-Du-Fau", "stop_name": "Courcay Rouvre", "type": "Gare accessible", "transport": "carTER", "nombre_trajet_moyen": 1.91, "transport_legende": "\ud83d\udeb2 \ud83d\udc94 Car TER \ud83d\ude8d"}, "geometry": {"type": "Point", "coordinates": [0.872641, 47.241687]}}, {"type": "Feature", "properties": {"start": "Reignac-Bourg-Du-Fau", "stop_name": "Tauxigny Node Park", "type": "Gare accessible", "transport": "carTER", "nombre_trajet_moyen": 1.98, "transport_legende": "\ud83d\udeb2 \ud83d\udc94 Car TER \ud83d\ude8d"}, "geometry": {"type": "Point", "coordinates": [0.840234, 47.257156]}}, {"type": "Feature", "properties": {"start": "Reignac-Bourg-Du-Fau", "stop_name": "Cormery", "type": "Gare accessible", "transport": "carTER", "nombre_trajet_moyen": 1.98, "transport_legende": "\ud83d\udeb2 \ud83d\udc94 Car TER \ud83d\ude8d"}, "geometry": {"type": "Point", "coordinates": [0.834953, 47.26263]}}, {"type": "Feature", "properties": {"start": "Reignac-Bourg-Du-Fau", "stop_name": "Cormery Place du Croissant", "type": "Gare accessible", "transport": "carTER", "nombre_trajet_moyen": 1.98, "transport_legende": "\ud83d\udeb2 \ud83d\udc94 Car TER \ud83d\ude8d"}, "geometry": {"type": "Point", "coordinates": [0.835304, 47.26863]}}, {"type": "Feature", "properties": {"start": "Reignac-Bourg-Du-Fau", "stop_name": "Truyes-Chapelle", "type": "Gare accessible", "transport": "carTER", "nombre_trajet_moyen": 1.98, "transport_legende": "\ud83d\udeb2 \ud83d\udc94 Car TER \ud83d\ude8d"}, "geometry": {"type": "Point", "coordinates": [0.830439, 47.275284]}}, {"type": "Feature", "properties": {"start": "Reignac-Bourg-Du-Fau", "stop_name": "Esvres-sur-Indre", "type": "Gare accessible", "transport": "carTER", "nombre_trajet_moyen": 0.96, "transport_legende": "\ud83d\udeb2 \ud83d\udc94 Car TER \ud83d\ude8d"}, "geometry": {"type": "Point", "coordinates": [0.781977, 47.284535]}}, {"type": "Feature", "properties": {"start": "Reignac-Bourg-Du-Fau", "stop_name": "Veign\u00e9", "type": "Gare accessible", "transport": "carTER", "nombre_trajet_moyen": 0.96, "transport_legende": "\ud83d\udeb2 \ud83d\udc94 Car TER \ud83d\ude8d"}, "geometry": {"type": "Point", "coordinates": [0.73488, 47.291227]}}, {"type": "Feature", "properties": {"start": "Reignac-Bourg-Du-Fau", "stop_name": "Montbazon", "type": "Gare accessible", "transport": "carTER", "nombre_trajet_moyen": 0.96, "transport_legende": "\ud83d\udeb2 \ud83d\udc94 Car TER \ud83d\ude8d"}, "geometry": {"type": "Point", "coordinates": [0.721005, 47.291629]}}, {"type": "Feature", "properties": {"start": "Reignac-Bourg-Du-Fau", "stop_name": "Tours", "type": "Gare accessible", "transport": "carTER", "nombre_trajet_moyen": 1.98, "transport_legende": "\ud83d\udeb2 \ud83d\udc94 Car TER \ud83d\ude8d"}, "geometry": {"type": "Point", "coordinates": [0.692831, 47.389866]}}, {"type": "Feature", "properties": {"start": "Reignac-Bourg-Du-Fau", "stop_name": "Azay-sur-Indre Le Paradis", "type": "Gare accessible", "transport": "carTER", "nombre_trajet_moyen": 0.66, "transport_legende": "\ud83d\udeb2 \ud83d\udc94 Car TER \ud83d\ude8d"}, "geometry": {"type": "Point", "coordinates": [0.940779, 47.214671]}}, {"type": "Feature", "properties": {"start": "Reignac-Bourg-Du-Fau", "stop_name": "Cour\u00e7ay-\u00c9glise", "type": "Gare accessible", "transport": "carTER", "nombre_trajet_moyen": 0.66, "transport_legende": "\ud83d\udeb2 \ud83d\udc94 Car TER \ud83d\ude8d"}, "geometry": {"type": "Point", "coordinates": [0.876129, 47.249982]}}, {"type": "Feature", "properties": {"start": "Reignac-Bourg-Du-Fau", "stop_name": "Courcay - Tauxigny", "type": "Gare accessible", "transport": "carTER", "nombre_trajet_moyen": 0.41, "transport_legende": "\ud83d\udeb2 \ud83d\udc94 Car TER \ud83d\ude8d"}, "geometry": {"type": "Point", "coordinates": [0.867603, 47.237613]}}, {"type": "Feature", "properties": {"start": "Reignac-Bourg-Du-Fau", "stop_name": "Esvres Champgault", "type": "Gare accessible", "transport": "carTER", "nombre_trajet_moyen": 0.66, "transport_legende": "\ud83d\udeb2 \ud83d\udc94 Car TER \ud83d\ude8d"}, "geometry": {"type": "Point", "coordinates": [0.812259, 47.283713]}}, {"type": "Feature", "properties": {"start": "Reignac-Bourg-Du-Fau", "stop_name": "Esvres Les Re\u00e7ais", "type": "Gare accessible", "transport": "carTER", "nombre_trajet_moyen": 0.66, "transport_legende": "\ud83d\udeb2 \ud83d\udc94 Car TER \ud83d\ude8d"}, "geometry": {"type": "Point", "coordinates": [0.806036, 47.294076]}}, {"type": "Feature", "properties": {"start": "Reignac-Bourg-Du-Fau", "stop_name": "Esvres Saint Malo", "type": "Gare accessible", "transport": "carTER", "nombre_trajet_moyen": 1.47, "transport_legende": "\ud83d\udeb2 \ud83d\udc94 Car TER \ud83d\ude8d"}, "geometry": {"type": "Point", "coordinates": [0.79947, 47.302428]}}, {"type": "Feature", "properties": {"start": "Reignac-Bourg-Du-Fau", "stop_name": "Esvres Ch\u00eane Pendu", "type": "Gare accessible", "transport": "carTER", "nombre_trajet_moyen": 0.66, "transport_legende": "\ud83d\udeb2 \ud83d\udc94 Car TER \ud83d\ude8d"}, "geometry": {"type": "Point", "coordinates": [0.766565, 47.325349]}}, {"type": "Feature", "properties": {"start": "Reignac-Bourg-Du-Fau", "stop_name": "Chambray Lyc\u00e9e-Agricole", "type": "Gare accessible", "transport": "carTER", "nombre_trajet_moyen": 1.47, "transport_legende": "\ud83d\udeb2 \ud83d\udc94 Car TER \ud83d\ude8d"}, "geometry": {"type": "Point", "coordinates": [0.728601, 47.338928]}}, {"type": "Feature", "properties": {"start": "Reignac-Bourg-Du-Fau", "stop_name": "Chambray Bois-Cormier", "type": "Gare accessible", "transport": "carTER", "nombre_trajet_moyen": 0.66, "transport_legende": "\ud83d\udeb2 \ud83d\udc94 Car TER \ud83d\ude8d"}, "geometry": {"type": "Point", "coordinates": [0.717502, 47.343108]}}, {"type": "Feature", "properties": {"start": "Reignac-Bourg-Du-Fau", "stop_name": "Tours Lyc\u00e9e Grandmont", "type": "Gare accessible", "transport": "carTER", "nombre_trajet_moyen": 0.59, "transport_legende": "\ud83d\udeb2 \ud83d\udc94 Car TER \ud83d\ude8d"}, "geometry": {"type": "Point", "coordinates": [0.700027, 47.360294]}}, {"type": "Feature", "properties": {"start": "Reignac-Bourg-Du-Fau", "stop_name": "Chambray CHR Trousseau", "type": "Gare accessible", "transport": "carTER", "nombre_trajet_moyen": 1.22, "transport_legende": "\ud83d\udeb2 \ud83d\udc94 Car TER \ud83d\ude8d"}, "geometry": {"type": "Point", "coordinates": [0.71027, 47.347866]}}, {"type": "Feature", "properties": {"start": "Reignac-Bourg-Du-Fau", "stop_name": "Reignac Jonquilles", "type": "Gare accessible", "transport": "carTER", "nombre_trajet_moyen": 0.34, "transport_legende": "\ud83d\udeb2 \ud83d\udc94 Car TER \ud83d\ude8d"}, "geometry": {"type": "Point", "coordinates": [0.915049, 47.227109]}}, {"type": "Feature", "properties": {"start": "Reignac-Bourg-Du-Fau", "stop_name": "Chambourg", "type": "Gare accessible", "transport": "carTER", "nombre_trajet_moyen": 0.27, "transport_legende": "\ud83d\udeb2 \ud83d\udc94 Car TER \ud83d\ude8d"}, "geometry": {"type": "Point", "coordinates": [0.964949, 47.182215]}}]}