{"type": "FeatureCollection", "features": [{"type": "Feature", "properties": {"start": "Remiremont", "stop_name": "Remiremont", "type": "Gare s\u00e9lectionn\u00e9e", "transport": "carTER", "nombre_trajet_moyen": 2.69, "transport_legende": "\ud83d\udeb2 \ud83d\udc94 Car TER \ud83d\ude8d"}, "geometry": {"type": "Point", "coordinates": [6.598879, 48.016342]}}, {"type": "Feature", "properties": {"start": "Remiremont", "stop_name": "Bussang Office du Tourisme", "type": "Gare accessible", "transport": "carTER", "nombre_trajet_moyen": 2.69, "transport_legende": "\ud83d\udeb2 \ud83d\udc94 Car TER \ud83d\ude8d"}, "geometry": {"type": "Point", "coordinates": [6.854307, 47.88365]}}, {"type": "Feature", "properties": {"start": "Remiremont", "stop_name": "St-Maurice-sur-Moselle Mairie", "type": "Gare accessible", "transport": "carTER", "nombre_trajet_moyen": 2.69, "transport_legende": "\ud83d\udeb2 \ud83d\udc94 Car TER \ud83d\ude8d"}, "geometry": {"type": "Point", "coordinates": [6.825576, 47.859186]}}, {"type": "Feature", "properties": {"start": "Remiremont", "stop_name": "Saint-Maurice-sur-Moselle Ancienne Gare", "type": "Gare accessible", "transport": "carTER", "nombre_trajet_moyen": 2.69, "transport_legende": "\ud83d\udeb2 \ud83d\udc94 Car TER \ud83d\ude8d"}, "geometry": {"type": "Point", "coordinates": [6.818846, 47.854775]}}, {"type": "Feature", "properties": {"start": "Remiremont", "stop_name": "Fresse-sur-Moselle la Hardoye", "type": "Gare accessible", "transport": "carTER", "nombre_trajet_moyen": 2.69, "transport_legende": "\ud83d\udeb2 \ud83d\udc94 Car TER \ud83d\ude8d"}, "geometry": {"type": "Point", "coordinates": [6.794792, 47.869031]}}, {"type": "Feature", "properties": {"start": "Remiremont", "stop_name": "Fresse-sur-Moselle Centre", "type": "Gare accessible", "transport": "carTER", "nombre_trajet_moyen": 2.69, "transport_legende": "\ud83d\udeb2 \ud83d\udc94 Car TER \ud83d\ude8d"}, "geometry": {"type": "Point", "coordinates": [6.782625, 47.875737]}}, {"type": "Feature", "properties": {"start": "Remiremont", "stop_name": "Le Thillot R\u00e9publique", "type": "Gare accessible", "transport": "carTER", "nombre_trajet_moyen": 2.69, "transport_legende": "\ud83d\udeb2 \ud83d\udc94 Car TER \ud83d\ude8d"}, "geometry": {"type": "Point", "coordinates": [6.766924, 47.878335]}}, {"type": "Feature", "properties": {"start": "Remiremont", "stop_name": "Le Thillot Avenue de Verdun", "type": "Gare accessible", "transport": "carTER", "nombre_trajet_moyen": 2.69, "transport_legende": "\ud83d\udeb2 \ud83d\udc94 Car TER \ud83d\ude8d"}, "geometry": {"type": "Point", "coordinates": [6.760878, 47.882067]}}, {"type": "Feature", "properties": {"start": "Remiremont", "stop_name": "Ramonchamp Pont", "type": "Gare accessible", "transport": "carTER", "nombre_trajet_moyen": 2.69, "transport_legende": "\ud83d\udeb2 \ud83d\udc94 Car TER \ud83d\ude8d"}, "geometry": {"type": "Point", "coordinates": [6.739525, 47.892219]}}, {"type": "Feature", "properties": {"start": "Remiremont", "stop_name": "Ferdrupt Remanvillers", "type": "Gare accessible", "transport": "carTER", "nombre_trajet_moyen": 2.69, "transport_legende": "\ud83d\udeb2 \ud83d\udc94 Car TER \ud83d\ude8d"}, "geometry": {"type": "Point", "coordinates": [6.727538, 47.900002]}}, {"type": "Feature", "properties": {"start": "Remiremont", "stop_name": "Ferdrupt Ecole", "type": "Gare accessible", "transport": "carTER", "nombre_trajet_moyen": 2.69, "transport_legende": "\ud83d\udeb2 \ud83d\udc94 Car TER \ud83d\ude8d"}, "geometry": {"type": "Point", "coordinates": [6.707459, 47.907727]}}, {"type": "Feature", "properties": {"start": "Remiremont", "stop_name": "Rupt-sur-Moselle Saulx", "type": "Gare accessible", "transport": "carTER", "nombre_trajet_moyen": 2.69, "transport_legende": "\ud83d\udeb2 \ud83d\udc94 Car TER \ud83d\ude8d"}, "geometry": {"type": "Point", "coordinates": [6.689129, 47.909757]}}, {"type": "Feature", "properties": {"start": "Remiremont", "stop_name": "Rupt-sur-Moselle La Roche", "type": "Gare accessible", "transport": "carTER", "nombre_trajet_moyen": 2.69, "transport_legende": "\ud83d\udeb2 \ud83d\udc94 Car TER \ud83d\ude8d"}, "geometry": {"type": "Point", "coordinates": [6.666749, 47.915738]}}, {"type": "Feature", "properties": {"start": "Remiremont", "stop_name": "Rupt-sur-Moselle Centre", "type": "Gare accessible", "transport": "carTER", "nombre_trajet_moyen": 2.69, "transport_legende": "\ud83d\udeb2 \ud83d\udc94 Car TER \ud83d\ude8d"}, "geometry": {"type": "Point", "coordinates": [6.65992, 47.923967]}}, {"type": "Feature", "properties": {"start": "Remiremont", "stop_name": "Rupt-sur-Moselle Pont de Rupt", "type": "Gare accessible", "transport": "carTER", "nombre_trajet_moyen": 2.69, "transport_legende": "\ud83d\udeb2 \ud83d\udc94 Car TER \ud83d\ude8d"}, "geometry": {"type": "Point", "coordinates": [6.651113, 47.93451]}}, {"type": "Feature", "properties": {"start": "Remiremont", "stop_name": "Maxonchamp Route de Maxonchamp", "type": "Gare accessible", "transport": "carTER", "nombre_trajet_moyen": 2.69, "transport_legende": "\ud83d\udeb2 \ud83d\udc94 Car TER \ud83d\ude8d"}, "geometry": {"type": "Point", "coordinates": [6.635396, 47.945675]}}, {"type": "Feature", "properties": {"start": "Remiremont", "stop_name": "Hielle Lepange", "type": "Gare accessible", "transport": "carTER", "nombre_trajet_moyen": 2.69, "transport_legende": "\ud83d\udeb2 \ud83d\udc94 Car TER \ud83d\ude8d"}, "geometry": {"type": "Point", "coordinates": [6.627374, 47.952649]}}, {"type": "Feature", "properties": {"start": "Remiremont", "stop_name": "Hielle Ancienne Gare", "type": "Gare accessible", "transport": "carTER", "nombre_trajet_moyen": 2.69, "transport_legende": "\ud83d\udeb2 \ud83d\udc94 Car TER \ud83d\ude8d"}, "geometry": {"type": "Point", "coordinates": [6.634176, 47.963751]}}, {"type": "Feature", "properties": {"start": "Remiremont", "stop_name": "Vecoux Eglise", "type": "Gare accessible", "transport": "carTER", "nombre_trajet_moyen": 2.69, "transport_legende": "\ud83d\udeb2 \ud83d\udc94 Car TER \ud83d\ude8d"}, "geometry": {"type": "Point", "coordinates": [6.636391, 47.978689]}}, {"type": "Feature", "properties": {"start": "Remiremont", "stop_name": "Remiremont Cora", "type": "Gare accessible", "transport": "carTER", "nombre_trajet_moyen": 2.69, "transport_legende": "\ud83d\udeb2 \ud83d\udc94 Car TER \ud83d\ude8d"}, "geometry": {"type": "Point", "coordinates": [6.612624, 48.004573]}}, {"type": "Feature", "properties": {"start": "Remiremont", "stop_name": "La Bresse Place du Champtel", "type": "Gare accessible", "transport": "carTER", "nombre_trajet_moyen": 2.69, "transport_legende": "\ud83d\udeb2 \ud83d\udc94 Car TER \ud83d\ude8d"}, "geometry": {"type": "Point", "coordinates": [6.87367, 48.003293]}}, {"type": "Feature", "properties": {"start": "Remiremont", "stop_name": "La Bresse Rue Paul Claudel", "type": "Gare accessible", "transport": "carTER", "nombre_trajet_moyen": 2.69, "transport_legende": "\ud83d\udeb2 \ud83d\udc94 Car TER \ud83d\ude8d"}, "geometry": {"type": "Point", "coordinates": [6.879641, 48.006703]}}, {"type": "Feature", "properties": {"start": "Remiremont", "stop_name": "Cornimont Lansauchamp", "type": "Gare accessible", "transport": "carTER", "nombre_trajet_moyen": 2.69, "transport_legende": "\ud83d\udeb2 \ud83d\udc94 Car TER \ud83d\ude8d"}, "geometry": {"type": "Point", "coordinates": [6.836527, 47.984944]}}, {"type": "Feature", "properties": {"start": "Remiremont", "stop_name": "Cornimont H\u00f4pital", "type": "Gare accessible", "transport": "carTER", "nombre_trajet_moyen": 2.69, "transport_legende": "\ud83d\udeb2 \ud83d\udc94 Car TER \ud83d\ude8d"}, "geometry": {"type": "Point", "coordinates": [6.83197, 47.97198]}}, {"type": "Feature", "properties": {"start": "Remiremont", "stop_name": "Cornimont College", "type": "Gare accessible", "transport": "carTER", "nombre_trajet_moyen": 0.86, "transport_legende": "\ud83d\udeb2 \ud83d\udc94 Car TER \ud83d\ude8d"}, "geometry": {"type": "Point", "coordinates": [6.833099, 47.96267]}}, {"type": "Feature", "properties": {"start": "Remiremont", "stop_name": "Cornimont Perception", "type": "Gare accessible", "transport": "carTER", "nombre_trajet_moyen": 2.69, "transport_legende": "\ud83d\udeb2 \ud83d\udc94 Car TER \ud83d\ude8d"}, "geometry": {"type": "Point", "coordinates": [6.838716, 47.963446]}}, {"type": "Feature", "properties": {"start": "Remiremont", "stop_name": "Saulxures-sur-Moselotte Place Claude", "type": "Gare accessible", "transport": "carTER", "nombre_trajet_moyen": 2.69, "transport_legende": "\ud83d\udeb2 \ud83d\udc94 Car TER \ud83d\ude8d"}, "geometry": {"type": "Point", "coordinates": [6.784471, 47.949739]}}, {"type": "Feature", "properties": {"start": "Remiremont", "stop_name": "Saulxures-sur-Moselotte Avenue Jules Ferry", "type": "Gare accessible", "transport": "carTER", "nombre_trajet_moyen": 2.69, "transport_legende": "\ud83d\udeb2 \ud83d\udc94 Car TER \ud83d\ude8d"}, "geometry": {"type": "Point", "coordinates": [6.772524, 47.949186]}}, {"type": "Feature", "properties": {"start": "Remiremont", "stop_name": "Saulxures-sur-Moselotte Lac de Moselotte", "type": "Gare accessible", "transport": "carTER", "nombre_trajet_moyen": 2.69, "transport_legende": "\ud83d\udeb2 \ud83d\udc94 Car TER \ud83d\ude8d"}, "geometry": {"type": "Point", "coordinates": [6.770877, 47.948957]}}, {"type": "Feature", "properties": {"start": "Remiremont", "stop_name": "Thi\u00e9fosse Mairie", "type": "Gare accessible", "transport": "carTER", "nombre_trajet_moyen": 2.69, "transport_legende": "\ud83d\udeb2 \ud83d\udc94 Car TER \ud83d\ude8d"}, "geometry": {"type": "Point", "coordinates": [6.729788, 47.971799]}}, {"type": "Feature", "properties": {"start": "Remiremont", "stop_name": "Zainvillers Maison de retraite Solem", "type": "Gare accessible", "transport": "carTER", "nombre_trajet_moyen": 2.69, "transport_legende": "\ud83d\udeb2 \ud83d\udc94 Car TER \ud83d\ude8d"}, "geometry": {"type": "Point", "coordinates": [6.716528, 47.993964]}}, {"type": "Feature", "properties": {"start": "Remiremont", "stop_name": "Vagney Mairie", "type": "Gare accessible", "transport": "carTER", "nombre_trajet_moyen": 2.69, "transport_legende": "\ud83d\udeb2 \ud83d\udc94 Car TER \ud83d\ude8d"}, "geometry": {"type": "Point", "coordinates": [6.716337, 48.009267]}}, {"type": "Feature", "properties": {"start": "Remiremont", "stop_name": "Cremanvillers Route de Remiremont", "type": "Gare accessible", "transport": "carTER", "nombre_trajet_moyen": 2.69, "transport_legende": "\ud83d\udeb2 \ud83d\udc94 Car TER \ud83d\ude8d"}, "geometry": {"type": "Point", "coordinates": [6.711064, 48.020436]}}, {"type": "Feature", "properties": {"start": "Remiremont", "stop_name": "Le Syndicat Mairie", "type": "Gare accessible", "transport": "carTER", "nombre_trajet_moyen": 2.69, "transport_legende": "\ud83d\udeb2 \ud83d\udc94 Car TER \ud83d\ude8d"}, "geometry": {"type": "Point", "coordinates": [6.683582, 48.024803]}}, {"type": "Feature", "properties": {"start": "Remiremont", "stop_name": "Saint-Am\u00e9 Centre", "type": "Gare accessible", "transport": "carTER", "nombre_trajet_moyen": 2.69, "transport_legende": "\ud83d\udeb2 \ud83d\udc94 Car TER \ud83d\ude8d"}, "geometry": {"type": "Point", "coordinates": [6.669804, 48.025015]}}, {"type": "Feature", "properties": {"start": "Remiremont", "stop_name": "Peccavillers Centre", "type": "Gare accessible", "transport": "carTER", "nombre_trajet_moyen": 2.69, "transport_legende": "\ud83d\udeb2 \ud83d\udc94 Car TER \ud83d\ude8d"}, "geometry": {"type": "Point", "coordinates": [6.668312, 48.015526]}}, {"type": "Feature", "properties": {"start": "Remiremont", "stop_name": "Dommartin-l\u00e8s-Remiremont Franould", "type": "Gare accessible", "transport": "carTER", "nombre_trajet_moyen": 2.69, "transport_legende": "\ud83d\udeb2 \ud83d\udc94 Car TER \ud83d\ude8d"}, "geometry": {"type": "Point", "coordinates": [6.65492, 48.004603]}}, {"type": "Feature", "properties": {"start": "Remiremont", "stop_name": "Dommartin Eglise", "type": "Gare accessible", "transport": "carTER", "nombre_trajet_moyen": 2.69, "transport_legende": "\ud83d\udeb2 \ud83d\udc94 Car TER \ud83d\ude8d"}, "geometry": {"type": "Point", "coordinates": [6.644473, 47.998627]}}, {"type": "Feature", "properties": {"start": "Remiremont", "stop_name": "Saint-Etienne-l\u00e8s-Remiremont Pont", "type": "Gare accessible", "transport": "carTER", "nombre_trajet_moyen": 2.69, "transport_legende": "\ud83d\udeb2 \ud83d\udc94 Car TER \ud83d\ude8d"}, "geometry": {"type": "Point", "coordinates": [6.61377, 48.009079]}}, {"type": "Feature", "properties": {"start": "Remiremont", "stop_name": "Cornimont Place Pranzi\u00e8re", "type": "Gare accessible", "transport": "carTER", "nombre_trajet_moyen": 2.48, "transport_legende": "\ud83d\udeb2 \ud83d\udc94 Car TER \ud83d\ude8d"}, "geometry": {"type": "Point", "coordinates": [6.837482, 47.962747]}}]}