{"type": "FeatureCollection", "features": [{"type": "Feature", "properties": {"start": "Ruoms D\u00e9viation", "stop_name": "Ruoms D\u00e9viation", "type": "Gare s\u00e9lectionn\u00e9e", "transport": "carTER", "transport_legende": "\ud83d\udeb2 \ud83d\udc94 Car TER \ud83d\ude8d"}, "geometry": {"type": "Point", "coordinates": [4.343408, 44.451769]}}, {"type": "Feature", "properties": {"start": "Ruoms D\u00e9viation", "stop_name": "Vallon-Pont-d'Arc Gare Routi\u00e8re", "type": "Gare accessible", "transport": "carTER", "transport_legende": "\ud83d\udeb2 \ud83d\udc94 Car TER \ud83d\ude8d"}, "geometry": {"type": "Point", "coordinates": [4.390293, 44.405646]}}, {"type": "Feature", "properties": {"start": "Ruoms D\u00e9viation", "stop_name": "Sampzon Le Pont", "type": "Gare accessible", "transport": "carTER", "transport_legende": "\ud83d\udeb2 \ud83d\udc94 Car TER \ud83d\ude8d"}, "geometry": {"type": "Point", "coordinates": [4.357945, 44.429476]}}, {"type": "Feature", "properties": {"start": "Ruoms D\u00e9viation", "stop_name": "Pradons Centre", "type": "Gare accessible", "transport": "carTER", "transport_legende": "\ud83d\udeb2 \ud83d\udc94 Car TER \ud83d\ude8d"}, "geometry": {"type": "Point", "coordinates": [4.358646, 44.474277]}}, {"type": "Feature", "properties": {"start": "Ruoms D\u00e9viation", "stop_name": "Balazuc RD579", "type": "Gare accessible", "transport": "carTER", "transport_legende": "\ud83d\udeb2 \ud83d\udc94 Car TER \ud83d\ude8d"}, "geometry": {"type": "Point", "coordinates": [4.386705, 44.502509]}}, {"type": "Feature", "properties": {"start": "Ruoms D\u00e9viation", "stop_name": "VOGUE Bausson", "type": "Gare accessible", "transport": "carTER", "transport_legende": "\ud83d\udeb2 \ud83d\udc94 Car TER \ud83d\ude8d"}, "geometry": {"type": "Point", "coordinates": [4.41726, 44.53941]}}, {"type": "Feature", "properties": {"start": "Ruoms D\u00e9viation", "stop_name": "Villeneuve-de-Berg les Pommiers", "type": "Gare accessible", "transport": "carTER", "transport_legende": "\ud83d\udeb2 \ud83d\udc94 Car TER \ud83d\ude8d"}, "geometry": {"type": "Point", "coordinates": [4.511974, 44.573073]}}, {"type": "Feature", "properties": {"start": "Ruoms D\u00e9viation", "stop_name": "Saint-Jean-le-Centenier Centre", "type": "Gare accessible", "transport": "carTER", "transport_legende": "\ud83d\udeb2 \ud83d\udc94 Car TER \ud83d\ude8d"}, "geometry": {"type": "Point", "coordinates": [4.536514, 44.58959]}}, {"type": "Feature", "properties": {"start": "Ruoms D\u00e9viation", "stop_name": "Le Teil Sablons", "type": "Gare accessible", "transport": "carTER", "transport_legende": "\ud83d\udeb2 \ud83d\udc94 Car TER \ud83d\ude8d"}, "geometry": {"type": "Point", "coordinates": [4.685618, 44.5527]}}, {"type": "Feature", "properties": {"start": "Ruoms D\u00e9viation", "stop_name": "Montelimar Gare Routi\u00e8re", "type": "Gare accessible", "transport": "carTER", "transport_legende": "\ud83d\udeb2 \ud83d\udc94 Car TER \ud83d\ude8d"}, "geometry": {"type": "Point", "coordinates": [4.745107, 44.559439]}}, {"type": "Feature", "properties": {"start": "Ruoms D\u00e9viation", "stop_name": "Valence TGV Rh\u00f4ne-Alpes Sud", "type": "Gare accessible", "transport": "carTER", "transport_legende": "\ud83d\udeb2 \ud83d\udc94 Car TER \ud83d\ude8d"}, "geometry": {"type": "Point", "coordinates": [4.978652, 44.991907]}}]}