{"type": "FeatureCollection", "features": [{"type": "Feature", "properties": {"start": "R\u00e9moncourt Place de la F\u00eate", "stop_name": "R\u00e9moncourt Place de la F\u00eate", "type": "Gare s\u00e9lectionn\u00e9e", "transport": "carTER", "nombre_trajet_moyen": 0.34, "transport_legende": "\ud83d\udeb2 \ud83d\udc94 Car TER \ud83d\ude8d"}, "geometry": {"type": "Point", "coordinates": [6.051161, 48.229365]}}, {"type": "Feature", "properties": {"start": "R\u00e9moncourt Place de la F\u00eate", "stop_name": "V\u00e9zelise Beauregard", "type": "Gare accessible", "transport": "carTER", "nombre_trajet_moyen": 0.34, "transport_legende": "\ud83d\udeb2 \ud83d\udc94 Car TER \ud83d\ude8d"}, "geometry": {"type": "Point", "coordinates": [6.093343, 48.488983]}}, {"type": "Feature", "properties": {"start": "R\u00e9moncourt Place de la F\u00eate", "stop_name": "Mirecourt", "type": "Gare accessible", "transport": "carTER", "nombre_trajet_moyen": 0.34, "transport_legende": "\ud83d\udeb2 \ud83d\udc94 Car TER \ud83d\ude8d"}, "geometry": {"type": "Point", "coordinates": [6.129464, 48.299249]}}, {"type": "Feature", "properties": {"start": "R\u00e9moncourt Place de la F\u00eate", "stop_name": "Mirecourt Lyc\u00e9e Agricole", "type": "Gare accessible", "transport": "carTER", "nombre_trajet_moyen": 0.34, "transport_legende": "\ud83d\udeb2 \ud83d\udc94 Car TER \ud83d\ude8d"}, "geometry": {"type": "Point", "coordinates": [6.132072, 48.293598]}}, {"type": "Feature", "properties": {"start": "R\u00e9moncourt Place de la F\u00eate", "stop_name": "Mattaincourt la Poste", "type": "Gare accessible", "transport": "carTER", "nombre_trajet_moyen": 0.34, "transport_legende": "\ud83d\udeb2 \ud83d\udc94 Car TER \ud83d\ude8d"}, "geometry": {"type": "Point", "coordinates": [6.133343, 48.278999]}}, {"type": "Feature", "properties": {"start": "R\u00e9moncourt Place de la F\u00eate", "stop_name": "Hymont Mairie", "type": "Gare accessible", "transport": "carTER", "nombre_trajet_moyen": 0.34, "transport_legende": "\ud83d\udeb2 \ud83d\udc94 Car TER \ud83d\ude8d"}, "geometry": {"type": "Point", "coordinates": [6.142194, 48.265629]}}, {"type": "Feature", "properties": {"start": "R\u00e9moncourt Place de la F\u00eate", "stop_name": "Har\u00e9ville sous Monfort Centre", "type": "Gare accessible", "transport": "carTER", "nombre_trajet_moyen": 0.34, "transport_legende": "\ud83d\udeb2 \ud83d\udc94 Car TER \ud83d\ude8d"}, "geometry": {"type": "Point", "coordinates": [5.999557, 48.205615]}}, {"type": "Feature", "properties": {"start": "R\u00e9moncourt Place de la F\u00eate", "stop_name": "Vittel", "type": "Gare accessible", "transport": "carTER", "nombre_trajet_moyen": 0.34, "transport_legende": "\ud83d\udeb2 \ud83d\udc94 Car TER \ud83d\ude8d"}, "geometry": {"type": "Point", "coordinates": [5.942295, 48.202426]}}, {"type": "Feature", "properties": {"start": "R\u00e9moncourt Place de la F\u00eate", "stop_name": "Contrex\u00e9ville", "type": "Gare accessible", "transport": "carTER", "nombre_trajet_moyen": 0.34, "transport_legende": "\ud83d\udeb2 \ud83d\udc94 Car TER \ud83d\ude8d"}, "geometry": {"type": "Point", "coordinates": [5.890633, 48.179613]}}, {"type": "Feature", "properties": {"start": "R\u00e9moncourt Place de la F\u00eate", "stop_name": "Martigny-les-Bains Thi\u00e9baut", "type": "Gare accessible", "transport": "carTER", "nombre_trajet_moyen": 0.34, "transport_legende": "\ud83d\udeb2 \ud83d\udc94 Car TER \ud83d\ude8d"}, "geometry": {"type": "Point", "coordinates": [5.823891, 48.104445]}}, {"type": "Feature", "properties": {"start": "R\u00e9moncourt Place de la F\u00eate", "stop_name": "Martigny-les-Bains Coll\u00e8ge", "type": "Gare accessible", "transport": "carTER", "nombre_trajet_moyen": 0.34, "transport_legende": "\ud83d\udeb2 \ud83d\udc94 Car TER \ud83d\ude8d"}, "geometry": {"type": "Point", "coordinates": [5.826192, 48.105008]}}, {"type": "Feature", "properties": {"start": "R\u00e9moncourt Place de la F\u00eate", "stop_name": "Ceintrey Eglise", "type": "Gare accessible", "transport": "carTER", "nombre_trajet_moyen": 0.34, "transport_legende": "\ud83d\udeb2 \ud83d\udc94 Car TER \ud83d\ude8d"}, "geometry": {"type": "Point", "coordinates": [6.163995, 48.524463]}}, {"type": "Feature", "properties": {"start": "R\u00e9moncourt Place de la F\u00eate", "stop_name": "Nancy", "type": "Gare accessible", "transport": "carTER", "nombre_trajet_moyen": 0.34, "transport_legende": "\ud83d\udeb2 \ud83d\udc94 Car TER \ud83d\ude8d"}, "geometry": {"type": "Point", "coordinates": [6.174579, 48.689857]}}]}