{"type": "FeatureCollection", "features": [{"type": "Feature", "properties": {"start": "Saint-Jean-de-Maurienne Arvan", "stop_name": "Saint-Jean-de-Maurienne Arvan", "type": "Gare s\u00e9lectionn\u00e9e", "transport": "carTER", "transport_legende": "\ud83d\udeb2 \ud83d\udc94 Car TER \ud83d\ude8d"}, "geometry": {"type": "Point", "coordinates": [6.354716, 45.277542]}}, {"type": "Feature", "properties": {"start": "Saint-Jean-de-Maurienne Arvan", "stop_name": "Modane", "type": "Gare accessible", "transport": "carTER", "transport_legende": "\ud83d\udeb2 \ud83d\udc94 Car TER \ud83d\ude8d"}, "geometry": {"type": "Point", "coordinates": [6.659139, 45.193555]}}, {"type": "Feature", "properties": {"start": "Saint-Jean-de-Maurienne Arvan", "stop_name": "Saint-Michel - Valloire", "type": "Gare accessible", "transport": "carTER", "transport_legende": "\ud83d\udeb2 \ud83d\udc94 Car TER \ud83d\ude8d"}, "geometry": {"type": "Point", "coordinates": [6.471914, 45.216916]}}, {"type": "Feature", "properties": {"start": "Saint-Jean-de-Maurienne Arvan", "stop_name": "Saint-Avre - La Chambre", "type": "Gare accessible", "transport": "carTER", "transport_legende": "\ud83d\udeb2 \ud83d\udc94 Car TER \ud83d\ude8d"}, "geometry": {"type": "Point", "coordinates": [6.302867, 45.35312]}}, {"type": "Feature", "properties": {"start": "Saint-Jean-de-Maurienne Arvan", "stop_name": "Saint-Martin-d'H\u00e8res", "type": "Gare accessible", "transport": "carTER", "transport_legende": "\ud83d\udeb2 \ud83d\udc94 Car TER \ud83d\ude8d"}, "geometry": {"type": "Point", "coordinates": [5.768919, 45.193022]}}, {"type": "Feature", "properties": {"start": "Saint-Jean-de-Maurienne Arvan", "stop_name": "Grenoble-Eug\u00e8ne-Chavant", "type": "Gare accessible", "transport": "carTER", "transport_legende": "\ud83d\udeb2 \ud83d\udc94 Car TER \ud83d\ude8d"}, "geometry": {"type": "Point", "coordinates": [5.724751, 45.172844]}}, {"type": "Feature", "properties": {"start": "Saint-Jean-de-Maurienne Arvan", "stop_name": "Grenoble-Victor-Hugo", "type": "Gare accessible", "transport": "carTER", "transport_legende": "\ud83d\udeb2 \ud83d\udc94 Car TER \ud83d\ude8d"}, "geometry": {"type": "Point", "coordinates": [5.724939, 45.188405]}}, {"type": "Feature", "properties": {"start": "Saint-Jean-de-Maurienne Arvan", "stop_name": "Grenoble", "type": "Gare accessible", "transport": "carTER", "transport_legende": "\ud83d\udeb2 \ud83d\udc94 Car TER \ud83d\ude8d"}, "geometry": {"type": "Point", "coordinates": [5.714366, 45.192693]}}, {"type": "Feature", "properties": {"start": "Saint-Jean-de-Maurienne Arvan", "stop_name": "Montm\u00e9lian", "type": "Gare accessible", "transport": "carTER", "transport_legende": "\ud83d\udeb2 \ud83d\udc94 Car TER \ud83d\ude8d"}, "geometry": {"type": "Point", "coordinates": [6.043175, 45.503082]}}, {"type": "Feature", "properties": {"start": "Saint-Jean-de-Maurienne Arvan", "stop_name": "Aiguebelle", "type": "Gare accessible", "transport": "carTER", "transport_legende": "\ud83d\udeb2 \ud83d\udc94 Car TER \ud83d\ude8d"}, "geometry": {"type": "Point", "coordinates": [6.306737, 45.543703]}}]}