{"type": "FeatureCollection", "features": [{"type": "Feature", "properties": {"start": "Sainte-Anastasie", "stop_name": "Sainte-Anastasie", "type": "Gare s\u00e9lectionn\u00e9e", "transport": "carTER", "transport_legende": "\ud83d\udeb2 \ud83d\udc94 Car TER \ud83d\ude8d"}, "geometry": {"type": "Point", "coordinates": [2.970175, 45.172167]}}, {"type": "Feature", "properties": {"start": "Sainte-Anastasie", "stop_name": "Neussargues", "type": "Gare accessible", "transport": "carTER", "transport_legende": "\ud83d\udeb2 \ud83d\udc94 Car TER \ud83d\ude8d"}, "geometry": {"type": "Point", "coordinates": [2.979087, 45.125462]}}, {"type": "Feature", "properties": {"start": "Sainte-Anastasie", "stop_name": "Allanche", "type": "Gare accessible", "transport": "carTER", "transport_legende": "\ud83d\udeb2 \ud83d\udc94 Car TER \ud83d\ude8d"}, "geometry": {"type": "Point", "coordinates": [2.931311, 45.229652]}}, {"type": "Feature", "properties": {"start": "Sainte-Anastasie", "stop_name": "Landeyrat", "type": "Gare accessible", "transport": "carTER", "transport_legende": "\ud83d\udeb2 \ud83d\udc94 Car TER \ud83d\ude8d"}, "geometry": {"type": "Point", "coordinates": [2.869594, 45.279815]}}, {"type": "Feature", "properties": {"start": "Sainte-Anastasie", "stop_name": "Marcenat", "type": "Gare accessible", "transport": "carTER", "transport_legende": "\ud83d\udeb2 \ud83d\udc94 Car TER \ud83d\ude8d"}, "geometry": {"type": "Point", "coordinates": [2.828722, 45.305259]}}, {"type": "Feature", "properties": {"start": "Sainte-Anastasie", "stop_name": "F\u00e9niers", "type": "Gare accessible", "transport": "carTER", "transport_legende": "\ud83d\udeb2 \ud83d\udc94 Car TER \ud83d\ude8d"}, "geometry": {"type": "Point", "coordinates": [2.770719, 45.324257]}}, {"type": "Feature", "properties": {"start": "Sainte-Anastasie", "stop_name": "Condat", "type": "Gare accessible", "transport": "carTER", "transport_legende": "\ud83d\udeb2 \ud83d\udc94 Car TER \ud83d\ude8d"}, "geometry": {"type": "Point", "coordinates": [2.759838, 45.334835]}}, {"type": "Feature", "properties": {"start": "Sainte-Anastasie", "stop_name": "Saint-Amandin", "type": "Gare accessible", "transport": "carTER", "transport_legende": "\ud83d\udeb2 \ud83d\udc94 Car TER \ud83d\ude8d"}, "geometry": {"type": "Point", "coordinates": [2.694622, 45.343218]}}, {"type": "Feature", "properties": {"start": "Sainte-Anastasie", "stop_name": "Riom-\u00e8s-Montagnes Clinique", "type": "Gare accessible", "transport": "carTER", "transport_legende": "\ud83d\udeb2 \ud83d\udc94 Car TER \ud83d\ude8d"}, "geometry": {"type": "Point", "coordinates": [2.659633, 45.281687]}}, {"type": "Feature", "properties": {"start": "Sainte-Anastasie", "stop_name": "Riom es Montagne la Poste", "type": "Gare accessible", "transport": "carTER", "transport_legende": "\ud83d\udeb2 \ud83d\udc94 Car TER \ud83d\ude8d"}, "geometry": {"type": "Point", "coordinates": [2.659185, 45.282836]}}]}