{"type": "FeatureCollection", "features": [{"type": "Feature", "properties": {"start": "Saint-Martin-de-Fraigneau", "stop_name": "Saint-Martin-de-Fraigneau", "type": "Gare s\u00e9lectionn\u00e9e", "transport": "carTER", "transport_legende": "\ud83d\udeb2 \ud83d\udc94 Car TER \ud83d\ude8d"}, "geometry": {"type": "Point", "coordinates": [-0.738434, 46.435103]}}, {"type": "Feature", "properties": {"start": "Saint-Martin-de-Fraigneau", "stop_name": "Niort", "type": "Gare accessible", "transport": "carTER", "transport_legende": "\ud83d\udeb2 \ud83d\udc94 Car TER \ud83d\ude8d"}, "geometry": {"type": "Point", "coordinates": [-0.454639, 46.319491]}}, {"type": "Feature", "properties": {"start": "Saint-Martin-de-Fraigneau", "stop_name": "Benet Riche Bonne", "type": "Gare accessible", "transport": "carTER", "transport_legende": "\ud83d\udeb2 \ud83d\udc94 Car TER \ud83d\ude8d"}, "geometry": {"type": "Point", "coordinates": [-0.581999, 46.373673]}}, {"type": "Feature", "properties": {"start": "Saint-Martin-de-Fraigneau", "stop_name": "Oulmes", "type": "Gare accessible", "transport": "carTER", "transport_legende": "\ud83d\udeb2 \ud83d\udc94 Car TER \ud83d\ude8d"}, "geometry": {"type": "Point", "coordinates": [-0.663616, 46.399755]}}, {"type": "Feature", "properties": {"start": "Saint-Martin-de-Fraigneau", "stop_name": "Fontenay-le-Comte PEMU", "type": "Gare accessible", "transport": "carTER", "transport_legende": "\ud83d\udeb2 \ud83d\udc94 Car TER \ud83d\ude8d"}, "geometry": {"type": "Point", "coordinates": [-0.809593, 46.461074]}}]}