{"type": "FeatureCollection", "features": [{"type": "Feature", "properties": {"start": "Sainte-Gauburge", "stop_name": "Sainte-Gauburge", "type": "Gare s\u00e9lectionn\u00e9e", "transport": "carTER", "nombre_trajet_moyen": 0.44, "transport_legende": "\ud83d\udeb2 \ud83d\udc94 Car TER \ud83d\ude8d"}, "geometry": {"type": "Point", "coordinates": [0.428164, 48.717282]}}, {"type": "Feature", "properties": {"start": "Sainte-Gauburge", "stop_name": "L'Aigle", "type": "Gare accessible", "transport": "carTER", "nombre_trajet_moyen": 0.44, "transport_legende": "\ud83d\udeb2 \ud83d\udc94 Car TER \ud83d\ude8d"}, "geometry": {"type": "Point", "coordinates": [0.620014, 48.766229]}}, {"type": "Feature", "properties": {"start": "Sainte-Gauburge", "stop_name": "Aube Centre RN26", "type": "Gare accessible", "transport": "carTER", "nombre_trajet_moyen": 0.44, "transport_legende": "\ud83d\udeb2 \ud83d\udc94 Car TER \ud83d\ude8d"}, "geometry": {"type": "Point", "coordinates": [0.545588, 48.739462]}}, {"type": "Feature", "properties": {"start": "Sainte-Gauburge", "stop_name": "Le Merlerault", "type": "Gare accessible", "transport": "carTER", "nombre_trajet_moyen": 0.44, "transport_legende": "\ud83d\udeb2 \ud83d\udc94 Car TER \ud83d\ude8d"}, "geometry": {"type": "Point", "coordinates": [0.283915, 48.700294]}}, {"type": "Feature", "properties": {"start": "Sainte-Gauburge", "stop_name": "Nonant-le-Pin", "type": "Gare accessible", "transport": "carTER", "nombre_trajet_moyen": 0.44, "transport_legende": "\ud83d\udeb2 \ud83d\udc94 Car TER \ud83d\ude8d"}, "geometry": {"type": "Point", "coordinates": [0.22364, 48.705017]}}, {"type": "Feature", "properties": {"start": "Sainte-Gauburge", "stop_name": "Surdon", "type": "Gare accessible", "transport": "carTER", "nombre_trajet_moyen": 0.44, "transport_legende": "\ud83d\udeb2 \ud83d\udc94 Car TER \ud83d\ude8d"}, "geometry": {"type": "Point", "coordinates": [0.13441, 48.664769]}}]}