{"type": "FeatureCollection", "features": [{"type": "Feature", "properties": {"start": "Sarreguemines Coll\u00e8ge Jean Jaur\u00e8s", "stop_name": "Sarreguemines Coll\u00e8ge Jean Jaur\u00e8s", "type": "Gare s\u00e9lectionn\u00e9e", "transport": "carTER", "transport_legende": "\ud83d\udeb2 \ud83d\udc94 Car TER \ud83d\ude8d"}, "geometry": {"type": "Point", "coordinates": [7.048974, 49.103116]}}, {"type": "Feature", "properties": {"start": "Sarreguemines Coll\u00e8ge Jean Jaur\u00e8s", "stop_name": "Diebling Maison Foresti\u00e8re", "type": "Gare accessible", "transport": "carTER", "transport_legende": "\ud83d\udeb2 \ud83d\udc94 Car TER \ud83d\ude8d"}, "geometry": {"type": "Point", "coordinates": [6.933545, 49.112022]}}, {"type": "Feature", "properties": {"start": "Sarreguemines Coll\u00e8ge Jean Jaur\u00e8s", "stop_name": "Diebling Centre", "type": "Gare accessible", "transport": "carTER", "transport_legende": "\ud83d\udeb2 \ud83d\udc94 Car TER \ud83d\ude8d"}, "geometry": {"type": "Point", "coordinates": [6.939969, 49.109148]}}, {"type": "Feature", "properties": {"start": "Sarreguemines Coll\u00e8ge Jean Jaur\u00e8s", "stop_name": "Hundling Stade", "type": "Gare accessible", "transport": "carTER", "transport_legende": "\ud83d\udeb2 \ud83d\udc94 Car TER \ud83d\ude8d"}, "geometry": {"type": "Point", "coordinates": [6.981527, 49.107769]}}, {"type": "Feature", "properties": {"start": "Sarreguemines Coll\u00e8ge Jean Jaur\u00e8s", "stop_name": "Ippling Rue de Sarreguemines", "type": "Gare accessible", "transport": "carTER", "transport_legende": "\ud83d\udeb2 \ud83d\udc94 Car TER \ud83d\ude8d"}, "geometry": {"type": "Point", "coordinates": [7.004908, 49.106359]}}, {"type": "Feature", "properties": {"start": "Sarreguemines Coll\u00e8ge Jean Jaur\u00e8s", "stop_name": "Sarreguemines Utzschneider", "type": "Gare accessible", "transport": "carTER", "transport_legende": "\ud83d\udeb2 \ud83d\udc94 Car TER \ud83d\ude8d"}, "geometry": {"type": "Point", "coordinates": [7.067294, 49.111667]}}, {"type": "Feature", "properties": {"start": "Sarreguemines Coll\u00e8ge Jean Jaur\u00e8s", "stop_name": "Sarreguemines Lyc\u00e9e Pange", "type": "Gare accessible", "transport": "carTER", "transport_legende": "\ud83d\udeb2 \ud83d\udc94 Car TER \ud83d\ude8d"}, "geometry": {"type": "Point", "coordinates": [7.064027, 49.108478]}}]}