{"type": "FeatureCollection", "features": [{"type": "Feature", "properties": {"start": "SAUVERNY RD15", "stop_name": "SAUVERNY RD15", "type": "Gare s\u00e9lectionn\u00e9e", "transport": "carTER", "transport_legende": "\ud83d\udeb2 \ud83d\udc94 Car TER \ud83d\ude8d"}, "geometry": {"type": "Point", "coordinates": [6.107891, 46.314661]}}, {"type": "Feature", "properties": {"start": "SAUVERNY RD15", "stop_name": "Bellegarde Gare Routi\u00e8re", "type": "Gare accessible", "transport": "carTER", "transport_legende": "\ud83d\udeb2 \ud83d\udc94 Car TER \ud83d\ude8d"}, "geometry": {"type": "Point", "coordinates": [5.824986, 46.110645]}}, {"type": "Feature", "properties": {"start": "SAUVERNY RD15", "stop_name": "LEAZ Gr\u00e9sin", "type": "Gare accessible", "transport": "carTER", "transport_legende": "\ud83d\udeb2 \ud83d\udc94 Car TER \ud83d\ude8d"}, "geometry": {"type": "Point", "coordinates": [5.861807, 46.091712]}}, {"type": "Feature", "properties": {"start": "SAUVERNY RD15", "stop_name": "LEAZ Longeray", "type": "Gare accessible", "transport": "carTER", "transport_legende": "\ud83d\udeb2 \ud83d\udc94 Car TER \ud83d\ude8d"}, "geometry": {"type": "Point", "coordinates": [5.883254, 46.115362]}}, {"type": "Feature", "properties": {"start": "SAUVERNY RD15", "stop_name": "COLLONGES Poste (Ain)", "type": "Gare accessible", "transport": "carTER", "transport_legende": "\ud83d\udeb2 \ud83d\udc94 Car TER \ud83d\ude8d"}, "geometry": {"type": "Point", "coordinates": [5.903134, 46.136811]}}, {"type": "Feature", "properties": {"start": "SAUVERNY RD15", "stop_name": "FARGES Eglise", "type": "Gare accessible", "transport": "carTER", "transport_legende": "\ud83d\udeb2 \ud83d\udc94 Car TER \ud83d\ude8d"}, "geometry": {"type": "Point", "coordinates": [5.906042, 46.168463]}}, {"type": "Feature", "properties": {"start": "SAUVERNY RD15", "stop_name": "PERON Logras", "type": "Gare accessible", "transport": "carTER", "transport_legende": "\ud83d\udeb2 \ud83d\udc94 Car TER \ud83d\ude8d"}, "geometry": {"type": "Point", "coordinates": [5.917594, 46.180116]}}, {"type": "Feature", "properties": {"start": "SAUVERNY RD15", "stop_name": "PERON RD984", "type": "Gare accessible", "transport": "carTER", "transport_legende": "\ud83d\udeb2 \ud83d\udc94 Car TER \ud83d\ude8d"}, "geometry": {"type": "Point", "coordinates": [5.929806, 46.187652]}}, {"type": "Feature", "properties": {"start": "SAUVERNY RD15", "stop_name": "SAINT JEAN DE GONVILLE RD984", "type": "Gare accessible", "transport": "carTER", "transport_legende": "\ud83d\udeb2 \ud83d\udc94 Car TER \ud83d\ude8d"}, "geometry": {"type": "Point", "coordinates": [5.960426, 46.206656]}}, {"type": "Feature", "properties": {"start": "SAUVERNY RD15", "stop_name": "THOIRY Val Thoiry", "type": "Gare accessible", "transport": "carTER", "transport_legende": "\ud83d\udeb2 \ud83d\udc94 Car TER \ud83d\ude8d"}, "geometry": {"type": "Point", "coordinates": [5.992444, 46.227114]}}, {"type": "Feature", "properties": {"start": "SAUVERNY RD15", "stop_name": "THOIRY Mairie", "type": "Gare accessible", "transport": "carTER", "transport_legende": "\ud83d\udeb2 \ud83d\udc94 Car TER \ud83d\ude8d"}, "geometry": {"type": "Point", "coordinates": [5.98024, 46.236107]}}, {"type": "Feature", "properties": {"start": "SAUVERNY RD15", "stop_name": "THOIRY Allemogne", "type": "Gare accessible", "transport": "carTER", "transport_legende": "\ud83d\udeb2 \ud83d\udc94 Car TER \ud83d\ude8d"}, "geometry": {"type": "Point", "coordinates": [5.984344, 46.244473]}}, {"type": "Feature", "properties": {"start": "SAUVERNY RD15", "stop_name": "SERGY Centre", "type": "Gare accessible", "transport": "carTER", "transport_legende": "\ud83d\udeb2 \ud83d\udc94 Car TER \ud83d\ude8d"}, "geometry": {"type": "Point", "coordinates": [6.011399, 46.248455]}}, {"type": "Feature", "properties": {"start": "SAUVERNY RD15", "stop_name": "Saint-Genis-Pouilly Centre Jean Monnet", "type": "Gare accessible", "transport": "carTER", "transport_legende": "\ud83d\udeb2 \ud83d\udc94 Car TER \ud83d\ude8d"}, "geometry": {"type": "Point", "coordinates": [6.022978, 46.244904]}}, {"type": "Feature", "properties": {"start": "SAUVERNY RD15", "stop_name": "Saint-Genis-Pouilly Porte de France", "type": "Gare accessible", "transport": "carTER", "transport_legende": "\ud83d\udeb2 \ud83d\udc94 Car TER \ud83d\ude8d"}, "geometry": {"type": "Point", "coordinates": [6.029241, 46.240849]}}, {"type": "Feature", "properties": {"start": "SAUVERNY RD15", "stop_name": "Pr\u00e9vessin-Mo\u00ebns Mairie", "type": "Gare accessible", "transport": "carTER", "transport_legende": "\ud83d\udeb2 \ud83d\udc94 Car TER \ud83d\ude8d"}, "geometry": {"type": "Point", "coordinates": [6.081099, 46.25446]}}, {"type": "Feature", "properties": {"start": "SAUVERNY RD15", "stop_name": "FERNEY-VOLTAIRE Mairie", "type": "Gare accessible", "transport": "carTER", "transport_legende": "\ud83d\udeb2 \ud83d\udc94 Car TER \ud83d\ude8d"}, "geometry": {"type": "Point", "coordinates": [6.10822, 46.256019]}}, {"type": "Feature", "properties": {"start": "SAUVERNY RD15", "stop_name": "Ferney-Voltaire Lyc\u00e9e", "type": "Gare accessible", "transport": "carTER", "transport_legende": "\ud83d\udeb2 \ud83d\udc94 Car TER \ud83d\ude8d"}, "geometry": {"type": "Point", "coordinates": [6.1126, 46.2632]}}, {"type": "Feature", "properties": {"start": "SAUVERNY RD15", "stop_name": "ORNEX Maconnex", "type": "Gare accessible", "transport": "carTER", "transport_legende": "\ud83d\udeb2 \ud83d\udc94 Car TER \ud83d\ude8d"}, "geometry": {"type": "Point", "coordinates": [6.08664, 46.28346]}}, {"type": "Feature", "properties": {"start": "SAUVERNY RD15", "stop_name": "VERSONNEX Village", "type": "Gare accessible", "transport": "carTER", "transport_legende": "\ud83d\udeb2 \ud83d\udc94 Car TER \ud83d\ude8d"}, "geometry": {"type": "Point", "coordinates": [6.095046, 46.300624]}}, {"type": "Feature", "properties": {"start": "SAUVERNY RD15", "stop_name": "Versonnex-Gen\u00e9vriers", "type": "Gare accessible", "transport": "carTER", "transport_legende": "\ud83d\udeb2 \ud83d\udc94 Car TER \ud83d\ude8d"}, "geometry": {"type": "Point", "coordinates": [6.095867, 46.301006]}}, {"type": "Feature", "properties": {"start": "SAUVERNY RD15", "stop_name": "GRILLY Mairie", "type": "Gare accessible", "transport": "carTER", "transport_legende": "\ud83d\udeb2 \ud83d\udc94 Car TER \ud83d\ude8d"}, "geometry": {"type": "Point", "coordinates": [6.113988, 46.331296]}}, {"type": "Feature", "properties": {"start": "SAUVERNY RD15", "stop_name": "Divonne-les-Bains Ancienne Gare", "type": "Gare accessible", "transport": "carTER", "transport_legende": "\ud83d\udeb2 \ud83d\udc94 Car TER \ud83d\ude8d"}, "geometry": {"type": "Point", "coordinates": [6.137003, 46.353462]}}, {"type": "Feature", "properties": {"start": "SAUVERNY RD15", "stop_name": "Bellegarde-sur-Valserine Lyc\u00e9e", "type": "Gare accessible", "transport": "carTER", "transport_legende": "\ud83d\udeb2 \ud83d\udc94 Car TER \ud83d\ude8d"}, "geometry": {"type": "Point", "coordinates": [5.815965, 46.11534]}}]}