{"type": "FeatureCollection", "features": [{"type": "Feature", "properties": {"start": "Saxon-Sion Basilique", "stop_name": "Saxon-Sion Basilique", "type": "Gare s\u00e9lectionn\u00e9e", "transport": "carTER", "transport_legende": "\ud83d\udeb2 \ud83d\udc94 Car TER \ud83d\ude8d"}, "geometry": {"type": "Point", "coordinates": [6.084929, 48.428594]}}, {"type": "Feature", "properties": {"start": "Saxon-Sion Basilique", "stop_name": "Nancy", "type": "Gare accessible", "transport": "carTER", "transport_legende": "\ud83d\udeb2 \ud83d\udc94 Car TER \ud83d\ude8d"}, "geometry": {"type": "Point", "coordinates": [6.174579, 48.689857]}}, {"type": "Feature", "properties": {"start": "Saxon-Sion Basilique", "stop_name": "Ceintrey Eglise", "type": "Gare accessible", "transport": "carTER", "transport_legende": "\ud83d\udeb2 \ud83d\udc94 Car TER \ud83d\ude8d"}, "geometry": {"type": "Point", "coordinates": [6.163995, 48.524463]}}, {"type": "Feature", "properties": {"start": "Saxon-Sion Basilique", "stop_name": "V\u00e9zelise Beauregard", "type": "Gare accessible", "transport": "carTER", "transport_legende": "\ud83d\udeb2 \ud83d\udc94 Car TER \ud83d\ude8d"}, "geometry": {"type": "Point", "coordinates": [6.093343, 48.488983]}}, {"type": "Feature", "properties": {"start": "Saxon-Sion Basilique", "stop_name": "Tantonville Rue Louis Pasteur", "type": "Gare accessible", "transport": "carTER", "transport_legende": "\ud83d\udeb2 \ud83d\udc94 Car TER \ud83d\ude8d"}, "geometry": {"type": "Point", "coordinates": [6.135556, 48.467881]}}, {"type": "Feature", "properties": {"start": "Saxon-Sion Basilique", "stop_name": "Praye-sous-Vaud\u00e9mont PN", "type": "Gare accessible", "transport": "carTER", "transport_legende": "\ud83d\udeb2 \ud83d\udc94 Car TER \ud83d\ude8d"}, "geometry": {"type": "Point", "coordinates": [6.100488, 48.433054]}}, {"type": "Feature", "properties": {"start": "Saxon-Sion Basilique", "stop_name": "Diarville Place Raymond Midon", "type": "Gare accessible", "transport": "carTER", "transport_legende": "\ud83d\udeb2 \ud83d\udc94 Car TER \ud83d\ude8d"}, "geometry": {"type": "Point", "coordinates": [6.131793, 48.39461]}}, {"type": "Feature", "properties": {"start": "Saxon-Sion Basilique", "stop_name": "Mirecourt", "type": "Gare accessible", "transport": "carTER", "transport_legende": "\ud83d\udeb2 \ud83d\udc94 Car TER \ud83d\ude8d"}, "geometry": {"type": "Point", "coordinates": [6.129464, 48.299249]}}]}