{"type": "FeatureCollection", "features": [{"type": "Feature", "properties": {"start": "Schoenenbourg Centre", "stop_name": "Schoenenbourg Centre", "type": "Gare s\u00e9lectionn\u00e9e", "transport": "carTER", "transport_legende": "\ud83d\udeb2 \ud83d\udc94 Car TER \ud83d\ude8d"}, "geometry": {"type": "Point", "coordinates": [7.912312, 48.952404]}}, {"type": "Feature", "properties": {"start": "Schoenenbourg Centre", "stop_name": "Wissembourg", "type": "Gare accessible", "transport": "carTER", "transport_legende": "\ud83d\udeb2 \ud83d\udc94 Car TER \ud83d\ude8d"}, "geometry": {"type": "Point", "coordinates": [7.95018, 49.031931]}}, {"type": "Feature", "properties": {"start": "Schoenenbourg Centre", "stop_name": "Wissembourg Altenstadt", "type": "Gare accessible", "transport": "carTER", "transport_legende": "\ud83d\udeb2 \ud83d\udc94 Car TER \ud83d\ude8d"}, "geometry": {"type": "Point", "coordinates": [7.963882, 49.028254]}}, {"type": "Feature", "properties": {"start": "Schoenenbourg Centre", "stop_name": "Riedseltz Salle Polyvalente", "type": "Gare accessible", "transport": "carTER", "transport_legende": "\ud83d\udeb2 \ud83d\udc94 Car TER \ud83d\ude8d"}, "geometry": {"type": "Point", "coordinates": [7.955299, 48.994381]}}, {"type": "Feature", "properties": {"start": "Schoenenbourg Centre", "stop_name": "Riedseltz Arr\u00eat Chapelle", "type": "Gare accessible", "transport": "carTER", "transport_legende": "\ud83d\udeb2 \ud83d\udc94 Car TER \ud83d\ude8d"}, "geometry": {"type": "Point", "coordinates": [7.950727, 48.990344]}}, {"type": "Feature", "properties": {"start": "Schoenenbourg Centre", "stop_name": "Ingolsheim Centre", "type": "Gare accessible", "transport": "carTER", "transport_legende": "\ud83d\udeb2 \ud83d\udc94 Car TER \ud83d\ude8d"}, "geometry": {"type": "Point", "coordinates": [7.937294, 48.974765]}}, {"type": "Feature", "properties": {"start": "Schoenenbourg Centre", "stop_name": "Soultz-sous-For\u00eats", "type": "Gare accessible", "transport": "carTER", "transport_legende": "\ud83d\udeb2 \ud83d\udc94 Car TER \ud83d\ude8d"}, "geometry": {"type": "Point", "coordinates": [7.882664, 48.934775]}}, {"type": "Feature", "properties": {"start": "Schoenenbourg Centre", "stop_name": "Surbourg Rue Saint-Abogast", "type": "Gare accessible", "transport": "carTER", "transport_legende": "\ud83d\udeb2 \ud83d\udc94 Car TER \ud83d\ude8d"}, "geometry": {"type": "Point", "coordinates": [7.847097, 48.906924]}}, {"type": "Feature", "properties": {"start": "Schoenenbourg Centre", "stop_name": "Walbourg S\u00e9minaire", "type": "Gare accessible", "transport": "carTER", "transport_legende": "\ud83d\udeb2 \ud83d\udc94 Car TER \ud83d\ude8d"}, "geometry": {"type": "Point", "coordinates": [7.789394, 48.886536]}}]}