{"type": "FeatureCollection", "features": [{"type": "Feature", "properties": {"start": "Tauves", "stop_name": "Tauves", "type": "Gare s\u00e9lectionn\u00e9e", "transport": "carTER", "nombre_trajet_moyen": 2.11, "transport_legende": "\ud83d\udeb2 \ud83d\udc94 Car TER \ud83d\ude8d"}, "geometry": {"type": "Point", "coordinates": [2.622136, 45.560333]}}, {"type": "Feature", "properties": {"start": "Tauves", "stop_name": "Clermont-Ferrand", "type": "Gare accessible", "transport": "carTER", "nombre_trajet_moyen": 2.11, "transport_legende": "\ud83d\udeb2 \ud83d\udc94 Car TER \ud83d\ude8d"}, "geometry": {"type": "Point", "coordinates": [3.100543, 45.778945]}}, {"type": "Feature", "properties": {"start": "Tauves", "stop_name": "Rochefort-Montagne", "type": "Gare accessible", "transport": "carTER", "nombre_trajet_moyen": 2.11, "transport_legende": "\ud83d\udeb2 \ud83d\udc94 Car TER \ud83d\ude8d"}, "geometry": {"type": "Point", "coordinates": [2.805494, 45.687132]}}, {"type": "Feature", "properties": {"start": "Tauves", "stop_name": "Laqueuille", "type": "Gare accessible", "transport": "carTER", "nombre_trajet_moyen": 2.11, "transport_legende": "\ud83d\udeb2 \ud83d\udc94 Car TER \ud83d\ude8d"}, "geometry": {"type": "Point", "coordinates": [2.704976, 45.646917]}}, {"type": "Feature", "properties": {"start": "Tauves", "stop_name": "Bagnols-Stade", "type": "Gare accessible", "transport": "carTER", "nombre_trajet_moyen": 1.87, "transport_legende": "\ud83d\udeb2 \ud83d\udc94 Car TER \ud83d\ude8d"}, "geometry": {"type": "Point", "coordinates": [2.597057, 45.513707]}}, {"type": "Feature", "properties": {"start": "Tauves", "stop_name": "Lanobre", "type": "Gare accessible", "transport": "carTER", "nombre_trajet_moyen": 2.11, "transport_legende": "\ud83d\udeb2 \ud83d\udc94 Car TER \ud83d\ude8d"}, "geometry": {"type": "Point", "coordinates": [2.53395, 45.437003]}}, {"type": "Feature", "properties": {"start": "Tauves", "stop_name": "Bort-les-Orgues", "type": "Gare accessible", "transport": "carTER", "nombre_trajet_moyen": 2.11, "transport_legende": "\ud83d\udeb2 \ud83d\udc94 Car TER \ud83d\ude8d"}, "geometry": {"type": "Point", "coordinates": [2.502565, 45.406435]}}, {"type": "Feature", "properties": {"start": "Tauves", "stop_name": "Bort-les-Orgues Ville", "type": "Gare accessible", "transport": "carTER", "nombre_trajet_moyen": 2.11, "transport_legende": "\ud83d\udeb2 \ud83d\udc94 Car TER \ud83d\ude8d"}, "geometry": {"type": "Point", "coordinates": [2.499293, 45.399341]}}, {"type": "Feature", "properties": {"start": "Tauves", "stop_name": "Les Quatre Routes de Saignes", "type": "Gare accessible", "transport": "carTER", "nombre_trajet_moyen": 2.11, "transport_legende": "\ud83d\udeb2 \ud83d\udc94 Car TER \ud83d\ude8d"}, "geometry": {"type": "Point", "coordinates": [2.463695, 45.354]}}, {"type": "Feature", "properties": {"start": "Tauves", "stop_name": "Ydes", "type": "Gare accessible", "transport": "carTER", "nombre_trajet_moyen": 2.11, "transport_legende": "\ud83d\udeb2 \ud83d\udc94 Car TER \ud83d\ude8d"}, "geometry": {"type": "Point", "coordinates": [2.436326, 45.344155]}}, {"type": "Feature", "properties": {"start": "Tauves", "stop_name": "Vendes", "type": "Gare accessible", "transport": "carTER", "nombre_trajet_moyen": 2.11, "transport_legende": "\ud83d\udeb2 \ud83d\udc94 Car TER \ud83d\ude8d"}, "geometry": {"type": "Point", "coordinates": [2.388322, 45.296297]}}, {"type": "Feature", "properties": {"start": "Tauves", "stop_name": "Mauriac", "type": "Gare accessible", "transport": "carTER", "nombre_trajet_moyen": 2.11, "transport_legende": "\ud83d\udeb2 \ud83d\udc94 Car TER \ud83d\ude8d"}, "geometry": {"type": "Point", "coordinates": [2.34469, 45.221666]}}, {"type": "Feature", "properties": {"start": "Tauves", "stop_name": "Mauriac Lyc\u00e9e Cortat", "type": "Gare accessible", "transport": "carTER", "nombre_trajet_moyen": 0.36, "transport_legende": "\ud83d\udeb2 \ud83d\udc94 Car TER \ud83d\ude8d"}, "geometry": {"type": "Point", "coordinates": [2.341249, 45.213395]}}]}