{"type": "FeatureCollection", "features": [{"type": "Feature", "properties": {"start": "Thiers", "stop_name": "Thiers", "type": "Gare s\u00e9lectionn\u00e9e", "transport": "carTER", "nombre_trajet_moyen": 4.92, "transport_legende": "\ud83d\udeb2 \ud83d\udc94 Car TER \ud83d\ude8d"}, "geometry": {"type": "Point", "coordinates": [3.543099, 45.861093]}}, {"type": "Feature", "properties": {"start": "Thiers", "stop_name": "Clermont-Ferrand", "type": "Gare accessible", "transport": "carTER", "nombre_trajet_moyen": 1.3, "transport_legende": "\ud83d\udeb2 \ud83d\udc94 Car TER \ud83d\ude8d"}, "geometry": {"type": "Point", "coordinates": [3.100543, 45.778945]}}, {"type": "Feature", "properties": {"start": "Thiers", "stop_name": "Lezoux", "type": "Gare accessible", "transport": "carTER", "nombre_trajet_moyen": 1.02, "transport_legende": "\ud83d\udeb2 \ud83d\udc94 Car TER \ud83d\ude8d"}, "geometry": {"type": "Point", "coordinates": [3.385986, 45.821218]}}, {"type": "Feature", "properties": {"start": "Thiers", "stop_name": "Pont de Dore", "type": "Gare accessible", "transport": "carTER", "nombre_trajet_moyen": 4.09, "transport_legende": "\ud83d\udeb2 \ud83d\udc94 Car TER \ud83d\ude8d"}, "geometry": {"type": "Point", "coordinates": [3.49045, 45.842875]}}, {"type": "Feature", "properties": {"start": "Thiers", "stop_name": "Chabreloche Pont Bascule", "type": "Gare accessible", "transport": "carTER", "nombre_trajet_moyen": 2.57, "transport_legende": "\ud83d\udeb2 \ud83d\udc94 Car TER \ud83d\ude8d"}, "geometry": {"type": "Point", "coordinates": [3.694762, 45.879388]}}, {"type": "Feature", "properties": {"start": "Thiers", "stop_name": "Noir\u00e9table", "type": "Gare accessible", "transport": "carTER", "nombre_trajet_moyen": 2.25, "transport_legende": "\ud83d\udeb2 \ud83d\udc94 Car TER \ud83d\ude8d"}, "geometry": {"type": "Point", "coordinates": [3.761069, 45.815964]}}, {"type": "Feature", "properties": {"start": "Thiers", "stop_name": "St-Etienne-Ch\u00e2tcrx. G Routi\u00e8re", "type": "Gare accessible", "transport": "carTER", "nombre_trajet_moyen": 2.41, "transport_legende": "\ud83d\udeb2 \ud83d\udc94 Car TER \ud83d\ude8d"}, "geometry": {"type": "Point", "coordinates": [4.401156, 45.442658]}}, {"type": "Feature", "properties": {"start": "Thiers", "stop_name": "Bonson", "type": "Gare accessible", "transport": "carTER", "nombre_trajet_moyen": 2.41, "transport_legende": "\ud83d\udeb2 \ud83d\udc94 Car TER \ud83d\ude8d"}, "geometry": {"type": "Point", "coordinates": [4.21625, 45.522197]}}, {"type": "Feature", "properties": {"start": "Thiers", "stop_name": "Montbrison", "type": "Gare accessible", "transport": "carTER", "nombre_trajet_moyen": 2.41, "transport_legende": "\ud83d\udeb2 \ud83d\udc94 Car TER \ud83d\ude8d"}, "geometry": {"type": "Point", "coordinates": [4.07824, 45.604481]}}, {"type": "Feature", "properties": {"start": "Thiers", "stop_name": "Bo\u00ebn", "type": "Gare accessible", "transport": "carTER", "nombre_trajet_moyen": 2.41, "transport_legende": "\ud83d\udeb2 \ud83d\udc94 Car TER \ud83d\ude8d"}, "geometry": {"type": "Point", "coordinates": [4.005061, 45.741386]}}, {"type": "Feature", "properties": {"start": "Thiers", "stop_name": "Vertaizon", "type": "Gare accessible", "transport": "carTER", "nombre_trajet_moyen": 1.3, "transport_legende": "\ud83d\udeb2 \ud83d\udc94 Car TER \ud83d\ude8d"}, "geometry": {"type": "Point", "coordinates": [3.288241, 45.784579]}}, {"type": "Feature", "properties": {"start": "Thiers", "stop_name": "Celles-sur-Durolle Arr\u00eat des Cars", "type": "Gare accessible", "transport": "carTER", "nombre_trajet_moyen": 0.16, "transport_legende": "\ud83d\udeb2 \ud83d\udc94 Car TER \ud83d\ude8d"}, "geometry": {"type": "Point", "coordinates": [3.644889, 45.866782]}}, {"type": "Feature", "properties": {"start": "Thiers", "stop_name": "Ambert Halte Routi\u00e8re", "type": "Gare accessible", "transport": "carTER", "nombre_trajet_moyen": 2.76, "transport_legende": "\ud83d\udeb2 \ud83d\udc94 Car TER \ud83d\ude8d"}, "geometry": {"type": "Point", "coordinates": [3.735035, 45.549644]}}, {"type": "Feature", "properties": {"start": "Thiers", "stop_name": "Ambert", "type": "Gare accessible", "transport": "carTER", "nombre_trajet_moyen": 2.76, "transport_legende": "\ud83d\udeb2 \ud83d\udc94 Car TER \ud83d\ude8d"}, "geometry": {"type": "Point", "coordinates": [3.739699, 45.550621]}}, {"type": "Feature", "properties": {"start": "Thiers", "stop_name": "Vertolaye", "type": "Gare accessible", "transport": "carTER", "nombre_trajet_moyen": 2.76, "transport_legende": "\ud83d\udeb2 \ud83d\udc94 Car TER \ud83d\ude8d"}, "geometry": {"type": "Point", "coordinates": [3.705622, 45.642982]}}, {"type": "Feature", "properties": {"start": "Thiers", "stop_name": "Olliergues", "type": "Gare accessible", "transport": "carTER", "nombre_trajet_moyen": 2.76, "transport_legende": "\ud83d\udeb2 \ud83d\udc94 Car TER \ud83d\ude8d"}, "geometry": {"type": "Point", "coordinates": [3.636512, 45.675526]}}, {"type": "Feature", "properties": {"start": "Thiers", "stop_name": "Giroux", "type": "Gare accessible", "transport": "carTER", "nombre_trajet_moyen": 2.76, "transport_legende": "\ud83d\udeb2 \ud83d\udc94 Car TER \ud83d\ude8d"}, "geometry": {"type": "Point", "coordinates": [3.590314, 45.695303]}}, {"type": "Feature", "properties": {"start": "Thiers", "stop_name": "Courpi\u00e8re", "type": "Gare accessible", "transport": "carTER", "nombre_trajet_moyen": 2.76, "transport_legende": "\ud83d\udeb2 \ud83d\udc94 Car TER \ud83d\ude8d"}, "geometry": {"type": "Point", "coordinates": [3.544014, 45.75757]}}, {"type": "Feature", "properties": {"start": "Thiers", "stop_name": "N\u00e9ronde-sur-Dore", "type": "Gare accessible", "transport": "carTER", "nombre_trajet_moyen": 2.76, "transport_legende": "\ud83d\udeb2 \ud83d\udc94 Car TER \ud83d\ude8d"}, "geometry": {"type": "Point", "coordinates": [3.520595, 45.798706]}}, {"type": "Feature", "properties": {"start": "Thiers", "stop_name": "Pont-de-Dore le Chambon", "type": "Gare accessible", "transport": "carTER", "nombre_trajet_moyen": 3.81, "transport_legende": "\ud83d\udeb2 \ud83d\udc94 Car TER \ud83d\ude8d"}, "geometry": {"type": "Point", "coordinates": [3.508008, 45.840864]}}, {"type": "Feature", "properties": {"start": "Thiers", "stop_name": "Thiers le Moutier", "type": "Gare accessible", "transport": "carTER", "nombre_trajet_moyen": 3.81, "transport_legende": "\ud83d\udeb2 \ud83d\udc94 Car TER \ud83d\ude8d"}, "geometry": {"type": "Point", "coordinates": [3.537501, 45.84975]}}, {"type": "Feature", "properties": {"start": "Thiers", "stop_name": "Thiers Mairie", "type": "Gare accessible", "transport": "carTER", "nombre_trajet_moyen": 3.81, "transport_legende": "\ud83d\udeb2 \ud83d\udc94 Car TER \ud83d\ude8d"}, "geometry": {"type": "Point", "coordinates": [3.547498, 45.854994]}}, {"type": "Feature", "properties": {"start": "Thiers", "stop_name": "Thiers Lyc\u00e9e", "type": "Gare accessible", "transport": "carTER", "nombre_trajet_moyen": 3.81, "transport_legende": "\ud83d\udeb2 \ud83d\udc94 Car TER \ud83d\ude8d"}, "geometry": {"type": "Point", "coordinates": [3.53999, 45.86193]}}, {"type": "Feature", "properties": {"start": "Thiers", "stop_name": "La Chauprillade", "type": "Gare accessible", "transport": "carTER", "nombre_trajet_moyen": 3.81, "transport_legende": "\ud83d\udeb2 \ud83d\udc94 Car TER \ud83d\ude8d"}, "geometry": {"type": "Point", "coordinates": [3.518406, 45.903327]}}, {"type": "Feature", "properties": {"start": "Thiers", "stop_name": "La Croix Saint-Bonnet", "type": "Gare accessible", "transport": "carTER", "nombre_trajet_moyen": 3.81, "transport_legende": "\ud83d\udeb2 \ud83d\udc94 Car TER \ud83d\ude8d"}, "geometry": {"type": "Point", "coordinates": [3.518302, 45.90504]}}, {"type": "Feature", "properties": {"start": "Thiers", "stop_name": "Puy-Guillaume Emma\u00fcs", "type": "Gare accessible", "transport": "carTER", "nombre_trajet_moyen": 3.81, "transport_legende": "\ud83d\udeb2 \ud83d\udc94 Car TER \ud83d\ude8d"}, "geometry": {"type": "Point", "coordinates": [3.480467, 45.950337]}}, {"type": "Feature", "properties": {"start": "Thiers", "stop_name": "Puy-Guillaume", "type": "Gare accessible", "transport": "carTER", "nombre_trajet_moyen": 3.81, "transport_legende": "\ud83d\udeb2 \ud83d\udc94 Car TER \ud83d\ude8d"}, "geometry": {"type": "Point", "coordinates": [3.474311, 45.96033]}}, {"type": "Feature", "properties": {"start": "Thiers", "stop_name": "Ris", "type": "Gare accessible", "transport": "carTER", "nombre_trajet_moyen": 3.81, "transport_legende": "\ud83d\udeb2 \ud83d\udc94 Car TER \ud83d\ude8d"}, "geometry": {"type": "Point", "coordinates": [3.486099, 46.00395]}}, {"type": "Feature", "properties": {"start": "Thiers", "stop_name": "Mariol", "type": "Gare accessible", "transport": "carTER", "nombre_trajet_moyen": 3.81, "transport_legende": "\ud83d\udeb2 \ud83d\udc94 Car TER \ud83d\ude8d"}, "geometry": {"type": "Point", "coordinates": [3.495822, 46.021198]}}, {"type": "Feature", "properties": {"start": "Thiers", "stop_name": "Saint-Yorre Croix des Vernes", "type": "Gare accessible", "transport": "carTER", "nombre_trajet_moyen": 3.81, "transport_legende": "\ud83d\udeb2 \ud83d\udc94 Car TER \ud83d\ude8d"}, "geometry": {"type": "Point", "coordinates": [3.469416, 46.054406]}}, {"type": "Feature", "properties": {"start": "Thiers", "stop_name": "Saint-Yorre Nouvel H\u00f4tel", "type": "Gare accessible", "transport": "carTER", "nombre_trajet_moyen": 3.81, "transport_legende": "\ud83d\udeb2 \ud83d\udc94 Car TER \ud83d\ude8d"}, "geometry": {"type": "Point", "coordinates": [3.464915, 46.066991]}}, {"type": "Feature", "properties": {"start": "Thiers", "stop_name": "Abrest Mairie", "type": "Gare accessible", "transport": "carTER", "nombre_trajet_moyen": 3.81, "transport_legende": "\ud83d\udeb2 \ud83d\udc94 Car TER \ud83d\ude8d"}, "geometry": {"type": "Point", "coordinates": [3.444791, 46.098868]}}, {"type": "Feature", "properties": {"start": "Thiers", "stop_name": "Vichy", "type": "Gare accessible", "transport": "carTER", "nombre_trajet_moyen": 3.81, "transport_legende": "\ud83d\udeb2 \ud83d\udc94 Car TER \ud83d\ude8d"}, "geometry": {"type": "Point", "coordinates": [3.430476, 46.126991]}}, {"type": "Feature", "properties": {"start": "Thiers", "stop_name": "Saint-\u00c9tienne La Terrasse", "type": "Gare accessible", "transport": "carTER", "nombre_trajet_moyen": 0.69, "transport_legende": "\ud83d\udeb2 \ud83d\udc94 Car TER \ud83d\ude8d"}, "geometry": {"type": "Point", "coordinates": [4.379554, 45.464868]}}, {"type": "Feature", "properties": {"start": "Thiers", "stop_name": "Andr\u00e9zieux", "type": "Gare accessible", "transport": "carTER", "nombre_trajet_moyen": 0.69, "transport_legende": "\ud83d\udeb2 \ud83d\udc94 Car TER \ud83d\ude8d"}, "geometry": {"type": "Point", "coordinates": [4.255418, 45.521736]}}, {"type": "Feature", "properties": {"start": "Thiers", "stop_name": "Sury-le-Comtal", "type": "Gare accessible", "transport": "carTER", "nombre_trajet_moyen": 0.69, "transport_legende": "\ud83d\udeb2 \ud83d\udc94 Car TER \ud83d\ude8d"}, "geometry": {"type": "Point", "coordinates": [4.182497, 45.52912]}}, {"type": "Feature", "properties": {"start": "Thiers", "stop_name": "Saint-Romain-le-Puy", "type": "Gare accessible", "transport": "carTER", "nombre_trajet_moyen": 0.69, "transport_legende": "\ud83d\udeb2 \ud83d\udc94 Car TER \ud83d\ude8d"}, "geometry": {"type": "Point", "coordinates": [4.120989, 45.554576]}}]}