{"type": "FeatureCollection", "features": [{"type": "Feature", "properties": {"start": "Th\u00e9s\u00e9e", "stop_name": "Th\u00e9s\u00e9e", "type": "Gare s\u00e9lectionn\u00e9e", "transport": "carTER", "transport_legende": "\ud83d\udeb2 \ud83d\udc94 Car TER \ud83d\ude8d"}, "geometry": {"type": "Point", "coordinates": [1.312225, 47.322305]}}, {"type": "Feature", "properties": {"start": "Th\u00e9s\u00e9e", "stop_name": "Saint-Aignan PIace Wilson", "type": "Gare accessible", "transport": "carTER", "transport_legende": "\ud83d\udeb2 \ud83d\udc94 Car TER \ud83d\ude8d"}, "geometry": {"type": "Point", "coordinates": [1.371961, 47.267989]}}, {"type": "Feature", "properties": {"start": "Th\u00e9s\u00e9e", "stop_name": "Saint-Aignan Quai Delorme", "type": "Gare accessible", "transport": "carTER", "transport_legende": "\ud83d\udeb2 \ud83d\udc94 Car TER \ud83d\ude8d"}, "geometry": {"type": "Point", "coordinates": [1.376838, 47.269907]}}, {"type": "Feature", "properties": {"start": "Th\u00e9s\u00e9e", "stop_name": "Saint-Aignan - Noyers", "type": "Gare accessible", "transport": "carTER", "transport_legende": "\ud83d\udeb2 \ud83d\udc94 Car TER \ud83d\ude8d"}, "geometry": {"type": "Point", "coordinates": [1.383626, 47.286724]}}, {"type": "Feature", "properties": {"start": "Th\u00e9s\u00e9e", "stop_name": "Noyers-sur-Cher Place Guerrier", "type": "Gare accessible", "transport": "carTER", "transport_legende": "\ud83d\udeb2 \ud83d\udc94 Car TER \ud83d\ude8d"}, "geometry": {"type": "Point", "coordinates": [1.400719, 47.276942]}}, {"type": "Feature", "properties": {"start": "Th\u00e9s\u00e9e", "stop_name": "Romorantin Lyc\u00e9e de France", "type": "Gare accessible", "transport": "carTER", "transport_legende": "\ud83d\udeb2 \ud83d\udc94 Car TER \ud83d\ude8d"}, "geometry": {"type": "Point", "coordinates": [1.739026, 47.369459]}}, {"type": "Feature", "properties": {"start": "Th\u00e9s\u00e9e", "stop_name": "Romorantin Place de la Gare", "type": "Gare accessible", "transport": "carTER", "transport_legende": "\ud83d\udeb2 \ud83d\udc94 Car TER \ud83d\ude8d"}, "geometry": {"type": "Point", "coordinates": [1.739308, 47.355557]}}]}