{"type": "FeatureCollection", "features": [{"type": "Feature", "properties": {"start": "Valaurie", "stop_name": "Valaurie", "type": "Gare s\u00e9lectionn\u00e9e", "transport": "carTER", "nombre_trajet_moyen": 1.98, "transport_legende": "\ud83d\udeb2 \ud83d\udc94 Car TER \ud83d\ude8d"}, "geometry": {"type": "Point", "coordinates": [4.816421, 44.421046]}}, {"type": "Feature", "properties": {"start": "Valaurie", "stop_name": "Nyons Office de Tourisme", "type": "Gare accessible", "transport": "carTER", "nombre_trajet_moyen": 1.98, "transport_legende": "\ud83d\udeb2 \ud83d\udc94 Car TER \ud83d\ude8d"}, "geometry": {"type": "Point", "coordinates": [5.138667, 44.36029]}}, {"type": "Feature", "properties": {"start": "Valaurie", "stop_name": "Nyons Cave Coop\u00e9rative", "type": "Gare accessible", "transport": "carTER", "nombre_trajet_moyen": 1.98, "transport_legende": "\ud83d\udeb2 \ud83d\udc94 Car TER \ud83d\ude8d"}, "geometry": {"type": "Point", "coordinates": [5.139978, 44.360431]}}, {"type": "Feature", "properties": {"start": "Valaurie", "stop_name": "Venterol Gare", "type": "Gare accessible", "transport": "carTER", "nombre_trajet_moyen": 1.98, "transport_legende": "\ud83d\udeb2 \ud83d\udc94 Car TER \ud83d\ude8d"}, "geometry": {"type": "Point", "coordinates": [5.084841, 44.395462]}}, {"type": "Feature", "properties": {"start": "Valaurie", "stop_name": "ST-PANTALEON RD 541", "type": "Gare accessible", "transport": "carTER", "nombre_trajet_moyen": 1.98, "transport_legende": "\ud83d\udeb2 \ud83d\udc94 Car TER \ud83d\ude8d"}, "geometry": {"type": "Point", "coordinates": [5.043787, 44.39878]}}, {"type": "Feature", "properties": {"start": "Valaurie", "stop_name": "Valr\u00e9as", "type": "Gare accessible", "transport": "carTER", "nombre_trajet_moyen": 1.98, "transport_legende": "\ud83d\udeb2 \ud83d\udc94 Car TER \ud83d\ude8d"}, "geometry": {"type": "Point", "coordinates": [4.991293, 44.387429]}}, {"type": "Feature", "properties": {"start": "Valaurie", "stop_name": "Taulignan", "type": "Gare accessible", "transport": "carTER", "nombre_trajet_moyen": 1.98, "transport_legende": "\ud83d\udeb2 \ud83d\udc94 Car TER \ud83d\ude8d"}, "geometry": {"type": "Point", "coordinates": [4.979172, 44.444046]}}, {"type": "Feature", "properties": {"start": "Valaurie", "stop_name": "Grignan Avenue Chapon", "type": "Gare accessible", "transport": "carTER", "nombre_trajet_moyen": 1.98, "transport_legende": "\ud83d\udeb2 \ud83d\udc94 Car TER \ud83d\ude8d"}, "geometry": {"type": "Point", "coordinates": [4.904221, 44.418827]}}, {"type": "Feature", "properties": {"start": "Valaurie", "stop_name": "Allan Menuiserie", "type": "Gare accessible", "transport": "carTER", "nombre_trajet_moyen": 1.98, "transport_legende": "\ud83d\udeb2 \ud83d\udc94 Car TER \ud83d\ude8d"}, "geometry": {"type": "Point", "coordinates": [4.76171, 44.480354]}}, {"type": "Feature", "properties": {"start": "Valaurie", "stop_name": "Montelimar Gare Routi\u00e8re", "type": "Gare accessible", "transport": "carTER", "nombre_trajet_moyen": 1.98, "transport_legende": "\ud83d\udeb2 \ud83d\udc94 Car TER \ud83d\ude8d"}, "geometry": {"type": "Point", "coordinates": [4.745107, 44.559439]}}]}