{"type": "FeatureCollection", "features": [{"type": "Feature", "properties": {"start": "Bellegarde", "stop_name": "Bellegarde", "type": "Gare s\u00e9lectionn\u00e9e", "transport": "TGV", "transport_legende": "\ud83d\udeb2 \ud83d\udc94 TGV \ud83d\ude84"}, "geometry": {"type": "Point", "coordinates": [5.823483, 46.109425]}}, {"type": "Feature", "properties": {"start": "Bellegarde", "stop_name": "Paris Gare de Lyon Hall 1 - 2", "type": "Gare accessible", "transport": "TGV", "transport_legende": "\ud83d\udeb2 \ud83d\udc94 TGV \ud83d\ude84"}, "geometry": {"type": "Point", "coordinates": [2.373481, 48.844945]}}, {"type": "Feature", "properties": {"start": "Bellegarde", "stop_name": "Annemasse", "type": "Gare accessible", "transport": "TGV", "transport_legende": "\ud83d\udeb2 \ud83d\udc94 TGV \ud83d\ude84"}, "geometry": {"type": "Point", "coordinates": [6.236431, 46.199245]}}, {"type": "Feature", "properties": {"start": "Bellegarde", "stop_name": "Cluses", "type": "Gare accessible", "transport": "TGV", "transport_legende": "\ud83d\udeb2 \ud83d\udc94 TGV \ud83d\ude84"}, "geometry": {"type": "Point", "coordinates": [6.582771, 46.061468]}}, {"type": "Feature", "properties": {"start": "Bellegarde", "stop_name": "Sallanches - Combloux - Meg\u00e8ve", "type": "Gare accessible", "transport": "TGV", "transport_legende": "\ud83d\udeb2 \ud83d\udc94 TGV \ud83d\ude84"}, "geometry": {"type": "Point", "coordinates": [6.636458, 45.935699]}}, {"type": "Feature", "properties": {"start": "Bellegarde", "stop_name": "Saint-Gervais-les-Bains Le Fayet", "type": "Gare accessible", "transport": "TGV", "transport_legende": "\ud83d\udeb2 \ud83d\udc94 TGV \ud83d\ude84"}, "geometry": {"type": "Point", "coordinates": [6.701331, 45.906423]}}, {"type": "Feature", "properties": {"start": "Bellegarde", "stop_name": "Thonon-les-Bains", "type": "Gare accessible", "transport": "TGV", "transport_legende": "\ud83d\udeb2 \ud83d\udc94 TGV \ud83d\ude84"}, "geometry": {"type": "Point", "coordinates": [6.481673, 46.368989]}}, {"type": "Feature", "properties": {"start": "Bellegarde", "stop_name": "\u00c9vian-les-Bains", "type": "Gare accessible", "transport": "TGV", "transport_legende": "\ud83d\udeb2 \ud83d\udc94 TGV \ud83d\ude84"}, "geometry": {"type": "Point", "coordinates": [6.577469, 46.397916]}}, {"type": "Feature", "properties": {"start": "Bellegarde", "stop_name": "M\u00e2con - Loch\u00e9 TGV", "type": "Gare accessible", "transport": "TGV", "transport_legende": "\ud83d\udeb2 \ud83d\udc94 TGV \ud83d\ude84"}, "geometry": {"type": "Point", "coordinates": [4.778924, 46.282912]}}]}