{"type": "FeatureCollection", "features": [{"type": "Feature", "properties": {"start": "Ch\u00e2tellerault", "stop_name": "Ch\u00e2tellerault", "type": "Gare s\u00e9lectionn\u00e9e", "transport": "TGV", "transport_legende": "\ud83d\udeb2 \ud83d\udc94 TGV \ud83d\ude84"}, "geometry": {"type": "Point", "coordinates": [0.549279, 46.818594]}}, {"type": "Feature", "properties": {"start": "Ch\u00e2tellerault", "stop_name": "Paris Montparnasse Hall 1 - 2", "type": "Gare accessible", "transport": "TGV", "transport_legende": "\ud83d\udeb2 \ud83d\udc94 TGV \ud83d\ude84"}, "geometry": {"type": "Point", "coordinates": [2.320514, 48.841172]}}, {"type": "Feature", "properties": {"start": "Ch\u00e2tellerault", "stop_name": "Poitiers", "type": "Gare accessible", "transport": "TGV", "transport_legende": "\ud83d\udeb2 \ud83d\udc94 TGV \ud83d\ude84"}, "geometry": {"type": "Point", "coordinates": [0.333136, 46.582232]}}, {"type": "Feature", "properties": {"start": "Ch\u00e2tellerault", "stop_name": "Bordeaux Saint-Jean", "type": "Gare accessible", "transport": "TGV", "transport_legende": "\ud83d\udeb2 \ud83d\udc94 TGV \ud83d\ude84"}, "geometry": {"type": "Point", "coordinates": [-0.556697, 44.825873]}}, {"type": "Feature", "properties": {"start": "Ch\u00e2tellerault", "stop_name": "Saint-Pierre-des-Corps", "type": "Gare accessible", "transport": "TGV", "transport_legende": "\ud83d\udeb2 \ud83d\udc94 TGV \ud83d\ude84"}, "geometry": {"type": "Point", "coordinates": [0.723539, 47.38614]}}, {"type": "Feature", "properties": {"start": "Ch\u00e2tellerault", "stop_name": "Vend\u00f4me - Villiers-sur-Loir", "type": "Gare accessible", "transport": "TGV", "transport_legende": "\ud83d\udeb2 \ud83d\udc94 TGV \ud83d\ude84"}, "geometry": {"type": "Point", "coordinates": [1.021143, 47.821937]}}, {"type": "Feature", "properties": {"start": "Ch\u00e2tellerault", "stop_name": "Massy TGV", "type": "Gare accessible", "transport": "TGV", "transport_legende": "\ud83d\udeb2 \ud83d\udc94 TGV \ud83d\ude84"}, "geometry": {"type": "Point", "coordinates": [2.261254, 48.725758]}}, {"type": "Feature", "properties": {"start": "Ch\u00e2tellerault", "stop_name": "Futuroscope", "type": "Gare accessible", "transport": "TGV", "transport_legende": "\ud83d\udeb2 \ud83d\udc94 TGV \ud83d\ude84"}, "geometry": {"type": "Point", "coordinates": [0.377209, 46.669918]}}, {"type": "Feature", "properties": {"start": "Ch\u00e2tellerault", "stop_name": "Niort", "type": "Gare accessible", "transport": "TGV", "transport_legende": "\ud83d\udeb2 \ud83d\udc94 TGV \ud83d\ude84"}, "geometry": {"type": "Point", "coordinates": [-0.454639, 46.319491]}}, {"type": "Feature", "properties": {"start": "Ch\u00e2tellerault", "stop_name": "La Rochelle", "type": "Gare accessible", "transport": "TGV", "transport_legende": "\ud83d\udeb2 \ud83d\udc94 TGV \ud83d\ude84"}, "geometry": {"type": "Point", "coordinates": [-1.145853, 46.152705]}}, {"type": "Feature", "properties": {"start": "Ch\u00e2tellerault", "stop_name": "Angoul\u00eame", "type": "Gare accessible", "transport": "TGV", "transport_legende": "\ud83d\udeb2 \ud83d\udc94 TGV \ud83d\ude84"}, "geometry": {"type": "Point", "coordinates": [0.164608, 45.653572]}}, {"type": "Feature", "properties": {"start": "Ch\u00e2tellerault", "stop_name": "Libourne", "type": "Gare accessible", "transport": "TGV", "transport_legende": "\ud83d\udeb2 \ud83d\udc94 TGV \ud83d\ude84"}, "geometry": {"type": "Point", "coordinates": [-0.236359, 44.915904]}}]}