{"type": "FeatureCollection", "features": [{"type": "Feature", "properties": {"start": "GIRONA", "stop_name": "GIRONA", "type": "Gare s\u00e9lectionn\u00e9e", "transport": "TGV", "nombre_trajet_moyen": 3.58, "transport_legende": "\ud83d\udeb2 \ud83d\udc94 TGV \ud83d\ude84"}, "geometry": {"type": "Point", "coordinates": [2.816957, 41.979371]}}, {"type": "Feature", "properties": {"start": "GIRONA", "stop_name": "Barcelone-Sants", "type": "Gare accessible", "transport": "TGV", "nombre_trajet_moyen": 3.58, "transport_legende": "\ud83d\udeb2 \ud83d\udc94 TGV \ud83d\ude84"}, "geometry": {"type": "Point", "coordinates": [2.139834, 41.378961]}}, {"type": "Feature", "properties": {"start": "GIRONA", "stop_name": "FIGUERES-VILAFANT", "type": "Gare accessible", "transport": "TGV", "nombre_trajet_moyen": 3.58, "transport_legende": "\ud83d\udeb2 \ud83d\udc94 TGV \ud83d\ude84"}, "geometry": {"type": "Point", "coordinates": [2.943028, 42.264581]}}, {"type": "Feature", "properties": {"start": "GIRONA", "stop_name": "Perpignan", "type": "Gare accessible", "transport": "TGV", "nombre_trajet_moyen": 3.58, "transport_legende": "\ud83d\udeb2 \ud83d\udc94 TGV \ud83d\ude84"}, "geometry": {"type": "Point", "coordinates": [2.879355, 42.696096]}}, {"type": "Feature", "properties": {"start": "GIRONA", "stop_name": "Narbonne", "type": "Gare accessible", "transport": "TGV", "nombre_trajet_moyen": 3.58, "transport_legende": "\ud83d\udeb2 \ud83d\udc94 TGV \ud83d\ude84"}, "geometry": {"type": "Point", "coordinates": [3.005667, 43.190618]}}, {"type": "Feature", "properties": {"start": "GIRONA", "stop_name": "B\u00e9ziers", "type": "Gare accessible", "transport": "TGV", "nombre_trajet_moyen": 3.58, "transport_legende": "\ud83d\udeb2 \ud83d\udc94 TGV \ud83d\ude84"}, "geometry": {"type": "Point", "coordinates": [3.218895, 43.336295]}}, {"type": "Feature", "properties": {"start": "GIRONA", "stop_name": "Agde", "type": "Gare accessible", "transport": "TGV", "nombre_trajet_moyen": 1.87, "transport_legende": "\ud83d\udeb2 \ud83d\udc94 TGV \ud83d\ude84"}, "geometry": {"type": "Point", "coordinates": [3.466203, 43.31728]}}, {"type": "Feature", "properties": {"start": "GIRONA", "stop_name": "S\u00e8te", "type": "Gare accessible", "transport": "TGV", "nombre_trajet_moyen": 1.87, "transport_legende": "\ud83d\udeb2 \ud83d\udc94 TGV \ud83d\ude84"}, "geometry": {"type": "Point", "coordinates": [3.696571, 43.412641]}}, {"type": "Feature", "properties": {"start": "GIRONA", "stop_name": "Montpellier Sud de France", "type": "Gare accessible", "transport": "TGV", "nombre_trajet_moyen": 0.94, "transport_legende": "\ud83d\udeb2 \ud83d\udc94 TGV \ud83d\ude84"}, "geometry": {"type": "Point", "coordinates": [3.924009, 43.595146]}}, {"type": "Feature", "properties": {"start": "GIRONA", "stop_name": "N\u00eemes Pont du Gard", "type": "Gare accessible", "transport": "TGV", "nombre_trajet_moyen": 0.94, "transport_legende": "\ud83d\udeb2 \ud83d\udc94 TGV \ud83d\ude84"}, "geometry": {"type": "Point", "coordinates": [4.507678, 43.816809]}}, {"type": "Feature", "properties": {"start": "GIRONA", "stop_name": "Valence TGV Rh\u00f4ne-Alpes Sud", "type": "Gare accessible", "transport": "TGV", "nombre_trajet_moyen": 1.87, "transport_legende": "\ud83d\udeb2 \ud83d\udc94 TGV \ud83d\ude84"}, "geometry": {"type": "Point", "coordinates": [4.978652, 44.991907]}}, {"type": "Feature", "properties": {"start": "GIRONA", "stop_name": "Paris Gare de Lyon Hall 1 - 2", "type": "Gare accessible", "transport": "TGV", "nombre_trajet_moyen": 1.87, "transport_legende": "\ud83d\udeb2 \ud83d\udc94 TGV \ud83d\ude84"}, "geometry": {"type": "Point", "coordinates": [2.373481, 48.844945]}}, {"type": "Feature", "properties": {"start": "GIRONA", "stop_name": "N\u00eemes Centre", "type": "Gare accessible", "transport": "TGV", "nombre_trajet_moyen": 3.58, "transport_legende": "\ud83d\udeb2 \ud83d\udc94 TGV \ud83d\ude84"}, "geometry": {"type": "Point", "coordinates": [4.365872, 43.832313]}}, {"type": "Feature", "properties": {"start": "GIRONA", "stop_name": "Montpellier Saint-Roch", "type": "Gare accessible", "transport": "TGV", "nombre_trajet_moyen": 3.58, "transport_legende": "\ud83d\udeb2 \ud83d\udc94 TGV \ud83d\ude84"}, "geometry": {"type": "Point", "coordinates": [3.880674, 43.604738]}}, {"type": "Feature", "properties": {"start": "GIRONA", "stop_name": "Madrid Porte d'Atocha", "type": "Gare accessible", "transport": "TGV", "nombre_trajet_moyen": 1.81, "transport_legende": "\ud83d\udeb2 \ud83d\udc94 TGV \ud83d\ude84"}, "geometry": {"type": "Point", "coordinates": [-3.690583, 40.406259]}}, {"type": "Feature", "properties": {"start": "GIRONA", "stop_name": "ZARAGOZA-DELICIAS", "type": "Gare accessible", "transport": "TGV", "nombre_trajet_moyen": 1.81, "transport_legende": "\ud83d\udeb2 \ud83d\udc94 TGV \ud83d\ude84"}, "geometry": {"type": "Point", "coordinates": [-0.910774, 41.658683]}}, {"type": "Feature", "properties": {"start": "GIRONA", "stop_name": "CAMP DE TARRAGONA", "type": "Gare accessible", "transport": "TGV", "nombre_trajet_moyen": 1.81, "transport_legende": "\ud83d\udeb2 \ud83d\udc94 TGV \ud83d\ude84"}, "geometry": {"type": "Point", "coordinates": [1.271923, 41.19213]}}, {"type": "Feature", "properties": {"start": "GIRONA", "stop_name": "Avignon TGV", "type": "Gare accessible", "transport": "TGV", "nombre_trajet_moyen": 1.81, "transport_legende": "\ud83d\udeb2 \ud83d\udc94 TGV \ud83d\ude84"}, "geometry": {"type": "Point", "coordinates": [4.786136, 43.92194]}}, {"type": "Feature", "properties": {"start": "GIRONA", "stop_name": "Aix-en-Provence TGV", "type": "Gare accessible", "transport": "TGV", "nombre_trajet_moyen": 1.81, "transport_legende": "\ud83d\udeb2 \ud83d\udc94 TGV \ud83d\ude84"}, "geometry": {"type": "Point", "coordinates": [5.317534, 43.455237]}}, {"type": "Feature", "properties": {"start": "GIRONA", "stop_name": "Marseille Saint-Charles", "type": "Gare accessible", "transport": "TGV", "nombre_trajet_moyen": 1.81, "transport_legende": "\ud83d\udeb2 \ud83d\udc94 TGV \ud83d\ude84"}, "geometry": {"type": "Point", "coordinates": [5.380407, 43.302666]}}, {"type": "Feature", "properties": {"start": "GIRONA", "stop_name": "Lyon Part Dieu", "type": "Gare accessible", "transport": "TGV", "nombre_trajet_moyen": 1.87, "transport_legende": "\ud83d\udeb2 \ud83d\udc94 TGV \ud83d\ude84"}, "geometry": {"type": "Point", "coordinates": [4.859409, 45.760596]}}]}