{"type": "FeatureCollection", "features": [{"type": "Feature", "properties": {"start": "Landerneau", "stop_name": "Landerneau", "type": "Gare s\u00e9lectionn\u00e9e", "transport": "TGV", "nombre_trajet_moyen": 2.1, "transport_legende": "\ud83d\udeb2 \ud83d\udc94 TGV \ud83d\ude84"}, "geometry": {"type": "Point", "coordinates": [-4.256528, 48.453572]}}, {"type": "Feature", "properties": {"start": "Landerneau", "stop_name": "Brest", "type": "Gare accessible", "transport": "TGV", "nombre_trajet_moyen": 2.1, "transport_legende": "\ud83d\udeb2 \ud83d\udc94 TGV \ud83d\ude84"}, "geometry": {"type": "Point", "coordinates": [-4.480306, 48.38762]}}, {"type": "Feature", "properties": {"start": "Landerneau", "stop_name": "Morlaix", "type": "Gare accessible", "transport": "TGV", "nombre_trajet_moyen": 2.1, "transport_legende": "\ud83d\udeb2 \ud83d\udc94 TGV \ud83d\ude84"}, "geometry": {"type": "Point", "coordinates": [-3.832514, 48.57797]}}, {"type": "Feature", "properties": {"start": "Landerneau", "stop_name": "Plouaret Tr\u00e9gor", "type": "Gare accessible", "transport": "TGV", "nombre_trajet_moyen": 1.94, "transport_legende": "\ud83d\udeb2 \ud83d\udc94 TGV \ud83d\ude84"}, "geometry": {"type": "Point", "coordinates": [-3.466979, 48.606422]}}, {"type": "Feature", "properties": {"start": "Landerneau", "stop_name": "Guingamp", "type": "Gare accessible", "transport": "TGV", "nombre_trajet_moyen": 2.1, "transport_legende": "\ud83d\udeb2 \ud83d\udc94 TGV \ud83d\ude84"}, "geometry": {"type": "Point", "coordinates": [-3.143343, 48.555659]}}, {"type": "Feature", "properties": {"start": "Landerneau", "stop_name": "Saint-Brieuc", "type": "Gare accessible", "transport": "TGV", "nombre_trajet_moyen": 2.1, "transport_legende": "\ud83d\udeb2 \ud83d\udc94 TGV \ud83d\ude84"}, "geometry": {"type": "Point", "coordinates": [-2.765, 48.50758]}}, {"type": "Feature", "properties": {"start": "Landerneau", "stop_name": "Lamballe", "type": "Gare accessible", "transport": "TGV", "nombre_trajet_moyen": 1.94, "transport_legende": "\ud83d\udeb2 \ud83d\udc94 TGV \ud83d\ude84"}, "geometry": {"type": "Point", "coordinates": [-2.511546, 48.46606]}}, {"type": "Feature", "properties": {"start": "Landerneau", "stop_name": "Rennes", "type": "Gare accessible", "transport": "TGV", "nombre_trajet_moyen": 1.94, "transport_legende": "\ud83d\udeb2 \ud83d\udc94 TGV \ud83d\ude84"}, "geometry": {"type": "Point", "coordinates": [-1.672744, 48.103517]}}, {"type": "Feature", "properties": {"start": "Landerneau", "stop_name": "Paris Montparnasse Hall 1 - 2", "type": "Gare accessible", "transport": "TGV", "nombre_trajet_moyen": 2.1, "transport_legende": "\ud83d\udeb2 \ud83d\udc94 TGV \ud83d\ude84"}, "geometry": {"type": "Point", "coordinates": [2.320514, 48.841172]}}, {"type": "Feature", "properties": {"start": "Landerneau", "stop_name": "Massy TGV", "type": "Gare accessible", "transport": "TGV", "nombre_trajet_moyen": 0.06, "transport_legende": "\ud83d\udeb2 \ud83d\udc94 TGV \ud83d\ude84"}, "geometry": {"type": "Point", "coordinates": [2.261254, 48.725758]}}]}