{"type": "FeatureCollection", "features": [{"type": "Feature", "properties": {"start": "Madrid Porte d'Atocha", "stop_name": "Madrid Porte d'Atocha", "type": "Gare s\u00e9lectionn\u00e9e", "transport": "TGV", "nombre_trajet_moyen": 1.81, "transport_legende": "\ud83d\udeb2 \ud83d\udc94 TGV \ud83d\ude84"}, "geometry": {"type": "Point", "coordinates": [-3.690583, 40.406259]}}, {"type": "Feature", "properties": {"start": "Madrid Porte d'Atocha", "stop_name": "ZARAGOZA-DELICIAS", "type": "Gare accessible", "transport": "TGV", "nombre_trajet_moyen": 1.81, "transport_legende": "\ud83d\udeb2 \ud83d\udc94 TGV \ud83d\ude84"}, "geometry": {"type": "Point", "coordinates": [-0.910774, 41.658683]}}, {"type": "Feature", "properties": {"start": "Madrid Porte d'Atocha", "stop_name": "CAMP DE TARRAGONA", "type": "Gare accessible", "transport": "TGV", "nombre_trajet_moyen": 1.81, "transport_legende": "\ud83d\udeb2 \ud83d\udc94 TGV \ud83d\ude84"}, "geometry": {"type": "Point", "coordinates": [1.271923, 41.19213]}}, {"type": "Feature", "properties": {"start": "Madrid Porte d'Atocha", "stop_name": "Barcelone-Sants", "type": "Gare accessible", "transport": "TGV", "nombre_trajet_moyen": 1.81, "transport_legende": "\ud83d\udeb2 \ud83d\udc94 TGV \ud83d\ude84"}, "geometry": {"type": "Point", "coordinates": [2.139834, 41.378961]}}, {"type": "Feature", "properties": {"start": "Madrid Porte d'Atocha", "stop_name": "GIRONA", "type": "Gare accessible", "transport": "TGV", "nombre_trajet_moyen": 1.81, "transport_legende": "\ud83d\udeb2 \ud83d\udc94 TGV \ud83d\ude84"}, "geometry": {"type": "Point", "coordinates": [2.816957, 41.979371]}}, {"type": "Feature", "properties": {"start": "Madrid Porte d'Atocha", "stop_name": "FIGUERES-VILAFANT", "type": "Gare accessible", "transport": "TGV", "nombre_trajet_moyen": 1.81, "transport_legende": "\ud83d\udeb2 \ud83d\udc94 TGV \ud83d\ude84"}, "geometry": {"type": "Point", "coordinates": [2.943028, 42.264581]}}, {"type": "Feature", "properties": {"start": "Madrid Porte d'Atocha", "stop_name": "Perpignan", "type": "Gare accessible", "transport": "TGV", "nombre_trajet_moyen": 1.81, "transport_legende": "\ud83d\udeb2 \ud83d\udc94 TGV \ud83d\ude84"}, "geometry": {"type": "Point", "coordinates": [2.879355, 42.696096]}}, {"type": "Feature", "properties": {"start": "Madrid Porte d'Atocha", "stop_name": "Narbonne", "type": "Gare accessible", "transport": "TGV", "nombre_trajet_moyen": 1.81, "transport_legende": "\ud83d\udeb2 \ud83d\udc94 TGV \ud83d\ude84"}, "geometry": {"type": "Point", "coordinates": [3.005667, 43.190618]}}, {"type": "Feature", "properties": {"start": "Madrid Porte d'Atocha", "stop_name": "B\u00e9ziers", "type": "Gare accessible", "transport": "TGV", "nombre_trajet_moyen": 1.81, "transport_legende": "\ud83d\udeb2 \ud83d\udc94 TGV \ud83d\ude84"}, "geometry": {"type": "Point", "coordinates": [3.218895, 43.336295]}}, {"type": "Feature", "properties": {"start": "Madrid Porte d'Atocha", "stop_name": "Montpellier Saint-Roch", "type": "Gare accessible", "transport": "TGV", "nombre_trajet_moyen": 1.81, "transport_legende": "\ud83d\udeb2 \ud83d\udc94 TGV \ud83d\ude84"}, "geometry": {"type": "Point", "coordinates": [3.880674, 43.604738]}}, {"type": "Feature", "properties": {"start": "Madrid Porte d'Atocha", "stop_name": "N\u00eemes Centre", "type": "Gare accessible", "transport": "TGV", "nombre_trajet_moyen": 1.81, "transport_legende": "\ud83d\udeb2 \ud83d\udc94 TGV \ud83d\ude84"}, "geometry": {"type": "Point", "coordinates": [4.365872, 43.832313]}}, {"type": "Feature", "properties": {"start": "Madrid Porte d'Atocha", "stop_name": "Avignon TGV", "type": "Gare accessible", "transport": "TGV", "nombre_trajet_moyen": 1.81, "transport_legende": "\ud83d\udeb2 \ud83d\udc94 TGV \ud83d\ude84"}, "geometry": {"type": "Point", "coordinates": [4.786136, 43.92194]}}, {"type": "Feature", "properties": {"start": "Madrid Porte d'Atocha", "stop_name": "Aix-en-Provence TGV", "type": "Gare accessible", "transport": "TGV", "nombre_trajet_moyen": 1.81, "transport_legende": "\ud83d\udeb2 \ud83d\udc94 TGV \ud83d\ude84"}, "geometry": {"type": "Point", "coordinates": [5.317534, 43.455237]}}, {"type": "Feature", "properties": {"start": "Madrid Porte d'Atocha", "stop_name": "Marseille Saint-Charles", "type": "Gare accessible", "transport": "TGV", "nombre_trajet_moyen": 1.81, "transport_legende": "\ud83d\udeb2 \ud83d\udc94 TGV \ud83d\ude84"}, "geometry": {"type": "Point", "coordinates": [5.380407, 43.302666]}}]}