{"type": "FeatureCollection", "features": [{"type": "Feature", "properties": {"start": "Modane", "stop_name": "Modane", "type": "Gare s\u00e9lectionn\u00e9e", "transport": "TGV", "transport_legende": "\ud83d\udeb2 \ud83d\udc94 TGV \ud83d\ude84"}, "geometry": {"type": "Point", "coordinates": [6.659139, 45.193555]}}, {"type": "Feature", "properties": {"start": "Modane", "stop_name": "Saint-Michel - Valloire", "type": "Gare accessible", "transport": "TGV", "transport_legende": "\ud83d\udeb2 \ud83d\udc94 TGV \ud83d\ude84"}, "geometry": {"type": "Point", "coordinates": [6.471914, 45.216916]}}, {"type": "Feature", "properties": {"start": "Modane", "stop_name": "Saint-Jean-de-Maurienne Arvan", "type": "Gare accessible", "transport": "TGV", "transport_legende": "\ud83d\udeb2 \ud83d\udc94 TGV \ud83d\ude84"}, "geometry": {"type": "Point", "coordinates": [6.354716, 45.277542]}}, {"type": "Feature", "properties": {"start": "Modane", "stop_name": "Saint-Avre - La Chambre", "type": "Gare accessible", "transport": "TGV", "transport_legende": "\ud83d\udeb2 \ud83d\udc94 TGV \ud83d\ude84"}, "geometry": {"type": "Point", "coordinates": [6.302867, 45.35312]}}, {"type": "Feature", "properties": {"start": "Modane", "stop_name": "Chamb\u00e9ry - Challes-les-Eaux", "type": "Gare accessible", "transport": "TGV", "transport_legende": "\ud83d\udeb2 \ud83d\udc94 TGV \ud83d\ude84"}, "geometry": {"type": "Point", "coordinates": [5.919547, 45.571302]}}, {"type": "Feature", "properties": {"start": "Modane", "stop_name": "Marne-la-Vall\u00e9e Chessy", "type": "Gare accessible", "transport": "TGV", "transport_legende": "\ud83d\udeb2 \ud83d\udc94 TGV \ud83d\ude84"}, "geometry": {"type": "Point", "coordinates": [2.782626, 48.869898]}}, {"type": "Feature", "properties": {"start": "Modane", "stop_name": "A\u00e9roport Charles de Gaulle 2 TGV", "type": "Gare accessible", "transport": "TGV", "transport_legende": "\ud83d\udeb2 \ud83d\udc94 TGV \ud83d\ude84"}, "geometry": {"type": "Point", "coordinates": [2.570812, 49.003618]}}, {"type": "Feature", "properties": {"start": "Modane", "stop_name": "TGV Haute Picardie", "type": "Gare accessible", "transport": "TGV", "transport_legende": "\ud83d\udeb2 \ud83d\udc94 TGV \ud83d\ude84"}, "geometry": {"type": "Point", "coordinates": [2.831619, 49.859172]}}, {"type": "Feature", "properties": {"start": "Modane", "stop_name": "Arras", "type": "Gare accessible", "transport": "TGV", "transport_legende": "\ud83d\udeb2 \ud83d\udc94 TGV \ud83d\ude84"}, "geometry": {"type": "Point", "coordinates": [2.781314, 50.286971]}}, {"type": "Feature", "properties": {"start": "Modane", "stop_name": "Douai", "type": "Gare accessible", "transport": "TGV", "transport_legende": "\ud83d\udeb2 \ud83d\udc94 TGV \ud83d\ude84"}, "geometry": {"type": "Point", "coordinates": [3.089958, 50.371673]}}, {"type": "Feature", "properties": {"start": "Modane", "stop_name": "Lille Flandres", "type": "Gare accessible", "transport": "TGV", "transport_legende": "\ud83d\udeb2 \ud83d\udc94 TGV \ud83d\ude84"}, "geometry": {"type": "Point", "coordinates": [3.06987, 50.636577]}}, {"type": "Feature", "properties": {"start": "Modane", "stop_name": "Paris Gare de Lyon Hall 1 - 2", "type": "Gare accessible", "transport": "TGV", "transport_legende": "\ud83d\udeb2 \ud83d\udc94 TGV \ud83d\ude84"}, "geometry": {"type": "Point", "coordinates": [2.373481, 48.844945]}}, {"type": "Feature", "properties": {"start": "Modane", "stop_name": "MILANO PORTA GARIBALDI", "type": "Gare accessible", "transport": "TGV", "transport_legende": "\ud83d\udeb2 \ud83d\udc94 TGV \ud83d\ude84"}, "geometry": {"type": "Point", "coordinates": [9.187694, 45.484916]}}, {"type": "Feature", "properties": {"start": "Modane", "stop_name": "NOVARA", "type": "Gare accessible", "transport": "TGV", "transport_legende": "\ud83d\udeb2 \ud83d\udc94 TGV \ud83d\ude84"}, "geometry": {"type": "Point", "coordinates": [8.624913, 45.451371]}}, {"type": "Feature", "properties": {"start": "Modane", "stop_name": "VERCELLI", "type": "Gare accessible", "transport": "TGV", "transport_legende": "\ud83d\udeb2 \ud83d\udc94 TGV \ud83d\ude84"}, "geometry": {"type": "Point", "coordinates": [8.416042, 45.329904]}}, {"type": "Feature", "properties": {"start": "Modane", "stop_name": "Turin Porta Susa", "type": "Gare accessible", "transport": "TGV", "transport_legende": "\ud83d\udeb2 \ud83d\udc94 TGV \ud83d\ude84"}, "geometry": {"type": "Point", "coordinates": [7.666675, 45.074118]}}, {"type": "Feature", "properties": {"start": "Modane", "stop_name": "OULX CESANA CLAVIERE SESTRIERE", "type": "Gare accessible", "transport": "TGV", "transport_legende": "\ud83d\udeb2 \ud83d\udc94 TGV \ud83d\ude84"}, "geometry": {"type": "Point", "coordinates": [6.831431, 45.038795]}}, {"type": "Feature", "properties": {"start": "Modane", "stop_name": "BARDONECCHIA", "type": "Gare accessible", "transport": "TGV", "transport_legende": "\ud83d\udeb2 \ud83d\udc94 TGV \ud83d\ude84"}, "geometry": {"type": "Point", "coordinates": [6.709963, 45.076449]}}, {"type": "Feature", "properties": {"start": "Modane", "stop_name": "M\u00e2con - Loch\u00e9 TGV", "type": "Gare accessible", "transport": "TGV", "transport_legende": "\ud83d\udeb2 \ud83d\udc94 TGV \ud83d\ude84"}, "geometry": {"type": "Point", "coordinates": [4.778924, 46.282912]}}, {"type": "Feature", "properties": {"start": "Modane", "stop_name": "Lyon Saint-Exup\u00e9ry TGV", "type": "Gare accessible", "transport": "TGV", "transport_legende": "\ud83d\udeb2 \ud83d\udc94 TGV \ud83d\ude84"}, "geometry": {"type": "Point", "coordinates": [5.074969, 45.721109]}}, {"type": "Feature", "properties": {"start": "Modane", "stop_name": "Aix-les-Bains le Revard", "type": "Gare accessible", "transport": "TGV", "transport_legende": "\ud83d\udeb2 \ud83d\udc94 TGV \ud83d\ude84"}, "geometry": {"type": "Point", "coordinates": [5.909371, 45.688161]}}]}