{"type": "FeatureCollection", "features": [{"type": "Feature", "properties": {"start": "Rang-du-Fliers - Verton - Berck", "stop_name": "Rang-du-Fliers - Verton - Berck", "type": "Gare s\u00e9lectionn\u00e9e", "transport": "TGV", "nombre_trajet_moyen": 2.32, "transport_legende": "\ud83d\udeb2 \ud83d\udc94 TGV \ud83d\ude84"}, "geometry": {"type": "Point", "coordinates": [1.648048, 50.415845]}}, {"type": "Feature", "properties": {"start": "Rang-du-Fliers - Verton - Berck", "stop_name": "\u00c9taples - Le Touquet", "type": "Gare accessible", "transport": "TGV", "nombre_trajet_moyen": 2.32, "transport_legende": "\ud83d\udeb2 \ud83d\udc94 TGV \ud83d\ude84"}, "geometry": {"type": "Point", "coordinates": [1.642582, 50.516544]}}, {"type": "Feature", "properties": {"start": "Rang-du-Fliers - Verton - Berck", "stop_name": "Boulogne sur Mer", "type": "Gare accessible", "transport": "TGV", "nombre_trajet_moyen": 2.32, "transport_legende": "\ud83d\udeb2 \ud83d\udc94 TGV \ud83d\ude84"}, "geometry": {"type": "Point", "coordinates": [1.609714, 50.715613]}}, {"type": "Feature", "properties": {"start": "Rang-du-Fliers - Verton - Berck", "stop_name": "Calais - Fr\u00e9thun", "type": "Gare accessible", "transport": "TGV", "nombre_trajet_moyen": 2.32, "transport_legende": "\ud83d\udeb2 \ud83d\udc94 TGV \ud83d\ude84"}, "geometry": {"type": "Point", "coordinates": [1.811178, 50.901247]}}, {"type": "Feature", "properties": {"start": "Rang-du-Fliers - Verton - Berck", "stop_name": "Lille Europe", "type": "Gare accessible", "transport": "TGV", "nombre_trajet_moyen": 2.32, "transport_legende": "\ud83d\udeb2 \ud83d\udc94 TGV \ud83d\ude84"}, "geometry": {"type": "Point", "coordinates": [3.075721, 50.6394]}}, {"type": "Feature", "properties": {"start": "Rang-du-Fliers - Verton - Berck", "stop_name": "Arras", "type": "Gare accessible", "transport": "TGV", "nombre_trajet_moyen": 2.32, "transport_legende": "\ud83d\udeb2 \ud83d\udc94 TGV \ud83d\ude84"}, "geometry": {"type": "Point", "coordinates": [2.781314, 50.286971]}}, {"type": "Feature", "properties": {"start": "Rang-du-Fliers - Verton - Berck", "stop_name": "Paris Gare du Nord", "type": "Gare accessible", "transport": "TGV", "nombre_trajet_moyen": 2.32, "transport_legende": "\ud83d\udeb2 \ud83d\udc94 TGV \ud83d\ude84"}, "geometry": {"type": "Point", "coordinates": [2.354851, 48.880136]}}]}