{"type": "FeatureCollection", "features": [{"type": "Feature", "properties": {"start": "Saint-Di\u00e9-des-Vosges", "stop_name": "Saint-Di\u00e9-des-Vosges", "type": "Gare s\u00e9lectionn\u00e9e", "transport": "TGV", "nombre_trajet_moyen": 1.55, "transport_legende": "\ud83d\udeb2 \ud83d\udc94 TGV \ud83d\ude84"}, "geometry": {"type": "Point", "coordinates": [6.948516, 48.282043]}}, {"type": "Feature", "properties": {"start": "Saint-Di\u00e9-des-Vosges", "stop_name": "Paris Est", "type": "Gare accessible", "transport": "TGV", "nombre_trajet_moyen": 1.55, "transport_legende": "\ud83d\udeb2 \ud83d\udc94 TGV \ud83d\ude84"}, "geometry": {"type": "Point", "coordinates": [2.358424, 48.876742]}}, {"type": "Feature", "properties": {"start": "Saint-Di\u00e9-des-Vosges", "stop_name": "Champagne-Ardenne TGV", "type": "Gare accessible", "transport": "TGV", "nombre_trajet_moyen": 0.19, "transport_legende": "\ud83d\udeb2 \ud83d\udc94 TGV \ud83d\ude84"}, "geometry": {"type": "Point", "coordinates": [3.994523, 49.214769]}}, {"type": "Feature", "properties": {"start": "Saint-Di\u00e9-des-Vosges", "stop_name": "Meuse TGV", "type": "Gare accessible", "transport": "TGV", "nombre_trajet_moyen": 0.77, "transport_legende": "\ud83d\udeb2 \ud83d\udc94 TGV \ud83d\ude84"}, "geometry": {"type": "Point", "coordinates": [5.271024, 48.978583]}}, {"type": "Feature", "properties": {"start": "Saint-Di\u00e9-des-Vosges", "stop_name": "Nancy", "type": "Gare accessible", "transport": "TGV", "nombre_trajet_moyen": 1.55, "transport_legende": "\ud83d\udeb2 \ud83d\udc94 TGV \ud83d\ude84"}, "geometry": {"type": "Point", "coordinates": [6.174579, 48.689857]}}, {"type": "Feature", "properties": {"start": "Saint-Di\u00e9-des-Vosges", "stop_name": "Lun\u00e9ville", "type": "Gare accessible", "transport": "TGV", "nombre_trajet_moyen": 0.19, "transport_legende": "\ud83d\udeb2 \ud83d\udc94 TGV \ud83d\ude84"}, "geometry": {"type": "Point", "coordinates": [6.496997, 48.58799]}}]}