{"type": "FeatureCollection", "features": [{"type": "Feature", "properties": {"start": "Sarrebruck", "stop_name": "Sarrebruck", "type": "Gare s\u00e9lectionn\u00e9e", "transport": "TGV", "nombre_trajet_moyen": 5.19, "transport_legende": "\ud83d\udeb2 \ud83d\udc94 TGV \ud83d\ude84"}, "geometry": {"type": "Point", "coordinates": [6.991, 49.241]}}, {"type": "Feature", "properties": {"start": "Sarrebruck", "stop_name": "Mannheim Hbf", "type": "Gare accessible", "transport": "TGV", "nombre_trajet_moyen": 5.19, "transport_legende": "\ud83d\udeb2 \ud83d\udc94 TGV \ud83d\ude84"}, "geometry": {"type": "Point", "coordinates": [8.4696, 49.4794]}}, {"type": "Feature", "properties": {"start": "Sarrebruck", "stop_name": "Kaiserslautern Hbf", "type": "Gare accessible", "transport": "TGV", "nombre_trajet_moyen": 5.19, "transport_legende": "\ud83d\udeb2 \ud83d\udc94 TGV \ud83d\ude84"}, "geometry": {"type": "Point", "coordinates": [7.7688, 49.4359]}}, {"type": "Feature", "properties": {"start": "Sarrebruck", "stop_name": "Forbach", "type": "Gare accessible", "transport": "TGV", "nombre_trajet_moyen": 3.61, "transport_legende": "\ud83d\udeb2 \ud83d\udc94 TGV \ud83d\ude84"}, "geometry": {"type": "Point", "coordinates": [6.901318, 49.189228]}}, {"type": "Feature", "properties": {"start": "Sarrebruck", "stop_name": "Paris Est", "type": "Gare accessible", "transport": "TGV", "nombre_trajet_moyen": 5.19, "transport_legende": "\ud83d\udeb2 \ud83d\udc94 TGV \ud83d\ude84"}, "geometry": {"type": "Point", "coordinates": [2.358424, 48.876742]}}, {"type": "Feature", "properties": {"start": "Sarrebruck", "stop_name": "Francfort sur le Main", "type": "Gare accessible", "transport": "TGV", "nombre_trajet_moyen": 5.1, "transport_legende": "\ud83d\udeb2 \ud83d\udc94 TGV \ud83d\ude84"}, "geometry": {"type": "Point", "coordinates": [8.6624, 50.1073]}}]}