{"type": "FeatureCollection", "features": [{"type": "Feature", "properties": {"start": "Bordeaux Saint-Jean", "stop_name": "Bordeaux Saint-Jean", "type": "Gare s\u00e9lectionn\u00e9e", "transport": "TGV", "nombre_trajet_moyen": 44.61, "transport_legende": "\ud83d\udeb2 \ud83d\udc94 TGV \ud83d\ude84"}, "geometry": {"type": "Point", "coordinates": [-0.556697, 44.825873]}}, {"type": "Feature", "properties": {"start": "Bordeaux Saint-Jean", "stop_name": "Paris Montparnasse Hall 1 - 2", "type": "Gare accessible", "transport": "TGV", "nombre_trajet_moyen": 39.03, "transport_legende": "\ud83d\udeb2 \ud83d\udc94 TGV \ud83d\ude84"}, "geometry": {"type": "Point", "coordinates": [2.320514, 48.841172]}}, {"type": "Feature", "properties": {"start": "Bordeaux Saint-Jean", "stop_name": "Angoul\u00eame", "type": "Gare accessible", "transport": "TGV", "nombre_trajet_moyen": 23.74, "transport_legende": "\ud83d\udeb2 \ud83d\udc94 TGV \ud83d\ude84"}, "geometry": {"type": "Point", "coordinates": [0.164608, 45.653572]}}, {"type": "Feature", "properties": {"start": "Bordeaux Saint-Jean", "stop_name": "Poitiers", "type": "Gare accessible", "transport": "TGV", "nombre_trajet_moyen": 19.87, "transport_legende": "\ud83d\udeb2 \ud83d\udc94 TGV \ud83d\ude84"}, "geometry": {"type": "Point", "coordinates": [0.333136, 46.582232]}}, {"type": "Feature", "properties": {"start": "Bordeaux Saint-Jean", "stop_name": "Saint-Pierre-des-Corps", "type": "Gare accessible", "transport": "TGV", "nombre_trajet_moyen": 15.0, "transport_legende": "\ud83d\udeb2 \ud83d\udc94 TGV \ud83d\ude84"}, "geometry": {"type": "Point", "coordinates": [0.723539, 47.38614]}}, {"type": "Feature", "properties": {"start": "Bordeaux Saint-Jean", "stop_name": "Massy TGV", "type": "Gare accessible", "transport": "TGV", "nombre_trajet_moyen": 14.1, "transport_legende": "\ud83d\udeb2 \ud83d\udc94 TGV \ud83d\ude84"}, "geometry": {"type": "Point", "coordinates": [2.261254, 48.725758]}}, {"type": "Feature", "properties": {"start": "Bordeaux Saint-Jean", "stop_name": "Marne-la-Vall\u00e9e Chessy", "type": "Gare accessible", "transport": "TGV", "nombre_trajet_moyen": 5.61, "transport_legende": "\ud83d\udeb2 \ud83d\udc94 TGV \ud83d\ude84"}, "geometry": {"type": "Point", "coordinates": [2.782626, 48.869898]}}, {"type": "Feature", "properties": {"start": "Bordeaux Saint-Jean", "stop_name": "A\u00e9roport Charles de Gaulle 2 TGV", "type": "Gare accessible", "transport": "TGV", "nombre_trajet_moyen": 3.81, "transport_legende": "\ud83d\udeb2 \ud83d\udc94 TGV \ud83d\ude84"}, "geometry": {"type": "Point", "coordinates": [2.570812, 49.003618]}}, {"type": "Feature", "properties": {"start": "Bordeaux Saint-Jean", "stop_name": "Lille Flandres", "type": "Gare accessible", "transport": "TGV", "nombre_trajet_moyen": 2.0, "transport_legende": "\ud83d\udeb2 \ud83d\udc94 TGV \ud83d\ude84"}, "geometry": {"type": "Point", "coordinates": [3.06987, 50.636577]}}, {"type": "Feature", "properties": {"start": "Bordeaux Saint-Jean", "stop_name": "Champagne-Ardenne TGV", "type": "Gare accessible", "transport": "TGV", "nombre_trajet_moyen": 1.94, "transport_legende": "\ud83d\udeb2 \ud83d\udc94 TGV \ud83d\ude84"}, "geometry": {"type": "Point", "coordinates": [3.994523, 49.214769]}}, {"type": "Feature", "properties": {"start": "Bordeaux Saint-Jean", "stop_name": "Meuse TGV", "type": "Gare accessible", "transport": "TGV", "nombre_trajet_moyen": 1.94, "transport_legende": "\ud83d\udeb2 \ud83d\udc94 TGV \ud83d\ude84"}, "geometry": {"type": "Point", "coordinates": [5.271024, 48.978583]}}, {"type": "Feature", "properties": {"start": "Bordeaux Saint-Jean", "stop_name": "Lorraine TGV", "type": "Gare accessible", "transport": "TGV", "nombre_trajet_moyen": 1.94, "transport_legende": "\ud83d\udeb2 \ud83d\udc94 TGV \ud83d\ude84"}, "geometry": {"type": "Point", "coordinates": [6.169778, 48.947713]}}, {"type": "Feature", "properties": {"start": "Bordeaux Saint-Jean", "stop_name": "Strasbourg", "type": "Gare accessible", "transport": "TGV", "nombre_trajet_moyen": 1.94, "transport_legende": "\ud83d\udeb2 \ud83d\udc94 TGV \ud83d\ude84"}, "geometry": {"type": "Point", "coordinates": [7.734793, 48.584532]}}, {"type": "Feature", "properties": {"start": "Bordeaux Saint-Jean", "stop_name": "TGV Haute Picardie", "type": "Gare accessible", "transport": "TGV", "nombre_trajet_moyen": 0.29, "transport_legende": "\ud83d\udeb2 \ud83d\udc94 TGV \ud83d\ude84"}, "geometry": {"type": "Point", "coordinates": [2.831619, 49.859172]}}, {"type": "Feature", "properties": {"start": "Bordeaux Saint-Jean", "stop_name": "Tourcoing", "type": "Gare accessible", "transport": "TGV", "nombre_trajet_moyen": 0.29, "transport_legende": "\ud83d\udeb2 \ud83d\udc94 TGV \ud83d\ude84"}, "geometry": {"type": "Point", "coordinates": [3.168027, 50.716826]}}, {"type": "Feature", "properties": {"start": "Bordeaux Saint-Jean", "stop_name": "Agen", "type": "Gare accessible", "transport": "TGV", "nombre_trajet_moyen": 9.55, "transport_legende": "\ud83d\udeb2 \ud83d\udc94 TGV \ud83d\ude84"}, "geometry": {"type": "Point", "coordinates": [0.620867, 44.207967]}}, {"type": "Feature", "properties": {"start": "Bordeaux Saint-Jean", "stop_name": "Montauban Ville Bourbon", "type": "Gare accessible", "transport": "TGV", "nombre_trajet_moyen": 7.65, "transport_legende": "\ud83d\udeb2 \ud83d\udc94 TGV \ud83d\ude84"}, "geometry": {"type": "Point", "coordinates": [1.341499, 44.01444]}}, {"type": "Feature", "properties": {"start": "Bordeaux Saint-Jean", "stop_name": "Toulouse Matabiau", "type": "Gare accessible", "transport": "TGV", "nombre_trajet_moyen": 11.06, "transport_legende": "\ud83d\udeb2 \ud83d\udc94 TGV \ud83d\ude84"}, "geometry": {"type": "Point", "coordinates": [1.453616, 43.611206]}}, {"type": "Feature", "properties": {"start": "Bordeaux Saint-Jean", "stop_name": "Dax", "type": "Gare accessible", "transport": "TGV", "nombre_trajet_moyen": 10.65, "transport_legende": "\ud83d\udeb2 \ud83d\udc94 TGV \ud83d\ude84"}, "geometry": {"type": "Point", "coordinates": [-1.050301, 43.720472]}}, {"type": "Feature", "properties": {"start": "Bordeaux Saint-Jean", "stop_name": "Arcachon", "type": "Gare accessible", "transport": "TGV", "nombre_trajet_moyen": 2.58, "transport_legende": "\ud83d\udeb2 \ud83d\udc94 TGV \ud83d\ude84"}, "geometry": {"type": "Point", "coordinates": [-1.165323, 44.658967]}}, {"type": "Feature", "properties": {"start": "Bordeaux Saint-Jean", "stop_name": "Biganos Facture", "type": "Gare accessible", "transport": "TGV", "nombre_trajet_moyen": 2.58, "transport_legende": "\ud83d\udeb2 \ud83d\udc94 TGV \ud83d\ude84"}, "geometry": {"type": "Point", "coordinates": [-0.96621, 44.637384]}}, {"type": "Feature", "properties": {"start": "Bordeaux Saint-Jean", "stop_name": "La Teste", "type": "Gare accessible", "transport": "TGV", "nombre_trajet_moyen": 0.32, "transport_legende": "\ud83d\udeb2 \ud83d\udc94 TGV \ud83d\ude84"}, "geometry": {"type": "Point", "coordinates": [-1.14297, 44.636966]}}, {"type": "Feature", "properties": {"start": "Bordeaux Saint-Jean", "stop_name": "Libourne", "type": "Gare accessible", "transport": "TGV", "nombre_trajet_moyen": 5.94, "transport_legende": "\ud83d\udeb2 \ud83d\udc94 TGV \ud83d\ude84"}, "geometry": {"type": "Point", "coordinates": [-0.236359, 44.915904]}}, {"type": "Feature", "properties": {"start": "Bordeaux Saint-Jean", "stop_name": "Ch\u00e2tellerault", "type": "Gare accessible", "transport": "TGV", "nombre_trajet_moyen": 0.45, "transport_legende": "\ud83d\udeb2 \ud83d\udc94 TGV \ud83d\ude84"}, "geometry": {"type": "Point", "coordinates": [0.549279, 46.818594]}}, {"type": "Feature", "properties": {"start": "Bordeaux Saint-Jean", "stop_name": "Hendaye", "type": "Gare accessible", "transport": "TGV", "nombre_trajet_moyen": 8.42, "transport_legende": "\ud83d\udeb2 \ud83d\udc94 TGV \ud83d\ude84"}, "geometry": {"type": "Point", "coordinates": [-1.781724, 43.353132]}}, {"type": "Feature", "properties": {"start": "Bordeaux Saint-Jean", "stop_name": "Saint-Jean-de-Luz - Ciboure", "type": "Gare accessible", "transport": "TGV", "nombre_trajet_moyen": 8.42, "transport_legende": "\ud83d\udeb2 \ud83d\udc94 TGV \ud83d\ude84"}, "geometry": {"type": "Point", "coordinates": [-1.661181, 43.385862]}}, {"type": "Feature", "properties": {"start": "Bordeaux Saint-Jean", "stop_name": "Biarritz", "type": "Gare accessible", "transport": "TGV", "nombre_trajet_moyen": 8.42, "transport_legende": "\ud83d\udeb2 \ud83d\udc94 TGV \ud83d\ude84"}, "geometry": {"type": "Point", "coordinates": [-1.545937, 43.459387]}}, {"type": "Feature", "properties": {"start": "Bordeaux Saint-Jean", "stop_name": "Bayonne", "type": "Gare accessible", "transport": "TGV", "nombre_trajet_moyen": 8.42, "transport_legende": "\ud83d\udeb2 \ud83d\udc94 TGV \ud83d\ude84"}, "geometry": {"type": "Point", "coordinates": [-1.470368, 43.496793]}}, {"type": "Feature", "properties": {"start": "Bordeaux Saint-Jean", "stop_name": "Tarbes", "type": "Gare accessible", "transport": "TGV", "nombre_trajet_moyen": 6.16, "transport_legende": "\ud83d\udeb2 \ud83d\udc94 TGV \ud83d\ude84"}, "geometry": {"type": "Point", "coordinates": [0.069442, 43.239863]}}, {"type": "Feature", "properties": {"start": "Bordeaux Saint-Jean", "stop_name": "Lourdes", "type": "Gare accessible", "transport": "TGV", "nombre_trajet_moyen": 6.16, "transport_legende": "\ud83d\udeb2 \ud83d\udc94 TGV \ud83d\ude84"}, "geometry": {"type": "Point", "coordinates": [-0.042186, 43.100429]}}, {"type": "Feature", "properties": {"start": "Bordeaux Saint-Jean", "stop_name": "Pau", "type": "Gare accessible", "transport": "TGV", "nombre_trajet_moyen": 6.16, "transport_legende": "\ud83d\udeb2 \ud83d\udc94 TGV \ud83d\ude84"}, "geometry": {"type": "Point", "coordinates": [-0.369675, 43.291711]}}, {"type": "Feature", "properties": {"start": "Bordeaux Saint-Jean", "stop_name": "Orthez", "type": "Gare accessible", "transport": "TGV", "nombre_trajet_moyen": 5.06, "transport_legende": "\ud83d\udeb2 \ud83d\udc94 TGV \ud83d\ude84"}, "geometry": {"type": "Point", "coordinates": [-0.76776, 43.484242]}}, {"type": "Feature", "properties": {"start": "Bordeaux Saint-Jean", "stop_name": "Bruxelles Midi", "type": "Gare accessible", "transport": "TGV", "nombre_trajet_moyen": 1.65, "transport_legende": "\ud83d\udeb2 \ud83d\udc94 TGV \ud83d\ude84"}, "geometry": {"type": "Point", "coordinates": [4.336, 50.836]}}, {"type": "Feature", "properties": {"start": "Bordeaux Saint-Jean", "stop_name": "Lille Europe", "type": "Gare accessible", "transport": "TGV", "nombre_trajet_moyen": 1.71, "transport_legende": "\ud83d\udeb2 \ud83d\udc94 TGV \ud83d\ude84"}, "geometry": {"type": "Point", "coordinates": [3.075721, 50.6394]}}]}