{"type": "FeatureCollection", "features": [{"type": "Feature", "properties": {"start": "Dole", "stop_name": "Dole", "type": "Gare s\u00e9lectionn\u00e9e", "transport": "TGV", "transport_legende": "\ud83d\udeb2 \ud83d\udc94 TGV \ud83d\ude84"}, "geometry": {"type": "Point", "coordinates": [5.48806, 47.09615]}}, {"type": "Feature", "properties": {"start": "Dole", "stop_name": "Paris Gare de Lyon Hall 1 - 2", "type": "Gare accessible", "transport": "TGV", "transport_legende": "\ud83d\udeb2 \ud83d\udc94 TGV \ud83d\ude84"}, "geometry": {"type": "Point", "coordinates": [2.373481, 48.844945]}}, {"type": "Feature", "properties": {"start": "Dole", "stop_name": "Montbard", "type": "Gare accessible", "transport": "TGV", "transport_legende": "\ud83d\udeb2 \ud83d\udc94 TGV \ud83d\ude84"}, "geometry": {"type": "Point", "coordinates": [4.336212, 47.618741]}}, {"type": "Feature", "properties": {"start": "Dole", "stop_name": "Dijon", "type": "Gare accessible", "transport": "TGV", "transport_legende": "\ud83d\udeb2 \ud83d\udc94 TGV \ud83d\ude84"}, "geometry": {"type": "Point", "coordinates": [5.027256, 47.323411]}}, {"type": "Feature", "properties": {"start": "Dole", "stop_name": "Besan\u00e7on Viotte", "type": "Gare accessible", "transport": "TGV", "transport_legende": "\ud83d\udeb2 \ud83d\udc94 TGV \ud83d\ude84"}, "geometry": {"type": "Point", "coordinates": [6.021943, 47.247049]}}]}