{"type": "FeatureCollection", "features": [{"type": "Feature", "properties": {"start": "Lausanne", "stop_name": "Lausanne", "type": "Gare s\u00e9lectionn\u00e9e", "transport": "TGV", "nombre_trajet_moyen": 10.06, "transport_legende": "\ud83d\udeb2 \ud83d\udc94 TGV \ud83d\ude84"}, "geometry": {"type": "Point", "coordinates": [6.62909, 46.51679]}}, {"type": "Feature", "properties": {"start": "Lausanne", "stop_name": "Paris Gare de Lyon Hall 1 - 2", "type": "Gare accessible", "transport": "TGV", "nombre_trajet_moyen": 10.06, "transport_legende": "\ud83d\udeb2 \ud83d\udc94 TGV \ud83d\ude84"}, "geometry": {"type": "Point", "coordinates": [2.373481, 48.844945]}}, {"type": "Feature", "properties": {"start": "Lausanne", "stop_name": "Dijon", "type": "Gare accessible", "transport": "TGV", "nombre_trajet_moyen": 5.77, "transport_legende": "\ud83d\udeb2 \ud83d\udc94 TGV \ud83d\ude84"}, "geometry": {"type": "Point", "coordinates": [5.027256, 47.323411]}}, {"type": "Feature", "properties": {"start": "Lausanne", "stop_name": "Dole", "type": "Gare accessible", "transport": "TGV", "nombre_trajet_moyen": 5.77, "transport_legende": "\ud83d\udeb2 \ud83d\udc94 TGV \ud83d\ude84"}, "geometry": {"type": "Point", "coordinates": [5.48806, 47.09615]}}, {"type": "Feature", "properties": {"start": "Lausanne", "stop_name": "Frasne", "type": "Gare accessible", "transport": "TGV", "nombre_trajet_moyen": 5.77, "transport_legende": "\ud83d\udeb2 \ud83d\udc94 TGV \ud83d\ude84"}, "geometry": {"type": "Point", "coordinates": [6.157767, 46.857596]}}, {"type": "Feature", "properties": {"start": "Lausanne", "stop_name": "Vallorbe", "type": "Gare accessible", "transport": "TGV", "nombre_trajet_moyen": 5.77, "transport_legende": "\ud83d\udeb2 \ud83d\udc94 TGV \ud83d\ude84"}, "geometry": {"type": "Point", "coordinates": [6.37057, 46.71242]}}, {"type": "Feature", "properties": {"start": "Lausanne", "stop_name": "Mouchard", "type": "Gare accessible", "transport": "TGV", "nombre_trajet_moyen": 1.94, "transport_legende": "\ud83d\udeb2 \ud83d\udc94 TGV \ud83d\ude84"}, "geometry": {"type": "Point", "coordinates": [5.799698, 46.976865]}}, {"type": "Feature", "properties": {"start": "Lausanne", "stop_name": "Gen\u00e8ve", "type": "Gare accessible", "transport": "TGV", "nombre_trajet_moyen": 4.39, "transport_legende": "\ud83d\udeb2 \ud83d\udc94 TGV \ud83d\ude84"}, "geometry": {"type": "Point", "coordinates": [6.14244, 46.21022]}}, {"type": "Feature", "properties": {"start": "Lausanne", "stop_name": "Bourg-en-Bresse", "type": "Gare accessible", "transport": "TGV", "nombre_trajet_moyen": 4.29, "transport_legende": "\ud83d\udeb2 \ud83d\udc94 TGV \ud83d\ude84"}, "geometry": {"type": "Point", "coordinates": [5.215011, 46.200111]}}, {"type": "Feature", "properties": {"start": "Lausanne", "stop_name": "Bellegarde", "type": "Gare accessible", "transport": "TGV", "nombre_trajet_moyen": 4.29, "transport_legende": "\ud83d\udeb2 \ud83d\udc94 TGV \ud83d\ude84"}, "geometry": {"type": "Point", "coordinates": [5.823483, 46.109425]}}]}