{"type": "FeatureCollection", "features": [{"type": "Feature", "properties": {"start": "Laval", "stop_name": "Laval", "type": "Gare s\u00e9lectionn\u00e9e", "transport": "TGV", "nombre_trajet_moyen": 18.45, "transport_legende": "\ud83d\udeb2 \ud83d\udc94 TGV \ud83d\ude84"}, "geometry": {"type": "Point", "coordinates": [-0.760929, 48.076255]}}, {"type": "Feature", "properties": {"start": "Laval", "stop_name": "Lille Europe", "type": "Gare accessible", "transport": "TGV", "nombre_trajet_moyen": 2.74, "transport_legende": "\ud83d\udeb2 \ud83d\udc94 TGV \ud83d\ude84"}, "geometry": {"type": "Point", "coordinates": [3.075721, 50.6394]}}, {"type": "Feature", "properties": {"start": "Laval", "stop_name": "TGV Haute Picardie", "type": "Gare accessible", "transport": "TGV", "nombre_trajet_moyen": 1.84, "transport_legende": "\ud83d\udeb2 \ud83d\udc94 TGV \ud83d\ude84"}, "geometry": {"type": "Point", "coordinates": [2.831619, 49.859172]}}, {"type": "Feature", "properties": {"start": "Laval", "stop_name": "A\u00e9roport Charles de Gaulle 2 TGV", "type": "Gare accessible", "transport": "TGV", "nombre_trajet_moyen": 2.74, "transport_legende": "\ud83d\udeb2 \ud83d\udc94 TGV \ud83d\ude84"}, "geometry": {"type": "Point", "coordinates": [2.570812, 49.003618]}}, {"type": "Feature", "properties": {"start": "Laval", "stop_name": "Marne-la-Vall\u00e9e Chessy", "type": "Gare accessible", "transport": "TGV", "nombre_trajet_moyen": 2.74, "transport_legende": "\ud83d\udeb2 \ud83d\udc94 TGV \ud83d\ude84"}, "geometry": {"type": "Point", "coordinates": [2.782626, 48.869898]}}, {"type": "Feature", "properties": {"start": "Laval", "stop_name": "Massy TGV", "type": "Gare accessible", "transport": "TGV", "nombre_trajet_moyen": 6.71, "transport_legende": "\ud83d\udeb2 \ud83d\udc94 TGV \ud83d\ude84"}, "geometry": {"type": "Point", "coordinates": [2.261254, 48.725758]}}, {"type": "Feature", "properties": {"start": "Laval", "stop_name": "Le Mans", "type": "Gare accessible", "transport": "TGV", "nombre_trajet_moyen": 12.48, "transport_legende": "\ud83d\udeb2 \ud83d\udc94 TGV \ud83d\ude84"}, "geometry": {"type": "Point", "coordinates": [0.192614, 47.995615]}}, {"type": "Feature", "properties": {"start": "Laval", "stop_name": "Rennes", "type": "Gare accessible", "transport": "TGV", "nombre_trajet_moyen": 18.45, "transport_legende": "\ud83d\udeb2 \ud83d\udc94 TGV \ud83d\ude84"}, "geometry": {"type": "Point", "coordinates": [-1.672744, 48.103517]}}, {"type": "Feature", "properties": {"start": "Laval", "stop_name": "Lyon Part Dieu", "type": "Gare accessible", "transport": "TGV", "nombre_trajet_moyen": 2.26, "transport_legende": "\ud83d\udeb2 \ud83d\udc94 TGV \ud83d\ude84"}, "geometry": {"type": "Point", "coordinates": [4.859409, 45.760596]}}, {"type": "Feature", "properties": {"start": "Laval", "stop_name": "Lyon Perrache", "type": "Gare accessible", "transport": "TGV", "nombre_trajet_moyen": 0.71, "transport_legende": "\ud83d\udeb2 \ud83d\udc94 TGV \ud83d\ude84"}, "geometry": {"type": "Point", "coordinates": [4.825777, 45.748508]}}, {"type": "Feature", "properties": {"start": "Laval", "stop_name": "Valence TGV Rh\u00f4ne-Alpes Sud", "type": "Gare accessible", "transport": "TGV", "nombre_trajet_moyen": 0.48, "transport_legende": "\ud83d\udeb2 \ud83d\udc94 TGV \ud83d\ude84"}, "geometry": {"type": "Point", "coordinates": [4.978652, 44.991907]}}, {"type": "Feature", "properties": {"start": "Laval", "stop_name": "N\u00eemes Centre", "type": "Gare accessible", "transport": "TGV", "nombre_trajet_moyen": 0.48, "transport_legende": "\ud83d\udeb2 \ud83d\udc94 TGV \ud83d\ude84"}, "geometry": {"type": "Point", "coordinates": [4.365872, 43.832313]}}, {"type": "Feature", "properties": {"start": "Laval", "stop_name": "Montpellier Saint-Roch", "type": "Gare accessible", "transport": "TGV", "nombre_trajet_moyen": 0.48, "transport_legende": "\ud83d\udeb2 \ud83d\udc94 TGV \ud83d\ude84"}, "geometry": {"type": "Point", "coordinates": [3.880674, 43.604738]}}, {"type": "Feature", "properties": {"start": "Laval", "stop_name": "Avignon TGV", "type": "Gare accessible", "transport": "TGV", "nombre_trajet_moyen": 1.32, "transport_legende": "\ud83d\udeb2 \ud83d\udc94 TGV \ud83d\ude84"}, "geometry": {"type": "Point", "coordinates": [4.786136, 43.92194]}}, {"type": "Feature", "properties": {"start": "Laval", "stop_name": "Aix-en-Provence TGV", "type": "Gare accessible", "transport": "TGV", "nombre_trajet_moyen": 1.32, "transport_legende": "\ud83d\udeb2 \ud83d\udc94 TGV \ud83d\ude84"}, "geometry": {"type": "Point", "coordinates": [5.317534, 43.455237]}}, {"type": "Feature", "properties": {"start": "Laval", "stop_name": "Marseille Saint-Charles", "type": "Gare accessible", "transport": "TGV", "nombre_trajet_moyen": 1.32, "transport_legende": "\ud83d\udeb2 \ud83d\udc94 TGV \ud83d\ude84"}, "geometry": {"type": "Point", "coordinates": [5.380407, 43.302666]}}, {"type": "Feature", "properties": {"start": "Laval", "stop_name": "Paris Montparnasse Hall 1 - 2", "type": "Gare accessible", "transport": "TGV", "nombre_trajet_moyen": 13.97, "transport_legende": "\ud83d\udeb2 \ud83d\udc94 TGV \ud83d\ude84"}, "geometry": {"type": "Point", "coordinates": [2.320514, 48.841172]}}, {"type": "Feature", "properties": {"start": "Laval", "stop_name": "Vitr\u00e9", "type": "Gare accessible", "transport": "TGV", "nombre_trajet_moyen": 3.52, "transport_legende": "\ud83d\udeb2 \ud83d\udc94 TGV \ud83d\ude84"}, "geometry": {"type": "Point", "coordinates": [-1.211754, 48.122671]}}, {"type": "Feature", "properties": {"start": "Laval", "stop_name": "Saint-Malo", "type": "Gare accessible", "transport": "TGV", "nombre_trajet_moyen": 2.77, "transport_legende": "\ud83d\udeb2 \ud83d\udc94 TGV \ud83d\ude84"}, "geometry": {"type": "Point", "coordinates": [-2.004158, 48.646859]}}, {"type": "Feature", "properties": {"start": "Laval", "stop_name": "Dol-de-Bretagne", "type": "Gare accessible", "transport": "TGV", "nombre_trajet_moyen": 1.77, "transport_legende": "\ud83d\udeb2 \ud83d\udc94 TGV \ud83d\ude84"}, "geometry": {"type": "Point", "coordinates": [-1.750536, 48.54425]}}, {"type": "Feature", "properties": {"start": "Laval", "stop_name": "Brest", "type": "Gare accessible", "transport": "TGV", "nombre_trajet_moyen": 2.81, "transport_legende": "\ud83d\udeb2 \ud83d\udc94 TGV \ud83d\ude84"}, "geometry": {"type": "Point", "coordinates": [-4.480306, 48.38762]}}, {"type": "Feature", "properties": {"start": "Laval", "stop_name": "Morlaix", "type": "Gare accessible", "transport": "TGV", "nombre_trajet_moyen": 2.81, "transport_legende": "\ud83d\udeb2 \ud83d\udc94 TGV \ud83d\ude84"}, "geometry": {"type": "Point", "coordinates": [-3.832514, 48.57797]}}, {"type": "Feature", "properties": {"start": "Laval", "stop_name": "Guingamp", "type": "Gare accessible", "transport": "TGV", "nombre_trajet_moyen": 2.81, "transport_legende": "\ud83d\udeb2 \ud83d\udc94 TGV \ud83d\ude84"}, "geometry": {"type": "Point", "coordinates": [-3.143343, 48.555659]}}, {"type": "Feature", "properties": {"start": "Laval", "stop_name": "Saint-Brieuc", "type": "Gare accessible", "transport": "TGV", "nombre_trajet_moyen": 3.39, "transport_legende": "\ud83d\udeb2 \ud83d\udc94 TGV \ud83d\ude84"}, "geometry": {"type": "Point", "coordinates": [-2.765, 48.50758]}}, {"type": "Feature", "properties": {"start": "Laval", "stop_name": "Lamballe", "type": "Gare accessible", "transport": "TGV", "nombre_trajet_moyen": 1.0, "transport_legende": "\ud83d\udeb2 \ud83d\udc94 TGV \ud83d\ude84"}, "geometry": {"type": "Point", "coordinates": [-2.511546, 48.46606]}}, {"type": "Feature", "properties": {"start": "Laval", "stop_name": "Plouaret Tr\u00e9gor", "type": "Gare accessible", "transport": "TGV", "nombre_trajet_moyen": 0.23, "transport_legende": "\ud83d\udeb2 \ud83d\udc94 TGV \ud83d\ude84"}, "geometry": {"type": "Point", "coordinates": [-3.466979, 48.606422]}}, {"type": "Feature", "properties": {"start": "Laval", "stop_name": "Quimper", "type": "Gare accessible", "transport": "TGV", "nombre_trajet_moyen": 1.71, "transport_legende": "\ud83d\udeb2 \ud83d\udc94 TGV \ud83d\ude84"}, "geometry": {"type": "Point", "coordinates": [-4.092103, 47.994455]}}, {"type": "Feature", "properties": {"start": "Laval", "stop_name": "Lorient", "type": "Gare accessible", "transport": "TGV", "nombre_trajet_moyen": 2.26, "transport_legende": "\ud83d\udeb2 \ud83d\udc94 TGV \ud83d\ude84"}, "geometry": {"type": "Point", "coordinates": [-3.366221, 47.755597]}}, {"type": "Feature", "properties": {"start": "Laval", "stop_name": "Auray", "type": "Gare accessible", "transport": "TGV", "nombre_trajet_moyen": 1.58, "transport_legende": "\ud83d\udeb2 \ud83d\udc94 TGV \ud83d\ude84"}, "geometry": {"type": "Point", "coordinates": [-2.999363, 47.680085]}}, {"type": "Feature", "properties": {"start": "Laval", "stop_name": "Vannes", "type": "Gare accessible", "transport": "TGV", "nombre_trajet_moyen": 2.26, "transport_legende": "\ud83d\udeb2 \ud83d\udc94 TGV \ud83d\ude84"}, "geometry": {"type": "Point", "coordinates": [-2.75245, 47.665169]}}, {"type": "Feature", "properties": {"start": "Laval", "stop_name": "Redon", "type": "Gare accessible", "transport": "TGV", "nombre_trajet_moyen": 0.87, "transport_legende": "\ud83d\udeb2 \ud83d\udc94 TGV \ud83d\ude84"}, "geometry": {"type": "Point", "coordinates": [-2.08777, 47.652004]}}, {"type": "Feature", "properties": {"start": "Laval", "stop_name": "Quimperl\u00e9", "type": "Gare accessible", "transport": "TGV", "nombre_trajet_moyen": 0.87, "transport_legende": "\ud83d\udeb2 \ud83d\udc94 TGV \ud83d\ude84"}, "geometry": {"type": "Point", "coordinates": [-3.552693, 47.869375]}}, {"type": "Feature", "properties": {"start": "Laval", "stop_name": "Rosporden", "type": "Gare accessible", "transport": "TGV", "nombre_trajet_moyen": 0.19, "transport_legende": "\ud83d\udeb2 \ud83d\udc94 TGV \ud83d\ude84"}, "geometry": {"type": "Point", "coordinates": [-3.832702, 47.960224]}}, {"type": "Feature", "properties": {"start": "Laval", "stop_name": "Bruxelles Midi", "type": "Gare accessible", "transport": "TGV", "nombre_trajet_moyen": 0.9, "transport_legende": "\ud83d\udeb2 \ud83d\udc94 TGV \ud83d\ude84"}, "geometry": {"type": "Point", "coordinates": [4.336, 50.836]}}]}