{"type": "FeatureCollection", "features": [{"type": "Feature", "properties": {"start": "Le Mans", "stop_name": "Le Mans", "type": "Gare s\u00e9lectionn\u00e9e", "transport": "TGV", "nombre_trajet_moyen": 36.74, "transport_legende": "\ud83d\udeb2 \ud83d\udc94 TGV \ud83d\ude84"}, "geometry": {"type": "Point", "coordinates": [0.192614, 47.995615]}}, {"type": "Feature", "properties": {"start": "Le Mans", "stop_name": "Lille Europe", "type": "Gare accessible", "transport": "TGV", "nombre_trajet_moyen": 5.06, "transport_legende": "\ud83d\udeb2 \ud83d\udc94 TGV \ud83d\ude84"}, "geometry": {"type": "Point", "coordinates": [3.075721, 50.6394]}}, {"type": "Feature", "properties": {"start": "Le Mans", "stop_name": "A\u00e9roport Charles de Gaulle 2 TGV", "type": "Gare accessible", "transport": "TGV", "nombre_trajet_moyen": 8.81, "transport_legende": "\ud83d\udeb2 \ud83d\udc94 TGV \ud83d\ude84"}, "geometry": {"type": "Point", "coordinates": [2.570812, 49.003618]}}, {"type": "Feature", "properties": {"start": "Le Mans", "stop_name": "Marne-la-Vall\u00e9e Chessy", "type": "Gare accessible", "transport": "TGV", "nombre_trajet_moyen": 9.71, "transport_legende": "\ud83d\udeb2 \ud83d\udc94 TGV \ud83d\ude84"}, "geometry": {"type": "Point", "coordinates": [2.782626, 48.869898]}}, {"type": "Feature", "properties": {"start": "Le Mans", "stop_name": "Massy TGV", "type": "Gare accessible", "transport": "TGV", "nombre_trajet_moyen": 17.45, "transport_legende": "\ud83d\udeb2 \ud83d\udc94 TGV \ud83d\ude84"}, "geometry": {"type": "Point", "coordinates": [2.261254, 48.725758]}}, {"type": "Feature", "properties": {"start": "Le Mans", "stop_name": "Rennes", "type": "Gare accessible", "transport": "TGV", "nombre_trajet_moyen": 18.29, "transport_legende": "\ud83d\udeb2 \ud83d\udc94 TGV \ud83d\ude84"}, "geometry": {"type": "Point", "coordinates": [-1.672744, 48.103517]}}, {"type": "Feature", "properties": {"start": "Le Mans", "stop_name": "Angers Saint-Laud", "type": "Gare accessible", "transport": "TGV", "nombre_trajet_moyen": 20.19, "transport_legende": "\ud83d\udeb2 \ud83d\udc94 TGV \ud83d\ude84"}, "geometry": {"type": "Point", "coordinates": [-0.55677, 47.464649]}}, {"type": "Feature", "properties": {"start": "Le Mans", "stop_name": "Nantes", "type": "Gare accessible", "transport": "TGV", "nombre_trajet_moyen": 19.71, "transport_legende": "\ud83d\udeb2 \ud83d\udc94 TGV \ud83d\ude84"}, "geometry": {"type": "Point", "coordinates": [-1.542077, 47.217491]}}, {"type": "Feature", "properties": {"start": "Le Mans", "stop_name": "TGV Haute Picardie", "type": "Gare accessible", "transport": "TGV", "nombre_trajet_moyen": 3.71, "transport_legende": "\ud83d\udeb2 \ud83d\udc94 TGV \ud83d\ude84"}, "geometry": {"type": "Point", "coordinates": [2.831619, 49.859172]}}, {"type": "Feature", "properties": {"start": "Le Mans", "stop_name": "Laval", "type": "Gare accessible", "transport": "TGV", "nombre_trajet_moyen": 12.48, "transport_legende": "\ud83d\udeb2 \ud83d\udc94 TGV \ud83d\ude84"}, "geometry": {"type": "Point", "coordinates": [-0.760929, 48.076255]}}, {"type": "Feature", "properties": {"start": "Le Mans", "stop_name": "Lille Flandres", "type": "Gare accessible", "transport": "TGV", "nombre_trajet_moyen": 1.0, "transport_legende": "\ud83d\udeb2 \ud83d\udc94 TGV \ud83d\ude84"}, "geometry": {"type": "Point", "coordinates": [3.06987, 50.636577]}}, {"type": "Feature", "properties": {"start": "Le Mans", "stop_name": "Lyon Part Dieu", "type": "Gare accessible", "transport": "TGV", "nombre_trajet_moyen": 5.48, "transport_legende": "\ud83d\udeb2 \ud83d\udc94 TGV \ud83d\ude84"}, "geometry": {"type": "Point", "coordinates": [4.859409, 45.760596]}}, {"type": "Feature", "properties": {"start": "Le Mans", "stop_name": "Valence TGV Rh\u00f4ne-Alpes Sud", "type": "Gare accessible", "transport": "TGV", "nombre_trajet_moyen": 1.61, "transport_legende": "\ud83d\udeb2 \ud83d\udc94 TGV \ud83d\ude84"}, "geometry": {"type": "Point", "coordinates": [4.978652, 44.991907]}}, {"type": "Feature", "properties": {"start": "Le Mans", "stop_name": "N\u00eemes Centre", "type": "Gare accessible", "transport": "TGV", "nombre_trajet_moyen": 1.1, "transport_legende": "\ud83d\udeb2 \ud83d\udc94 TGV \ud83d\ude84"}, "geometry": {"type": "Point", "coordinates": [4.365872, 43.832313]}}, {"type": "Feature", "properties": {"start": "Le Mans", "stop_name": "Montpellier Saint-Roch", "type": "Gare accessible", "transport": "TGV", "nombre_trajet_moyen": 1.1, "transport_legende": "\ud83d\udeb2 \ud83d\udc94 TGV \ud83d\ude84"}, "geometry": {"type": "Point", "coordinates": [3.880674, 43.604738]}}, {"type": "Feature", "properties": {"start": "Le Mans", "stop_name": "Avignon TGV", "type": "Gare accessible", "transport": "TGV", "nombre_trajet_moyen": 2.97, "transport_legende": "\ud83d\udeb2 \ud83d\udc94 TGV \ud83d\ude84"}, "geometry": {"type": "Point", "coordinates": [4.786136, 43.92194]}}, {"type": "Feature", "properties": {"start": "Le Mans", "stop_name": "Marseille Saint-Charles", "type": "Gare accessible", "transport": "TGV", "nombre_trajet_moyen": 2.97, "transport_legende": "\ud83d\udeb2 \ud83d\udc94 TGV \ud83d\ude84"}, "geometry": {"type": "Point", "coordinates": [5.380407, 43.302666]}}, {"type": "Feature", "properties": {"start": "Le Mans", "stop_name": "Aix-en-Provence TGV", "type": "Gare accessible", "transport": "TGV", "nombre_trajet_moyen": 2.13, "transport_legende": "\ud83d\udeb2 \ud83d\udc94 TGV \ud83d\ude84"}, "geometry": {"type": "Point", "coordinates": [5.317534, 43.455237]}}, {"type": "Feature", "properties": {"start": "Le Mans", "stop_name": "Lyon Perrache", "type": "Gare accessible", "transport": "TGV", "nombre_trajet_moyen": 1.9, "transport_legende": "\ud83d\udeb2 \ud83d\udc94 TGV \ud83d\ude84"}, "geometry": {"type": "Point", "coordinates": [4.825777, 45.748508]}}, {"type": "Feature", "properties": {"start": "Le Mans", "stop_name": "Champagne-Ardenne TGV", "type": "Gare accessible", "transport": "TGV", "nombre_trajet_moyen": 3.9, "transport_legende": "\ud83d\udeb2 \ud83d\udc94 TGV \ud83d\ude84"}, "geometry": {"type": "Point", "coordinates": [3.994523, 49.214769]}}, {"type": "Feature", "properties": {"start": "Le Mans", "stop_name": "Lorraine TGV", "type": "Gare accessible", "transport": "TGV", "nombre_trajet_moyen": 3.9, "transport_legende": "\ud83d\udeb2 \ud83d\udc94 TGV \ud83d\ude84"}, "geometry": {"type": "Point", "coordinates": [6.169778, 48.947713]}}, {"type": "Feature", "properties": {"start": "Le Mans", "stop_name": "Strasbourg", "type": "Gare accessible", "transport": "TGV", "nombre_trajet_moyen": 3.9, "transport_legende": "\ud83d\udeb2 \ud83d\udc94 TGV \ud83d\ude84"}, "geometry": {"type": "Point", "coordinates": [7.734793, 48.584532]}}, {"type": "Feature", "properties": {"start": "Le Mans", "stop_name": "Meuse TGV", "type": "Gare accessible", "transport": "TGV", "nombre_trajet_moyen": 1.71, "transport_legende": "\ud83d\udeb2 \ud83d\udc94 TGV \ud83d\ude84"}, "geometry": {"type": "Point", "coordinates": [5.271024, 48.978583]}}, {"type": "Feature", "properties": {"start": "Le Mans", "stop_name": "Paris Montparnasse Hall 1 - 2", "type": "Gare accessible", "transport": "TGV", "nombre_trajet_moyen": 23.32, "transport_legende": "\ud83d\udeb2 \ud83d\udc94 TGV \ud83d\ude84"}, "geometry": {"type": "Point", "coordinates": [2.320514, 48.841172]}}, {"type": "Feature", "properties": {"start": "Le Mans", "stop_name": "Vitr\u00e9", "type": "Gare accessible", "transport": "TGV", "nombre_trajet_moyen": 1.9, "transport_legende": "\ud83d\udeb2 \ud83d\udc94 TGV \ud83d\ude84"}, "geometry": {"type": "Point", "coordinates": [-1.211754, 48.122671]}}, {"type": "Feature", "properties": {"start": "Le Mans", "stop_name": "Saint-Malo", "type": "Gare accessible", "transport": "TGV", "nombre_trajet_moyen": 1.94, "transport_legende": "\ud83d\udeb2 \ud83d\udc94 TGV \ud83d\ude84"}, "geometry": {"type": "Point", "coordinates": [-2.004158, 48.646859]}}, {"type": "Feature", "properties": {"start": "Le Mans", "stop_name": "Dol-de-Bretagne", "type": "Gare accessible", "transport": "TGV", "nombre_trajet_moyen": 0.94, "transport_legende": "\ud83d\udeb2 \ud83d\udc94 TGV \ud83d\ude84"}, "geometry": {"type": "Point", "coordinates": [-1.750536, 48.54425]}}, {"type": "Feature", "properties": {"start": "Le Mans", "stop_name": "Lamballe", "type": "Gare accessible", "transport": "TGV", "nombre_trajet_moyen": 0.81, "transport_legende": "\ud83d\udeb2 \ud83d\udc94 TGV \ud83d\ude84"}, "geometry": {"type": "Point", "coordinates": [-2.511546, 48.46606]}}, {"type": "Feature", "properties": {"start": "Le Mans", "stop_name": "Saint-Brieuc", "type": "Gare accessible", "transport": "TGV", "nombre_trajet_moyen": 0.81, "transport_legende": "\ud83d\udeb2 \ud83d\udc94 TGV \ud83d\ude84"}, "geometry": {"type": "Point", "coordinates": [-2.765, 48.50758]}}, {"type": "Feature", "properties": {"start": "Le Mans", "stop_name": "Guingamp", "type": "Gare accessible", "transport": "TGV", "nombre_trajet_moyen": 0.81, "transport_legende": "\ud83d\udeb2 \ud83d\udc94 TGV \ud83d\ude84"}, "geometry": {"type": "Point", "coordinates": [-3.143343, 48.555659]}}, {"type": "Feature", "properties": {"start": "Le Mans", "stop_name": "Morlaix", "type": "Gare accessible", "transport": "TGV", "nombre_trajet_moyen": 0.81, "transport_legende": "\ud83d\udeb2 \ud83d\udc94 TGV \ud83d\ude84"}, "geometry": {"type": "Point", "coordinates": [-3.832514, 48.57797]}}, {"type": "Feature", "properties": {"start": "Le Mans", "stop_name": "Brest", "type": "Gare accessible", "transport": "TGV", "nombre_trajet_moyen": 0.81, "transport_legende": "\ud83d\udeb2 \ud83d\udc94 TGV \ud83d\ude84"}, "geometry": {"type": "Point", "coordinates": [-4.480306, 48.38762]}}, {"type": "Feature", "properties": {"start": "Le Mans", "stop_name": "Lorient", "type": "Gare accessible", "transport": "TGV", "nombre_trajet_moyen": 0.29, "transport_legende": "\ud83d\udeb2 \ud83d\udc94 TGV \ud83d\ude84"}, "geometry": {"type": "Point", "coordinates": [-3.366221, 47.755597]}}, {"type": "Feature", "properties": {"start": "Le Mans", "stop_name": "Vannes", "type": "Gare accessible", "transport": "TGV", "nombre_trajet_moyen": 0.71, "transport_legende": "\ud83d\udeb2 \ud83d\udc94 TGV \ud83d\ude84"}, "geometry": {"type": "Point", "coordinates": [-2.75245, 47.665169]}}, {"type": "Feature", "properties": {"start": "Le Mans", "stop_name": "Redon", "type": "Gare accessible", "transport": "TGV", "nombre_trajet_moyen": 0.58, "transport_legende": "\ud83d\udeb2 \ud83d\udc94 TGV \ud83d\ude84"}, "geometry": {"type": "Point", "coordinates": [-2.08777, 47.652004]}}, {"type": "Feature", "properties": {"start": "Le Mans", "stop_name": "Auray", "type": "Gare accessible", "transport": "TGV", "nombre_trajet_moyen": 0.13, "transport_legende": "\ud83d\udeb2 \ud83d\udc94 TGV \ud83d\ude84"}, "geometry": {"type": "Point", "coordinates": [-2.999363, 47.680085]}}, {"type": "Feature", "properties": {"start": "Le Mans", "stop_name": "Sabl\u00e9-sur-Sarthe", "type": "Gare accessible", "transport": "TGV", "nombre_trajet_moyen": 1.55, "transport_legende": "\ud83d\udeb2 \ud83d\udc94 TGV \ud83d\ude84"}, "geometry": {"type": "Point", "coordinates": [-0.342, 47.841759]}}, {"type": "Feature", "properties": {"start": "Le Mans", "stop_name": "Ancenis", "type": "Gare accessible", "transport": "TGV", "nombre_trajet_moyen": 0.29, "transport_legende": "\ud83d\udeb2 \ud83d\udc94 TGV \ud83d\ude84"}, "geometry": {"type": "Point", "coordinates": [-1.177763, 47.369334]}}, {"type": "Feature", "properties": {"start": "Le Mans", "stop_name": "Le Croisic", "type": "Gare accessible", "transport": "TGV", "nombre_trajet_moyen": 2.35, "transport_legende": "\ud83d\udeb2 \ud83d\udc94 TGV \ud83d\ude84"}, "geometry": {"type": "Point", "coordinates": [-2.50734, 47.289889]}}, {"type": "Feature", "properties": {"start": "Le Mans", "stop_name": "La Baule-Escoublac", "type": "Gare accessible", "transport": "TGV", "nombre_trajet_moyen": 2.35, "transport_legende": "\ud83d\udeb2 \ud83d\udc94 TGV \ud83d\ude84"}, "geometry": {"type": "Point", "coordinates": [-2.38921, 47.288459]}}, {"type": "Feature", "properties": {"start": "Le Mans", "stop_name": "Saint-Nazaire", "type": "Gare accessible", "transport": "TGV", "nombre_trajet_moyen": 2.39, "transport_legende": "\ud83d\udeb2 \ud83d\udc94 TGV \ud83d\ude84"}, "geometry": {"type": "Point", "coordinates": [-2.211079, 47.286489]}}, {"type": "Feature", "properties": {"start": "Le Mans", "stop_name": "Pornichet", "type": "Gare accessible", "transport": "TGV", "nombre_trajet_moyen": 0.42, "transport_legende": "\ud83d\udeb2 \ud83d\udc94 TGV \ud83d\ude84"}, "geometry": {"type": "Point", "coordinates": [-2.344865, 47.27043]}}, {"type": "Feature", "properties": {"start": "Le Mans", "stop_name": "Le Pouliguen", "type": "Gare accessible", "transport": "TGV", "nombre_trajet_moyen": 0.42, "transport_legende": "\ud83d\udeb2 \ud83d\udc94 TGV \ud83d\ude84"}, "geometry": {"type": "Point", "coordinates": [-2.433126, 47.282504]}}, {"type": "Feature", "properties": {"start": "Le Mans", "stop_name": "Les Sables-d'Olonne", "type": "Gare accessible", "transport": "TGV", "nombre_trajet_moyen": 1.0, "transport_legende": "\ud83d\udeb2 \ud83d\udc94 TGV \ud83d\ude84"}, "geometry": {"type": "Point", "coordinates": [-1.781116, 46.500032]}}, {"type": "Feature", "properties": {"start": "Le Mans", "stop_name": "La Roche-sur-Yon", "type": "Gare accessible", "transport": "TGV", "nombre_trajet_moyen": 1.0, "transport_legende": "\ud83d\udeb2 \ud83d\udc94 TGV \ud83d\ude84"}, "geometry": {"type": "Point", "coordinates": [-1.43566, 46.672075]}}, {"type": "Feature", "properties": {"start": "Le Mans", "stop_name": "Bruxelles Midi", "type": "Gare accessible", "transport": "TGV", "nombre_trajet_moyen": 2.71, "transport_legende": "\ud83d\udeb2 \ud83d\udc94 TGV \ud83d\ude84"}, "geometry": {"type": "Point", "coordinates": [4.336, 50.836]}}]}