{"type": "FeatureCollection", "features": [{"type": "Feature", "properties": {"start": "Libourne", "stop_name": "Libourne", "type": "Gare s\u00e9lectionn\u00e9e", "transport": "TGV", "nombre_trajet_moyen": 5.94, "transport_legende": "\ud83d\udeb2 \ud83d\udc94 TGV \ud83d\ude84"}, "geometry": {"type": "Point", "coordinates": [-0.236359, 44.915904]}}, {"type": "Feature", "properties": {"start": "Libourne", "stop_name": "Bordeaux Saint-Jean", "type": "Gare accessible", "transport": "TGV", "nombre_trajet_moyen": 5.94, "transport_legende": "\ud83d\udeb2 \ud83d\udc94 TGV \ud83d\ude84"}, "geometry": {"type": "Point", "coordinates": [-0.556697, 44.825873]}}, {"type": "Feature", "properties": {"start": "Libourne", "stop_name": "Angoul\u00eame", "type": "Gare accessible", "transport": "TGV", "nombre_trajet_moyen": 5.94, "transport_legende": "\ud83d\udeb2 \ud83d\udc94 TGV \ud83d\ude84"}, "geometry": {"type": "Point", "coordinates": [0.164608, 45.653572]}}, {"type": "Feature", "properties": {"start": "Libourne", "stop_name": "Poitiers", "type": "Gare accessible", "transport": "TGV", "nombre_trajet_moyen": 5.94, "transport_legende": "\ud83d\udeb2 \ud83d\udc94 TGV \ud83d\ude84"}, "geometry": {"type": "Point", "coordinates": [0.333136, 46.582232]}}, {"type": "Feature", "properties": {"start": "Libourne", "stop_name": "Paris Montparnasse Hall 1 - 2", "type": "Gare accessible", "transport": "TGV", "nombre_trajet_moyen": 5.94, "transport_legende": "\ud83d\udeb2 \ud83d\udc94 TGV \ud83d\ude84"}, "geometry": {"type": "Point", "coordinates": [2.320514, 48.841172]}}, {"type": "Feature", "properties": {"start": "Libourne", "stop_name": "Saint-Pierre-des-Corps", "type": "Gare accessible", "transport": "TGV", "nombre_trajet_moyen": 1.42, "transport_legende": "\ud83d\udeb2 \ud83d\udc94 TGV \ud83d\ude84"}, "geometry": {"type": "Point", "coordinates": [0.723539, 47.38614]}}, {"type": "Feature", "properties": {"start": "Libourne", "stop_name": "Ch\u00e2tellerault", "type": "Gare accessible", "transport": "TGV", "nombre_trajet_moyen": 0.45, "transport_legende": "\ud83d\udeb2 \ud83d\udc94 TGV \ud83d\ude84"}, "geometry": {"type": "Point", "coordinates": [0.549279, 46.818594]}}]}