{"type": "FeatureCollection", "features": [{"type": "Feature", "properties": {"start": "Lorraine TGV", "stop_name": "Lorraine TGV", "type": "Gare s\u00e9lectionn\u00e9e", "transport": "TGV", "nombre_trajet_moyen": 10.9, "transport_legende": "\ud83d\udeb2 \ud83d\udc94 TGV \ud83d\ude84"}, "geometry": {"type": "Point", "coordinates": [6.169778, 48.947713]}}, {"type": "Feature", "properties": {"start": "Lorraine TGV", "stop_name": "Colmar", "type": "Gare accessible", "transport": "TGV", "nombre_trajet_moyen": 0.81, "transport_legende": "\ud83d\udeb2 \ud83d\udc94 TGV \ud83d\ude84"}, "geometry": {"type": "Point", "coordinates": [7.347756, 48.073527]}}, {"type": "Feature", "properties": {"start": "Lorraine TGV", "stop_name": "S\u00e9lestat", "type": "Gare accessible", "transport": "TGV", "nombre_trajet_moyen": 0.81, "transport_legende": "\ud83d\udeb2 \ud83d\udc94 TGV \ud83d\ude84"}, "geometry": {"type": "Point", "coordinates": [7.443157, 48.259824]}}, {"type": "Feature", "properties": {"start": "Lorraine TGV", "stop_name": "Strasbourg", "type": "Gare accessible", "transport": "TGV", "nombre_trajet_moyen": 10.9, "transport_legende": "\ud83d\udeb2 \ud83d\udc94 TGV \ud83d\ude84"}, "geometry": {"type": "Point", "coordinates": [7.734793, 48.584532]}}, {"type": "Feature", "properties": {"start": "Lorraine TGV", "stop_name": "Paris Est", "type": "Gare accessible", "transport": "TGV", "nombre_trajet_moyen": 1.81, "transport_legende": "\ud83d\udeb2 \ud83d\udc94 TGV \ud83d\ude84"}, "geometry": {"type": "Point", "coordinates": [2.358424, 48.876742]}}, {"type": "Feature", "properties": {"start": "Lorraine TGV", "stop_name": "Meuse TGV", "type": "Gare accessible", "transport": "TGV", "nombre_trajet_moyen": 6.0, "transport_legende": "\ud83d\udeb2 \ud83d\udc94 TGV \ud83d\ude84"}, "geometry": {"type": "Point", "coordinates": [5.271024, 48.978583]}}, {"type": "Feature", "properties": {"start": "Lorraine TGV", "stop_name": "Champagne-Ardenne TGV", "type": "Gare accessible", "transport": "TGV", "nombre_trajet_moyen": 9.1, "transport_legende": "\ud83d\udeb2 \ud83d\udc94 TGV \ud83d\ude84"}, "geometry": {"type": "Point", "coordinates": [3.994523, 49.214769]}}, {"type": "Feature", "properties": {"start": "Lorraine TGV", "stop_name": "A\u00e9roport Charles de Gaulle 2 TGV", "type": "Gare accessible", "transport": "TGV", "nombre_trajet_moyen": 6.42, "transport_legende": "\ud83d\udeb2 \ud83d\udc94 TGV \ud83d\ude84"}, "geometry": {"type": "Point", "coordinates": [2.570812, 49.003618]}}, {"type": "Feature", "properties": {"start": "Lorraine TGV", "stop_name": "TGV Haute Picardie", "type": "Gare accessible", "transport": "TGV", "nombre_trajet_moyen": 0.77, "transport_legende": "\ud83d\udeb2 \ud83d\udc94 TGV \ud83d\ude84"}, "geometry": {"type": "Point", "coordinates": [2.831619, 49.859172]}}, {"type": "Feature", "properties": {"start": "Lorraine TGV", "stop_name": "Lille Europe", "type": "Gare accessible", "transport": "TGV", "nombre_trajet_moyen": 3.19, "transport_legende": "\ud83d\udeb2 \ud83d\udc94 TGV \ud83d\ude84"}, "geometry": {"type": "Point", "coordinates": [3.075721, 50.6394]}}, {"type": "Feature", "properties": {"start": "Lorraine TGV", "stop_name": "Bordeaux Saint-Jean", "type": "Gare accessible", "transport": "TGV", "nombre_trajet_moyen": 1.94, "transport_legende": "\ud83d\udeb2 \ud83d\udc94 TGV \ud83d\ude84"}, "geometry": {"type": "Point", "coordinates": [-0.556697, 44.825873]}}, {"type": "Feature", "properties": {"start": "Lorraine TGV", "stop_name": "Angoul\u00eame", "type": "Gare accessible", "transport": "TGV", "nombre_trajet_moyen": 1.94, "transport_legende": "\ud83d\udeb2 \ud83d\udc94 TGV \ud83d\ude84"}, "geometry": {"type": "Point", "coordinates": [0.164608, 45.653572]}}, {"type": "Feature", "properties": {"start": "Lorraine TGV", "stop_name": "Poitiers", "type": "Gare accessible", "transport": "TGV", "nombre_trajet_moyen": 1.77, "transport_legende": "\ud83d\udeb2 \ud83d\udc94 TGV \ud83d\ude84"}, "geometry": {"type": "Point", "coordinates": [0.333136, 46.582232]}}, {"type": "Feature", "properties": {"start": "Lorraine TGV", "stop_name": "Saint-Pierre-des-Corps", "type": "Gare accessible", "transport": "TGV", "nombre_trajet_moyen": 2.35, "transport_legende": "\ud83d\udeb2 \ud83d\udc94 TGV \ud83d\ude84"}, "geometry": {"type": "Point", "coordinates": [0.723539, 47.38614]}}, {"type": "Feature", "properties": {"start": "Lorraine TGV", "stop_name": "Massy TGV", "type": "Gare accessible", "transport": "TGV", "nombre_trajet_moyen": 6.1, "transport_legende": "\ud83d\udeb2 \ud83d\udc94 TGV \ud83d\ude84"}, "geometry": {"type": "Point", "coordinates": [2.261254, 48.725758]}}, {"type": "Feature", "properties": {"start": "Lorraine TGV", "stop_name": "Marne-la-Vall\u00e9e Chessy", "type": "Gare accessible", "transport": "TGV", "nombre_trajet_moyen": 6.16, "transport_legende": "\ud83d\udeb2 \ud83d\udc94 TGV \ud83d\ude84"}, "geometry": {"type": "Point", "coordinates": [2.782626, 48.869898]}}, {"type": "Feature", "properties": {"start": "Lorraine TGV", "stop_name": "Rennes", "type": "Gare accessible", "transport": "TGV", "nombre_trajet_moyen": 1.74, "transport_legende": "\ud83d\udeb2 \ud83d\udc94 TGV \ud83d\ude84"}, "geometry": {"type": "Point", "coordinates": [-1.672744, 48.103517]}}, {"type": "Feature", "properties": {"start": "Lorraine TGV", "stop_name": "Le Mans", "type": "Gare accessible", "transport": "TGV", "nombre_trajet_moyen": 3.9, "transport_legende": "\ud83d\udeb2 \ud83d\udc94 TGV \ud83d\ude84"}, "geometry": {"type": "Point", "coordinates": [0.192614, 47.995615]}}, {"type": "Feature", "properties": {"start": "Lorraine TGV", "stop_name": "Nantes", "type": "Gare accessible", "transport": "TGV", "nombre_trajet_moyen": 3.03, "transport_legende": "\ud83d\udeb2 \ud83d\udc94 TGV \ud83d\ude84"}, "geometry": {"type": "Point", "coordinates": [-1.542077, 47.217491]}}, {"type": "Feature", "properties": {"start": "Lorraine TGV", "stop_name": "Angers Saint-Laud", "type": "Gare accessible", "transport": "TGV", "nombre_trajet_moyen": 3.29, "transport_legende": "\ud83d\udeb2 \ud83d\udc94 TGV \ud83d\ude84"}, "geometry": {"type": "Point", "coordinates": [-0.55677, 47.464649]}}, {"type": "Feature", "properties": {"start": "Lorraine TGV", "stop_name": "Bruxelles Midi", "type": "Gare accessible", "transport": "TGV", "nombre_trajet_moyen": 2.32, "transport_legende": "\ud83d\udeb2 \ud83d\udc94 TGV \ud83d\ude84"}, "geometry": {"type": "Point", "coordinates": [4.336, 50.836]}}]}