{"type": "FeatureCollection", "features": [{"type": "Feature", "properties": {"start": "Lyon Saint-Exup\u00e9ry TGV", "stop_name": "Lyon Saint-Exup\u00e9ry TGV", "type": "Gare s\u00e9lectionn\u00e9e", "transport": "TGV", "nombre_trajet_moyen": 21.39, "transport_legende": "\ud83d\udeb2 \ud83d\udc94 TGV \ud83d\ude84"}, "geometry": {"type": "Point", "coordinates": [5.074969, 45.721109]}}, {"type": "Feature", "properties": {"start": "Lyon Saint-Exup\u00e9ry TGV", "stop_name": "Paris Gare de Lyon Hall 1 - 2", "type": "Gare accessible", "transport": "TGV", "nombre_trajet_moyen": 18.87, "transport_legende": "\ud83d\udeb2 \ud83d\udc94 TGV \ud83d\ude84"}, "geometry": {"type": "Point", "coordinates": [2.373481, 48.844945]}}, {"type": "Feature", "properties": {"start": "Lyon Saint-Exup\u00e9ry TGV", "stop_name": "Valence Ville", "type": "Gare accessible", "transport": "TGV", "nombre_trajet_moyen": 3.61, "transport_legende": "\ud83d\udeb2 \ud83d\udc94 TGV \ud83d\ude84"}, "geometry": {"type": "Point", "coordinates": [4.893288, 44.928081]}}, {"type": "Feature", "properties": {"start": "Lyon Saint-Exup\u00e9ry TGV", "stop_name": "Mont\u00e9limar", "type": "Gare accessible", "transport": "TGV", "nombre_trajet_moyen": 3.61, "transport_legende": "\ud83d\udeb2 \ud83d\udc94 TGV \ud83d\ude84"}, "geometry": {"type": "Point", "coordinates": [4.744726, 44.558936]}}, {"type": "Feature", "properties": {"start": "Lyon Saint-Exup\u00e9ry TGV", "stop_name": "Orange", "type": "Gare accessible", "transport": "TGV", "nombre_trajet_moyen": 3.61, "transport_legende": "\ud83d\udeb2 \ud83d\udc94 TGV \ud83d\ude84"}, "geometry": {"type": "Point", "coordinates": [4.820058, 44.137485]}}, {"type": "Feature", "properties": {"start": "Lyon Saint-Exup\u00e9ry TGV", "stop_name": "Avignon Centre", "type": "Gare accessible", "transport": "TGV", "nombre_trajet_moyen": 3.61, "transport_legende": "\ud83d\udeb2 \ud83d\udc94 TGV \ud83d\ude84"}, "geometry": {"type": "Point", "coordinates": [4.805269, 43.941923]}}, {"type": "Feature", "properties": {"start": "Lyon Saint-Exup\u00e9ry TGV", "stop_name": "Arles", "type": "Gare accessible", "transport": "TGV", "nombre_trajet_moyen": 2.52, "transport_legende": "\ud83d\udeb2 \ud83d\udc94 TGV \ud83d\ude84"}, "geometry": {"type": "Point", "coordinates": [4.632105, 43.684863]}}, {"type": "Feature", "properties": {"start": "Lyon Saint-Exup\u00e9ry TGV", "stop_name": "Miramas", "type": "Gare accessible", "transport": "TGV", "nombre_trajet_moyen": 2.52, "transport_legende": "\ud83d\udeb2 \ud83d\udc94 TGV \ud83d\ude84"}, "geometry": {"type": "Point", "coordinates": [4.999565, 43.580737]}}, {"type": "Feature", "properties": {"start": "Lyon Saint-Exup\u00e9ry TGV", "stop_name": "Grenoble", "type": "Gare accessible", "transport": "TGV", "nombre_trajet_moyen": 11.71, "transport_legende": "\ud83d\udeb2 \ud83d\udc94 TGV \ud83d\ude84"}, "geometry": {"type": "Point", "coordinates": [5.714548, 45.191491]}}, {"type": "Feature", "properties": {"start": "Lyon Saint-Exup\u00e9ry TGV", "stop_name": "Chamb\u00e9ry - Challes-les-Eaux", "type": "Gare accessible", "transport": "TGV", "nombre_trajet_moyen": 1.84, "transport_legende": "\ud83d\udeb2 \ud83d\udc94 TGV \ud83d\ude84"}, "geometry": {"type": "Point", "coordinates": [5.919547, 45.571302]}}, {"type": "Feature", "properties": {"start": "Lyon Saint-Exup\u00e9ry TGV", "stop_name": "Aix-les-Bains le Revard", "type": "Gare accessible", "transport": "TGV", "nombre_trajet_moyen": 0.97, "transport_legende": "\ud83d\udeb2 \ud83d\udc94 TGV \ud83d\ude84"}, "geometry": {"type": "Point", "coordinates": [5.909371, 45.688161]}}, {"type": "Feature", "properties": {"start": "Lyon Saint-Exup\u00e9ry TGV", "stop_name": "Annecy", "type": "Gare accessible", "transport": "TGV", "nombre_trajet_moyen": 0.97, "transport_legende": "\ud83d\udeb2 \ud83d\udc94 TGV \ud83d\ude84"}, "geometry": {"type": "Point", "coordinates": [6.121826, 45.902047]}}, {"type": "Feature", "properties": {"start": "Lyon Saint-Exup\u00e9ry TGV", "stop_name": "Marseille Saint-Charles", "type": "Gare accessible", "transport": "TGV", "nombre_trajet_moyen": 4.58, "transport_legende": "\ud83d\udeb2 \ud83d\udc94 TGV \ud83d\ude84"}, "geometry": {"type": "Point", "coordinates": [5.380407, 43.302666]}}, {"type": "Feature", "properties": {"start": "Lyon Saint-Exup\u00e9ry TGV", "stop_name": "Aix-en-Provence TGV", "type": "Gare accessible", "transport": "TGV", "nombre_trajet_moyen": 3.9, "transport_legende": "\ud83d\udeb2 \ud83d\udc94 TGV \ud83d\ude84"}, "geometry": {"type": "Point", "coordinates": [5.317534, 43.455237]}}, {"type": "Feature", "properties": {"start": "Lyon Saint-Exup\u00e9ry TGV", "stop_name": "Avignon TGV", "type": "Gare accessible", "transport": "TGV", "nombre_trajet_moyen": 4.58, "transport_legende": "\ud83d\udeb2 \ud83d\udc94 TGV \ud83d\ude84"}, "geometry": {"type": "Point", "coordinates": [4.786136, 43.92194]}}, {"type": "Feature", "properties": {"start": "Lyon Saint-Exup\u00e9ry TGV", "stop_name": "Valence TGV Rh\u00f4ne-Alpes Sud", "type": "Gare accessible", "transport": "TGV", "nombre_trajet_moyen": 1.0, "transport_legende": "\ud83d\udeb2 \ud83d\udc94 TGV \ud83d\ude84"}, "geometry": {"type": "Point", "coordinates": [4.978652, 44.991907]}}, {"type": "Feature", "properties": {"start": "Lyon Saint-Exup\u00e9ry TGV", "stop_name": "Marne-la-Vall\u00e9e Chessy", "type": "Gare accessible", "transport": "TGV", "nombre_trajet_moyen": 4.58, "transport_legende": "\ud83d\udeb2 \ud83d\udc94 TGV \ud83d\ude84"}, "geometry": {"type": "Point", "coordinates": [2.782626, 48.869898]}}, {"type": "Feature", "properties": {"start": "Lyon Saint-Exup\u00e9ry TGV", "stop_name": "A\u00e9roport Charles de Gaulle 2 TGV", "type": "Gare accessible", "transport": "TGV", "nombre_trajet_moyen": 2.68, "transport_legende": "\ud83d\udeb2 \ud83d\udc94 TGV \ud83d\ude84"}, "geometry": {"type": "Point", "coordinates": [2.570812, 49.003618]}}, {"type": "Feature", "properties": {"start": "Lyon Saint-Exup\u00e9ry TGV", "stop_name": "Lille Flandres", "type": "Gare accessible", "transport": "TGV", "nombre_trajet_moyen": 3.9, "transport_legende": "\ud83d\udeb2 \ud83d\udc94 TGV \ud83d\ude84"}, "geometry": {"type": "Point", "coordinates": [3.06987, 50.636577]}}, {"type": "Feature", "properties": {"start": "Lyon Saint-Exup\u00e9ry TGV", "stop_name": "TGV Haute Picardie", "type": "Gare accessible", "transport": "TGV", "nombre_trajet_moyen": 2.0, "transport_legende": "\ud83d\udeb2 \ud83d\udc94 TGV \ud83d\ude84"}, "geometry": {"type": "Point", "coordinates": [2.831619, 49.859172]}}, {"type": "Feature", "properties": {"start": "Lyon Saint-Exup\u00e9ry TGV", "stop_name": "Toulon", "type": "Gare accessible", "transport": "TGV", "nombre_trajet_moyen": 2.0, "transport_legende": "\ud83d\udeb2 \ud83d\udc94 TGV \ud83d\ude84"}, "geometry": {"type": "Point", "coordinates": [5.929404, 43.128353]}}, {"type": "Feature", "properties": {"start": "Lyon Saint-Exup\u00e9ry TGV", "stop_name": "Saint-Rapha\u00ebl Valescure", "type": "Gare accessible", "transport": "TGV", "nombre_trajet_moyen": 1.0, "transport_legende": "\ud83d\udeb2 \ud83d\udc94 TGV \ud83d\ude84"}, "geometry": {"type": "Point", "coordinates": [6.769037, 43.423631]}}, {"type": "Feature", "properties": {"start": "Lyon Saint-Exup\u00e9ry TGV", "stop_name": "Cannes", "type": "Gare accessible", "transport": "TGV", "nombre_trajet_moyen": 2.0, "transport_legende": "\ud83d\udeb2 \ud83d\udc94 TGV \ud83d\ude84"}, "geometry": {"type": "Point", "coordinates": [7.019711, 43.553908]}}, {"type": "Feature", "properties": {"start": "Lyon Saint-Exup\u00e9ry TGV", "stop_name": "Antibes", "type": "Gare accessible", "transport": "TGV", "nombre_trajet_moyen": 2.0, "transport_legende": "\ud83d\udeb2 \ud83d\udc94 TGV \ud83d\ude84"}, "geometry": {"type": "Point", "coordinates": [7.119913, 43.585971]}}, {"type": "Feature", "properties": {"start": "Lyon Saint-Exup\u00e9ry TGV", "stop_name": "Nice-Ville", "type": "Gare accessible", "transport": "TGV", "nombre_trajet_moyen": 2.0, "transport_legende": "\ud83d\udeb2 \ud83d\udc94 TGV \ud83d\ude84"}, "geometry": {"type": "Point", "coordinates": [7.261904, 43.704556]}}, {"type": "Feature", "properties": {"start": "Lyon Saint-Exup\u00e9ry TGV", "stop_name": "Les Arcs - Draguignan", "type": "Gare accessible", "transport": "TGV", "nombre_trajet_moyen": 1.0, "transport_legende": "\ud83d\udeb2 \ud83d\udc94 TGV \ud83d\ude84"}, "geometry": {"type": "Point", "coordinates": [6.482424, 43.455725]}}, {"type": "Feature", "properties": {"start": "Lyon Saint-Exup\u00e9ry TGV", "stop_name": "Montpellier Sud de France", "type": "Gare accessible", "transport": "TGV", "nombre_trajet_moyen": 1.0, "transport_legende": "\ud83d\udeb2 \ud83d\udc94 TGV \ud83d\ude84"}, "geometry": {"type": "Point", "coordinates": [3.924009, 43.595146]}}, {"type": "Feature", "properties": {"start": "Lyon Saint-Exup\u00e9ry TGV", "stop_name": "N\u00eemes Pont du Gard", "type": "Gare accessible", "transport": "TGV", "nombre_trajet_moyen": 1.0, "transport_legende": "\ud83d\udeb2 \ud83d\udc94 TGV \ud83d\ude84"}, "geometry": {"type": "Point", "coordinates": [4.507678, 43.816809]}}, {"type": "Feature", "properties": {"start": "Lyon Saint-Exup\u00e9ry TGV", "stop_name": "Montpellier Saint-Roch", "type": "Gare accessible", "transport": "TGV", "nombre_trajet_moyen": 2.0, "transport_legende": "\ud83d\udeb2 \ud83d\udc94 TGV \ud83d\ude84"}, "geometry": {"type": "Point", "coordinates": [3.880674, 43.604738]}}, {"type": "Feature", "properties": {"start": "Lyon Saint-Exup\u00e9ry TGV", "stop_name": "N\u00eemes Centre", "type": "Gare accessible", "transport": "TGV", "nombre_trajet_moyen": 2.0, "transport_legende": "\ud83d\udeb2 \ud83d\udc94 TGV \ud83d\ude84"}, "geometry": {"type": "Point", "coordinates": [4.365872, 43.832313]}}, {"type": "Feature", "properties": {"start": "Lyon Saint-Exup\u00e9ry TGV", "stop_name": "Saint-Jean-de-Maurienne Arvan", "type": "Gare accessible", "transport": "TGV", "nombre_trajet_moyen": 0.87, "transport_legende": "\ud83d\udeb2 \ud83d\udc94 TGV \ud83d\ude84"}, "geometry": {"type": "Point", "coordinates": [6.354716, 45.277542]}}, {"type": "Feature", "properties": {"start": "Lyon Saint-Exup\u00e9ry TGV", "stop_name": "Modane", "type": "Gare accessible", "transport": "TGV", "nombre_trajet_moyen": 0.87, "transport_legende": "\ud83d\udeb2 \ud83d\udc94 TGV \ud83d\ude84"}, "geometry": {"type": "Point", "coordinates": [6.659139, 45.193555]}}, {"type": "Feature", "properties": {"start": "Lyon Saint-Exup\u00e9ry TGV", "stop_name": "OULX CESANA CLAVIERE SESTRIERE", "type": "Gare accessible", "transport": "TGV", "nombre_trajet_moyen": 0.87, "transport_legende": "\ud83d\udeb2 \ud83d\udc94 TGV \ud83d\ude84"}, "geometry": {"type": "Point", "coordinates": [6.831431, 45.038795]}}, {"type": "Feature", "properties": {"start": "Lyon Saint-Exup\u00e9ry TGV", "stop_name": "Turin Porta Susa", "type": "Gare accessible", "transport": "TGV", "nombre_trajet_moyen": 0.87, "transport_legende": "\ud83d\udeb2 \ud83d\udc94 TGV \ud83d\ude84"}, "geometry": {"type": "Point", "coordinates": [7.666675, 45.074118]}}, {"type": "Feature", "properties": {"start": "Lyon Saint-Exup\u00e9ry TGV", "stop_name": "MILANO PORTA GARIBALDI", "type": "Gare accessible", "transport": "TGV", "nombre_trajet_moyen": 0.87, "transport_legende": "\ud83d\udeb2 \ud83d\udc94 TGV \ud83d\ude84"}, "geometry": {"type": "Point", "coordinates": [9.187694, 45.484916]}}]}