{"type": "FeatureCollection", "features": [{"type": "Feature", "properties": {"start": "Marne-la-Vall\u00e9e Chessy", "stop_name": "Marne-la-Vall\u00e9e Chessy", "type": "Gare s\u00e9lectionn\u00e9e", "transport": "TGV", "transport_legende": "\ud83d\udeb2 \ud83d\udc94 TGV \ud83d\ude84"}, "geometry": {"type": "Point", "coordinates": [2.782626, 48.869898]}}, {"type": "Feature", "properties": {"start": "Marne-la-Vall\u00e9e Chessy", "stop_name": "Lille Europe", "type": "Gare accessible", "transport": "TGV", "transport_legende": "\ud83d\udeb2 \ud83d\udc94 TGV \ud83d\ude84"}, "geometry": {"type": "Point", "coordinates": [3.075796, 50.639224]}}, {"type": "Feature", "properties": {"start": "Marne-la-Vall\u00e9e Chessy", "stop_name": "A\u00e9roport Charles de Gaulle 2 TGV", "type": "Gare accessible", "transport": "TGV", "transport_legende": "\ud83d\udeb2 \ud83d\udc94 TGV \ud83d\ude84"}, "geometry": {"type": "Point", "coordinates": [2.570812, 49.003618]}}, {"type": "Feature", "properties": {"start": "Marne-la-Vall\u00e9e Chessy", "stop_name": "Lyon Part Dieu", "type": "Gare accessible", "transport": "TGV", "transport_legende": "\ud83d\udeb2 \ud83d\udc94 TGV \ud83d\ude84"}, "geometry": {"type": "Point", "coordinates": [4.859409, 45.760596]}}, {"type": "Feature", "properties": {"start": "Marne-la-Vall\u00e9e Chessy", "stop_name": "Valence TGV Rh\u00f4ne-Alpes Sud", "type": "Gare accessible", "transport": "TGV", "transport_legende": "\ud83d\udeb2 \ud83d\udc94 TGV \ud83d\ude84"}, "geometry": {"type": "Point", "coordinates": [4.978652, 44.991907]}}, {"type": "Feature", "properties": {"start": "Marne-la-Vall\u00e9e Chessy", "stop_name": "N\u00eemes Pont du Gard", "type": "Gare accessible", "transport": "TGV", "transport_legende": "\ud83d\udeb2 \ud83d\udc94 TGV \ud83d\ude84"}, "geometry": {"type": "Point", "coordinates": [4.507678, 43.816809]}}, {"type": "Feature", "properties": {"start": "Marne-la-Vall\u00e9e Chessy", "stop_name": "Montpellier Sud de France", "type": "Gare accessible", "transport": "TGV", "transport_legende": "\ud83d\udeb2 \ud83d\udc94 TGV \ud83d\ude84"}, "geometry": {"type": "Point", "coordinates": [3.924009, 43.595146]}}, {"type": "Feature", "properties": {"start": "Marne-la-Vall\u00e9e Chessy", "stop_name": "Lyon Saint-Exup\u00e9ry TGV", "type": "Gare accessible", "transport": "TGV", "transport_legende": "\ud83d\udeb2 \ud83d\udc94 TGV \ud83d\ude84"}, "geometry": {"type": "Point", "coordinates": [5.074969, 45.721109]}}, {"type": "Feature", "properties": {"start": "Marne-la-Vall\u00e9e Chessy", "stop_name": "Avignon TGV", "type": "Gare accessible", "transport": "TGV", "transport_legende": "\ud83d\udeb2 \ud83d\udc94 TGV \ud83d\ude84"}, "geometry": {"type": "Point", "coordinates": [4.786136, 43.92194]}}, {"type": "Feature", "properties": {"start": "Marne-la-Vall\u00e9e Chessy", "stop_name": "Aix-en-Provence TGV", "type": "Gare accessible", "transport": "TGV", "transport_legende": "\ud83d\udeb2 \ud83d\udc94 TGV \ud83d\ude84"}, "geometry": {"type": "Point", "coordinates": [5.317534, 43.455237]}}, {"type": "Feature", "properties": {"start": "Marne-la-Vall\u00e9e Chessy", "stop_name": "Marseille Saint-Charles", "type": "Gare accessible", "transport": "TGV", "transport_legende": "\ud83d\udeb2 \ud83d\udc94 TGV \ud83d\ude84"}, "geometry": {"type": "Point", "coordinates": [5.380407, 43.302666]}}, {"type": "Feature", "properties": {"start": "Marne-la-Vall\u00e9e Chessy", "stop_name": "N\u00eemes", "type": "Gare accessible", "transport": "TGV", "transport_legende": "\ud83d\udeb2 \ud83d\udc94 TGV \ud83d\ude84"}, "geometry": {"type": "Point", "coordinates": [4.365872, 43.832313]}}, {"type": "Feature", "properties": {"start": "Marne-la-Vall\u00e9e Chessy", "stop_name": "Montpellier Saint-Roch", "type": "Gare accessible", "transport": "TGV", "transport_legende": "\ud83d\udeb2 \ud83d\udc94 TGV \ud83d\ude84"}, "geometry": {"type": "Point", "coordinates": [3.880674, 43.604738]}}, {"type": "Feature", "properties": {"start": "Marne-la-Vall\u00e9e Chessy", "stop_name": "Bordeaux Saint-Jean", "type": "Gare accessible", "transport": "TGV", "transport_legende": "\ud83d\udeb2 \ud83d\udc94 TGV \ud83d\ude84"}, "geometry": {"type": "Point", "coordinates": [-0.556697, 44.825873]}}, {"type": "Feature", "properties": {"start": "Marne-la-Vall\u00e9e Chessy", "stop_name": "Angoul\u00eame", "type": "Gare accessible", "transport": "TGV", "transport_legende": "\ud83d\udeb2 \ud83d\udc94 TGV \ud83d\ude84"}, "geometry": {"type": "Point", "coordinates": [0.164608, 45.653572]}}, {"type": "Feature", "properties": {"start": "Marne-la-Vall\u00e9e Chessy", "stop_name": "Poitiers", "type": "Gare accessible", "transport": "TGV", "transport_legende": "\ud83d\udeb2 \ud83d\udc94 TGV \ud83d\ude84"}, "geometry": {"type": "Point", "coordinates": [0.333136, 46.582232]}}, {"type": "Feature", "properties": {"start": "Marne-la-Vall\u00e9e Chessy", "stop_name": "Saint-Pierre-des-Corps", "type": "Gare accessible", "transport": "TGV", "transport_legende": "\ud83d\udeb2 \ud83d\udc94 TGV \ud83d\ude84"}, "geometry": {"type": "Point", "coordinates": [0.723539, 47.38614]}}, {"type": "Feature", "properties": {"start": "Marne-la-Vall\u00e9e Chessy", "stop_name": "Massy TGV", "type": "Gare accessible", "transport": "TGV", "transport_legende": "\ud83d\udeb2 \ud83d\udc94 TGV \ud83d\ude84"}, "geometry": {"type": "Point", "coordinates": [2.261254, 48.725758]}}, {"type": "Feature", "properties": {"start": "Marne-la-Vall\u00e9e Chessy", "stop_name": "TGV Haute Picardie", "type": "Gare accessible", "transport": "TGV", "transport_legende": "\ud83d\udeb2 \ud83d\udc94 TGV \ud83d\ude84"}, "geometry": {"type": "Point", "coordinates": [2.831619, 49.859172]}}, {"type": "Feature", "properties": {"start": "Marne-la-Vall\u00e9e Chessy", "stop_name": "Arras", "type": "Gare accessible", "transport": "TGV", "transport_legende": "\ud83d\udeb2 \ud83d\udc94 TGV \ud83d\ude84"}, "geometry": {"type": "Point", "coordinates": [2.781314, 50.286971]}}, {"type": "Feature", "properties": {"start": "Marne-la-Vall\u00e9e Chessy", "stop_name": "Lyon Perrache", "type": "Gare accessible", "transport": "TGV", "transport_legende": "\ud83d\udeb2 \ud83d\udc94 TGV \ud83d\ude84"}, "geometry": {"type": "Point", "coordinates": [4.825777, 45.748508]}}, {"type": "Feature", "properties": {"start": "Marne-la-Vall\u00e9e Chessy", "stop_name": "Annemasse", "type": "Gare accessible", "transport": "TGV", "transport_legende": "\ud83d\udeb2 \ud83d\udc94 TGV \ud83d\ude84"}, "geometry": {"type": "Point", "coordinates": [6.236431, 46.199245]}}, {"type": "Feature", "properties": {"start": "Marne-la-Vall\u00e9e Chessy", "stop_name": "Cluses", "type": "Gare accessible", "transport": "TGV", "transport_legende": "\ud83d\udeb2 \ud83d\udc94 TGV \ud83d\ude84"}, "geometry": {"type": "Point", "coordinates": [6.582771, 46.061468]}}, {"type": "Feature", "properties": {"start": "Marne-la-Vall\u00e9e Chessy", "stop_name": "Sallanches - Combloux - Meg\u00e8ve", "type": "Gare accessible", "transport": "TGV", "transport_legende": "\ud83d\udeb2 \ud83d\udc94 TGV \ud83d\ude84"}, "geometry": {"type": "Point", "coordinates": [6.636458, 45.935699]}}, {"type": "Feature", "properties": {"start": "Marne-la-Vall\u00e9e Chessy", "stop_name": "Saint-Gervais-les-Bains Le Fayet", "type": "Gare accessible", "transport": "TGV", "transport_legende": "\ud83d\udeb2 \ud83d\udc94 TGV \ud83d\ude84"}, "geometry": {"type": "Point", "coordinates": [6.701331, 45.906423]}}, {"type": "Feature", "properties": {"start": "Marne-la-Vall\u00e9e Chessy", "stop_name": "Lille Flandres", "type": "Gare accessible", "transport": "TGV", "transport_legende": "\ud83d\udeb2 \ud83d\udc94 TGV \ud83d\ude84"}, "geometry": {"type": "Point", "coordinates": [3.06987, 50.636577]}}, {"type": "Feature", "properties": {"start": "Marne-la-Vall\u00e9e Chessy", "stop_name": "Douai", "type": "Gare accessible", "transport": "TGV", "transport_legende": "\ud83d\udeb2 \ud83d\udc94 TGV \ud83d\ude84"}, "geometry": {"type": "Point", "coordinates": [3.089958, 50.371673]}}, {"type": "Feature", "properties": {"start": "Marne-la-Vall\u00e9e Chessy", "stop_name": "Chamb\u00e9ry - Challes-les-Eaux", "type": "Gare accessible", "transport": "TGV", "transport_legende": "\ud83d\udeb2 \ud83d\udc94 TGV \ud83d\ude84"}, "geometry": {"type": "Point", "coordinates": [5.919547, 45.571302]}}, {"type": "Feature", "properties": {"start": "Marne-la-Vall\u00e9e Chessy", "stop_name": "Albertville", "type": "Gare accessible", "transport": "TGV", "transport_legende": "\ud83d\udeb2 \ud83d\udc94 TGV \ud83d\ude84"}, "geometry": {"type": "Point", "coordinates": [6.383167, 45.672977]}}, {"type": "Feature", "properties": {"start": "Marne-la-Vall\u00e9e Chessy", "stop_name": "Mo\u00fbtiers-Salins-Brides-les-B.", "type": "Gare accessible", "transport": "TGV", "transport_legende": "\ud83d\udeb2 \ud83d\udc94 TGV \ud83d\ude84"}, "geometry": {"type": "Point", "coordinates": [6.531399, 45.48647]}}, {"type": "Feature", "properties": {"start": "Marne-la-Vall\u00e9e Chessy", "stop_name": "Aime - La Plagne", "type": "Gare accessible", "transport": "TGV", "transport_legende": "\ud83d\udeb2 \ud83d\udc94 TGV \ud83d\ude84"}, "geometry": {"type": "Point", "coordinates": [6.648614, 45.554387]}}, {"type": "Feature", "properties": {"start": "Marne-la-Vall\u00e9e Chessy", "stop_name": "Landry", "type": "Gare accessible", "transport": "TGV", "transport_legende": "\ud83d\udeb2 \ud83d\udc94 TGV \ud83d\ude84"}, "geometry": {"type": "Point", "coordinates": [6.733849, 45.574213]}}, {"type": "Feature", "properties": {"start": "Marne-la-Vall\u00e9e Chessy", "stop_name": "Bourg-Saint-Maurice", "type": "Gare accessible", "transport": "TGV", "transport_legende": "\ud83d\udeb2 \ud83d\udc94 TGV \ud83d\ude84"}, "geometry": {"type": "Point", "coordinates": [6.771273, 45.619036]}}, {"type": "Feature", "properties": {"start": "Marne-la-Vall\u00e9e Chessy", "stop_name": "Le Creusot-TGV", "type": "Gare accessible", "transport": "TGV", "transport_legende": "\ud83d\udeb2 \ud83d\udc94 TGV \ud83d\ude84"}, "geometry": {"type": "Point", "coordinates": [4.49943, 46.765339]}}, {"type": "Feature", "properties": {"start": "Marne-la-Vall\u00e9e Chessy", "stop_name": "Le Mans", "type": "Gare accessible", "transport": "TGV", "transport_legende": "\ud83d\udeb2 \ud83d\udc94 TGV \ud83d\ude84"}, "geometry": {"type": "Point", "coordinates": [0.192614, 47.995615]}}, {"type": "Feature", "properties": {"start": "Marne-la-Vall\u00e9e Chessy", "stop_name": "Rennes", "type": "Gare accessible", "transport": "TGV", "transport_legende": "\ud83d\udeb2 \ud83d\udc94 TGV \ud83d\ude84"}, "geometry": {"type": "Point", "coordinates": [-1.672744, 48.103517]}}, {"type": "Feature", "properties": {"start": "Marne-la-Vall\u00e9e Chessy", "stop_name": "Angers Saint-Laud", "type": "Gare accessible", "transport": "TGV", "transport_legende": "\ud83d\udeb2 \ud83d\udc94 TGV \ud83d\ude84"}, "geometry": {"type": "Point", "coordinates": [-0.55677, 47.464649]}}, {"type": "Feature", "properties": {"start": "Marne-la-Vall\u00e9e Chessy", "stop_name": "Nantes", "type": "Gare accessible", "transport": "TGV", "transport_legende": "\ud83d\udeb2 \ud83d\udc94 TGV \ud83d\ude84"}, "geometry": {"type": "Point", "coordinates": [-1.542077, 47.217491]}}, {"type": "Feature", "properties": {"start": "Marne-la-Vall\u00e9e Chessy", "stop_name": "Laval", "type": "Gare accessible", "transport": "TGV", "transport_legende": "\ud83d\udeb2 \ud83d\udc94 TGV \ud83d\ude84"}, "geometry": {"type": "Point", "coordinates": [-0.760929, 48.076255]}}, {"type": "Feature", "properties": {"start": "Marne-la-Vall\u00e9e Chessy", "stop_name": "Champagne-Ardenne TGV", "type": "Gare accessible", "transport": "TGV", "transport_legende": "\ud83d\udeb2 \ud83d\udc94 TGV \ud83d\ude84"}, "geometry": {"type": "Point", "coordinates": [3.994523, 49.214769]}}, {"type": "Feature", "properties": {"start": "Marne-la-Vall\u00e9e Chessy", "stop_name": "Meuse TGV", "type": "Gare accessible", "transport": "TGV", "transport_legende": "\ud83d\udeb2 \ud83d\udc94 TGV \ud83d\ude84"}, "geometry": {"type": "Point", "coordinates": [5.271024, 48.978583]}}, {"type": "Feature", "properties": {"start": "Marne-la-Vall\u00e9e Chessy", "stop_name": "Lorraine TGV", "type": "Gare accessible", "transport": "TGV", "transport_legende": "\ud83d\udeb2 \ud83d\udc94 TGV \ud83d\ude84"}, "geometry": {"type": "Point", "coordinates": [6.169778, 48.947713]}}, {"type": "Feature", "properties": {"start": "Marne-la-Vall\u00e9e Chessy", "stop_name": "Strasbourg", "type": "Gare accessible", "transport": "TGV", "transport_legende": "\ud83d\udeb2 \ud83d\udc94 TGV \ud83d\ude84"}, "geometry": {"type": "Point", "coordinates": [7.734793, 48.584532]}}, {"type": "Feature", "properties": {"start": "Marne-la-Vall\u00e9e Chessy", "stop_name": "Saverne", "type": "Gare accessible", "transport": "TGV", "transport_legende": "\ud83d\udeb2 \ud83d\udc94 TGV \ud83d\ude84"}, "geometry": {"type": "Point", "coordinates": [7.362055, 48.744483]}}, {"type": "Feature", "properties": {"start": "Marne-la-Vall\u00e9e Chessy", "stop_name": "Modane", "type": "Gare accessible", "transport": "TGV", "transport_legende": "\ud83d\udeb2 \ud83d\udc94 TGV \ud83d\ude84"}, "geometry": {"type": "Point", "coordinates": [6.659139, 45.193555]}}, {"type": "Feature", "properties": {"start": "Marne-la-Vall\u00e9e Chessy", "stop_name": "Saint-Michel - Valloire", "type": "Gare accessible", "transport": "TGV", "transport_legende": "\ud83d\udeb2 \ud83d\udc94 TGV \ud83d\ude84"}, "geometry": {"type": "Point", "coordinates": [6.471914, 45.216916]}}, {"type": "Feature", "properties": {"start": "Marne-la-Vall\u00e9e Chessy", "stop_name": "Saint-Jean-de-Maurienne Arvan", "type": "Gare accessible", "transport": "TGV", "transport_legende": "\ud83d\udeb2 \ud83d\udc94 TGV \ud83d\ude84"}, "geometry": {"type": "Point", "coordinates": [6.354716, 45.277542]}}, {"type": "Feature", "properties": {"start": "Marne-la-Vall\u00e9e Chessy", "stop_name": "Saint-Avre - La Chambre", "type": "Gare accessible", "transport": "TGV", "transport_legende": "\ud83d\udeb2 \ud83d\udc94 TGV \ud83d\ude84"}, "geometry": {"type": "Point", "coordinates": [6.302867, 45.35312]}}, {"type": "Feature", "properties": {"start": "Marne-la-Vall\u00e9e Chessy", "stop_name": "Tourcoing", "type": "Gare accessible", "transport": "TGV", "transport_legende": "\ud83d\udeb2 \ud83d\udc94 TGV \ud83d\ude84"}, "geometry": {"type": "Point", "coordinates": [3.168021, 50.716827]}}, {"type": "Feature", "properties": {"start": "Marne-la-Vall\u00e9e Chessy", "stop_name": "Metz", "type": "Gare accessible", "transport": "TGV", "transport_legende": "\ud83d\udeb2 \ud83d\udc94 TGV \ud83d\ude84"}, "geometry": {"type": "Point", "coordinates": [6.177052, 49.109466]}}, {"type": "Feature", "properties": {"start": "Marne-la-Vall\u00e9e Chessy", "stop_name": "Grenoble", "type": "Gare accessible", "transport": "TGV", "transport_legende": "\ud83d\udeb2 \ud83d\udc94 TGV \ud83d\ude84"}, "geometry": {"type": "Point", "coordinates": [5.714548, 45.191491]}}, {"type": "Feature", "properties": {"start": "Marne-la-Vall\u00e9e Chessy", "stop_name": "Bruxelles Midi", "type": "Gare accessible", "transport": "TGV", "transport_legende": "\ud83d\udeb2 \ud83d\udc94 TGV \ud83d\ude84"}, "geometry": {"type": "Point", "coordinates": [4.336, 50.836]}}, {"type": "Feature", "properties": {"start": "Marne-la-Vall\u00e9e Chessy", "stop_name": "S\u00e8te", "type": "Gare accessible", "transport": "TGV", "transport_legende": "\ud83d\udeb2 \ud83d\udc94 TGV \ud83d\ude84"}, "geometry": {"type": "Point", "coordinates": [3.696571, 43.412641]}}, {"type": "Feature", "properties": {"start": "Marne-la-Vall\u00e9e Chessy", "stop_name": "Agde", "type": "Gare accessible", "transport": "TGV", "transport_legende": "\ud83d\udeb2 \ud83d\udc94 TGV \ud83d\ude84"}, "geometry": {"type": "Point", "coordinates": [3.466203, 43.31728]}}, {"type": "Feature", "properties": {"start": "Marne-la-Vall\u00e9e Chessy", "stop_name": "B\u00e9ziers", "type": "Gare accessible", "transport": "TGV", "transport_legende": "\ud83d\udeb2 \ud83d\udc94 TGV \ud83d\ude84"}, "geometry": {"type": "Point", "coordinates": [3.218895, 43.336295]}}, {"type": "Feature", "properties": {"start": "Marne-la-Vall\u00e9e Chessy", "stop_name": "Narbonne", "type": "Gare accessible", "transport": "TGV", "transport_legende": "\ud83d\udeb2 \ud83d\udc94 TGV \ud83d\ude84"}, "geometry": {"type": "Point", "coordinates": [3.005667, 43.190618]}}, {"type": "Feature", "properties": {"start": "Marne-la-Vall\u00e9e Chessy", "stop_name": "Perpignan", "type": "Gare accessible", "transport": "TGV", "transport_legende": "\ud83d\udeb2 \ud83d\udc94 TGV \ud83d\ude84"}, "geometry": {"type": "Point", "coordinates": [2.879355, 42.696096]}}]}