{"type": "FeatureCollection", "features": [{"type": "Feature", "properties": {"start": "Nurieux Gare", "stop_name": "Nurieux Gare", "type": "Gare s\u00e9lectionn\u00e9e", "transport": "TGV", "nombre_trajet_moyen": 1.81, "transport_legende": "\ud83d\udeb2 \ud83d\udc94 TGV \ud83d\ude84"}, "geometry": {"type": "Point", "coordinates": [5.5273, 46.186468]}}, {"type": "Feature", "properties": {"start": "Nurieux Gare", "stop_name": "Gen\u00e8ve", "type": "Gare accessible", "transport": "TGV", "nombre_trajet_moyen": 1.81, "transport_legende": "\ud83d\udeb2 \ud83d\udc94 TGV \ud83d\ude84"}, "geometry": {"type": "Point", "coordinates": [6.14244, 46.21022]}}, {"type": "Feature", "properties": {"start": "Nurieux Gare", "stop_name": "Bellegarde", "type": "Gare accessible", "transport": "TGV", "nombre_trajet_moyen": 1.81, "transport_legende": "\ud83d\udeb2 \ud83d\udc94 TGV \ud83d\ude84"}, "geometry": {"type": "Point", "coordinates": [5.823483, 46.109425]}}, {"type": "Feature", "properties": {"start": "Nurieux Gare", "stop_name": "Bourg-en-Bresse", "type": "Gare accessible", "transport": "TGV", "nombre_trajet_moyen": 1.81, "transport_legende": "\ud83d\udeb2 \ud83d\udc94 TGV \ud83d\ude84"}, "geometry": {"type": "Point", "coordinates": [5.215011, 46.200111]}}, {"type": "Feature", "properties": {"start": "Nurieux Gare", "stop_name": "Paris Gare de Lyon Hall 1 - 2", "type": "Gare accessible", "transport": "TGV", "nombre_trajet_moyen": 1.81, "transport_legende": "\ud83d\udeb2 \ud83d\udc94 TGV \ud83d\ude84"}, "geometry": {"type": "Point", "coordinates": [2.373481, 48.844945]}}]}