{"type": "FeatureCollection", "features": [{"type": "Feature", "properties": {"start": "Offenburg", "stop_name": "Offenburg", "type": "Gare s\u00e9lectionn\u00e9e", "transport": "TGV", "transport_legende": "\ud83d\udeb2 \ud83d\udc94 TGV \ud83d\ude84"}, "geometry": {"type": "Point", "coordinates": [7.9468, 48.4765]}}, {"type": "Feature", "properties": {"start": "Offenburg", "stop_name": "Freiburg (Breisgau) Hbf", "type": "Gare accessible", "transport": "TGV", "transport_legende": "\ud83d\udeb2 \ud83d\udc94 TGV \ud83d\ude84"}, "geometry": {"type": "Point", "coordinates": [7.8416, 47.9979]}}, {"type": "Feature", "properties": {"start": "Offenburg", "stop_name": "Emmendingen", "type": "Gare accessible", "transport": "TGV", "transport_legende": "\ud83d\udeb2 \ud83d\udc94 TGV \ud83d\ude84"}, "geometry": {"type": "Point", "coordinates": [7.8479, 48.1193]}}, {"type": "Feature", "properties": {"start": "Offenburg", "stop_name": "Strasbourg", "type": "Gare accessible", "transport": "TGV", "transport_legende": "\ud83d\udeb2 \ud83d\udc94 TGV \ud83d\ude84"}, "geometry": {"type": "Point", "coordinates": [7.734793, 48.584532]}}, {"type": "Feature", "properties": {"start": "Offenburg", "stop_name": "Paris Est", "type": "Gare accessible", "transport": "TGV", "transport_legende": "\ud83d\udeb2 \ud83d\udc94 TGV \ud83d\ude84"}, "geometry": {"type": "Point", "coordinates": [2.358424, 48.876742]}}, {"type": "Feature", "properties": {"start": "Offenburg", "stop_name": "Lahr (Schwarzw)", "type": "Gare accessible", "transport": "TGV", "transport_legende": "\ud83d\udeb2 \ud83d\udc94 TGV \ud83d\ude84"}, "geometry": {"type": "Point", "coordinates": [7.8353, 48.3406]}}]}