{"type": "FeatureCollection", "features": [{"type": "Feature", "properties": {"start": "Tourcoing", "stop_name": "Tourcoing", "type": "Gare s\u00e9lectionn\u00e9e", "transport": "TGV", "nombre_trajet_moyen": 0.68, "transport_legende": "\ud83d\udeb2 \ud83d\udc94 TGV \ud83d\ude84"}, "geometry": {"type": "Point", "coordinates": [3.168027, 50.716826]}}, {"type": "Feature", "properties": {"start": "Tourcoing", "stop_name": "Roubaix", "type": "Gare accessible", "transport": "TGV", "nombre_trajet_moyen": 0.29, "transport_legende": "\ud83d\udeb2 \ud83d\udc94 TGV \ud83d\ude84"}, "geometry": {"type": "Point", "coordinates": [3.16351, 50.695557]}}, {"type": "Feature", "properties": {"start": "Tourcoing", "stop_name": "Croix - Wasquehal", "type": "Gare accessible", "transport": "TGV", "nombre_trajet_moyen": 0.29, "transport_legende": "\ud83d\udeb2 \ud83d\udc94 TGV \ud83d\ude84"}, "geometry": {"type": "Point", "coordinates": [3.138069, 50.678528]}}, {"type": "Feature", "properties": {"start": "Tourcoing", "stop_name": "Lille Flandres", "type": "Gare accessible", "transport": "TGV", "nombre_trajet_moyen": 0.42, "transport_legende": "\ud83d\udeb2 \ud83d\udc94 TGV \ud83d\ude84"}, "geometry": {"type": "Point", "coordinates": [3.06987, 50.636577]}}, {"type": "Feature", "properties": {"start": "Tourcoing", "stop_name": "Arras", "type": "Gare accessible", "transport": "TGV", "nombre_trajet_moyen": 0.29, "transport_legende": "\ud83d\udeb2 \ud83d\udc94 TGV \ud83d\ude84"}, "geometry": {"type": "Point", "coordinates": [2.781314, 50.286971]}}, {"type": "Feature", "properties": {"start": "Tourcoing", "stop_name": "Paris Gare du Nord", "type": "Gare accessible", "transport": "TGV", "nombre_trajet_moyen": 0.29, "transport_legende": "\ud83d\udeb2 \ud83d\udc94 TGV \ud83d\ude84"}, "geometry": {"type": "Point", "coordinates": [2.354851, 48.880136]}}, {"type": "Feature", "properties": {"start": "Tourcoing", "stop_name": "Bordeaux Saint-Jean", "type": "Gare accessible", "transport": "TGV", "nombre_trajet_moyen": 0.29, "transport_legende": "\ud83d\udeb2 \ud83d\udc94 TGV \ud83d\ude84"}, "geometry": {"type": "Point", "coordinates": [-0.556697, 44.825873]}}, {"type": "Feature", "properties": {"start": "Tourcoing", "stop_name": "Angoul\u00eame", "type": "Gare accessible", "transport": "TGV", "nombre_trajet_moyen": 0.29, "transport_legende": "\ud83d\udeb2 \ud83d\udc94 TGV \ud83d\ude84"}, "geometry": {"type": "Point", "coordinates": [0.164608, 45.653572]}}, {"type": "Feature", "properties": {"start": "Tourcoing", "stop_name": "Poitiers", "type": "Gare accessible", "transport": "TGV", "nombre_trajet_moyen": 0.29, "transport_legende": "\ud83d\udeb2 \ud83d\udc94 TGV \ud83d\ude84"}, "geometry": {"type": "Point", "coordinates": [0.333136, 46.582232]}}, {"type": "Feature", "properties": {"start": "Tourcoing", "stop_name": "Saint-Pierre-des-Corps", "type": "Gare accessible", "transport": "TGV", "nombre_trajet_moyen": 0.29, "transport_legende": "\ud83d\udeb2 \ud83d\udc94 TGV \ud83d\ude84"}, "geometry": {"type": "Point", "coordinates": [0.723539, 47.38614]}}, {"type": "Feature", "properties": {"start": "Tourcoing", "stop_name": "Massy TGV", "type": "Gare accessible", "transport": "TGV", "nombre_trajet_moyen": 0.29, "transport_legende": "\ud83d\udeb2 \ud83d\udc94 TGV \ud83d\ude84"}, "geometry": {"type": "Point", "coordinates": [2.261254, 48.725758]}}, {"type": "Feature", "properties": {"start": "Tourcoing", "stop_name": "Marne-la-Vall\u00e9e Chessy", "type": "Gare accessible", "transport": "TGV", "nombre_trajet_moyen": 0.39, "transport_legende": "\ud83d\udeb2 \ud83d\udc94 TGV \ud83d\ude84"}, "geometry": {"type": "Point", "coordinates": [2.782626, 48.869898]}}, {"type": "Feature", "properties": {"start": "Tourcoing", "stop_name": "A\u00e9roport Charles de Gaulle 2 TGV", "type": "Gare accessible", "transport": "TGV", "nombre_trajet_moyen": 0.39, "transport_legende": "\ud83d\udeb2 \ud83d\udc94 TGV \ud83d\ude84"}, "geometry": {"type": "Point", "coordinates": [2.570812, 49.003618]}}, {"type": "Feature", "properties": {"start": "Tourcoing", "stop_name": "TGV Haute Picardie", "type": "Gare accessible", "transport": "TGV", "nombre_trajet_moyen": 0.29, "transport_legende": "\ud83d\udeb2 \ud83d\udc94 TGV \ud83d\ude84"}, "geometry": {"type": "Point", "coordinates": [2.831619, 49.859172]}}, {"type": "Feature", "properties": {"start": "Tourcoing", "stop_name": "Marseille Saint-Charles", "type": "Gare accessible", "transport": "TGV", "nombre_trajet_moyen": 0.13, "transport_legende": "\ud83d\udeb2 \ud83d\udc94 TGV \ud83d\ude84"}, "geometry": {"type": "Point", "coordinates": [5.380407, 43.302666]}}, {"type": "Feature", "properties": {"start": "Tourcoing", "stop_name": "Aix-en-Provence TGV", "type": "Gare accessible", "transport": "TGV", "nombre_trajet_moyen": 0.13, "transport_legende": "\ud83d\udeb2 \ud83d\udc94 TGV \ud83d\ude84"}, "geometry": {"type": "Point", "coordinates": [5.317534, 43.455237]}}, {"type": "Feature", "properties": {"start": "Tourcoing", "stop_name": "Lyon Part Dieu", "type": "Gare accessible", "transport": "TGV", "nombre_trajet_moyen": 0.23, "transport_legende": "\ud83d\udeb2 \ud83d\udc94 TGV \ud83d\ude84"}, "geometry": {"type": "Point", "coordinates": [4.859409, 45.760596]}}, {"type": "Feature", "properties": {"start": "Tourcoing", "stop_name": "Lyon Part Dieu", "type": "Gare accessible", "transport": "TGV", "nombre_trajet_moyen": 0.23, "transport_legende": "\ud83d\udeb2 \ud83d\udc94 TGV \ud83d\ude84"}, "geometry": {"type": "Point", "coordinates": [4.859409, 45.760596]}}, {"type": "Feature", "properties": {"start": "Tourcoing", "stop_name": "Valence TGV Rh\u00f4ne-Alpes Sud", "type": "Gare accessible", "transport": "TGV", "nombre_trajet_moyen": 0.16, "transport_legende": "\ud83d\udeb2 \ud83d\udc94 TGV \ud83d\ude84"}, "geometry": {"type": "Point", "coordinates": [4.978652, 44.991907]}}, {"type": "Feature", "properties": {"start": "Tourcoing", "stop_name": "N\u00eemes Pont du Gard", "type": "Gare accessible", "transport": "TGV", "nombre_trajet_moyen": 0.16, "transport_legende": "\ud83d\udeb2 \ud83d\udc94 TGV \ud83d\ude84"}, "geometry": {"type": "Point", "coordinates": [4.507678, 43.816809]}}, {"type": "Feature", "properties": {"start": "Tourcoing", "stop_name": "Montpellier Sud de France", "type": "Gare accessible", "transport": "TGV", "nombre_trajet_moyen": 0.16, "transport_legende": "\ud83d\udeb2 \ud83d\udc94 TGV \ud83d\ude84"}, "geometry": {"type": "Point", "coordinates": [3.924009, 43.595146]}}]}