{"type": "FeatureCollection", "features": [{"type": "Feature", "properties": {"start": "Tours", "stop_name": "Tours", "type": "Gare s\u00e9lectionn\u00e9e", "transport": "TGV", "nombre_trajet_moyen": 7.65, "transport_legende": "\ud83d\udeb2 \ud83d\udc94 TGV \ud83d\ude84"}, "geometry": {"type": "Point", "coordinates": [0.692831, 47.389866]}}, {"type": "Feature", "properties": {"start": "Tours", "stop_name": "Saint-Pierre-des-Corps", "type": "Gare accessible", "transport": "TGV", "nombre_trajet_moyen": 7.65, "transport_legende": "\ud83d\udeb2 \ud83d\udc94 TGV \ud83d\ude84"}, "geometry": {"type": "Point", "coordinates": [0.723539, 47.38614]}}, {"type": "Feature", "properties": {"start": "Tours", "stop_name": "Vend\u00f4me - Villiers-sur-Loir", "type": "Gare accessible", "transport": "TGV", "nombre_trajet_moyen": 7.65, "transport_legende": "\ud83d\udeb2 \ud83d\udc94 TGV \ud83d\ude84"}, "geometry": {"type": "Point", "coordinates": [1.021143, 47.821937]}}, {"type": "Feature", "properties": {"start": "Tours", "stop_name": "Paris Montparnasse Hall 1 - 2", "type": "Gare accessible", "transport": "TGV", "nombre_trajet_moyen": 7.65, "transport_legende": "\ud83d\udeb2 \ud83d\udc94 TGV \ud83d\ude84"}, "geometry": {"type": "Point", "coordinates": [2.320514, 48.841172]}}, {"type": "Feature", "properties": {"start": "Tours", "stop_name": "Massy TGV", "type": "Gare accessible", "transport": "TGV", "nombre_trajet_moyen": 0.13, "transport_legende": "\ud83d\udeb2 \ud83d\udc94 TGV \ud83d\ude84"}, "geometry": {"type": "Point", "coordinates": [2.261254, 48.725758]}}]}