{"type": "FeatureCollection", "features": [{"type": "Feature", "properties": {"start": "La Souterraine", "stop_name": "La Souterraine", "type": "Gare s\u00e9lectionn\u00e9e", "transport": "intercite", "transport_legende": "\ud83d\udeb2 \u2764\ufe0f Train TER \ud83d\ude86"}, "geometry": {"type": "Point", "coordinates": [1.492207, 46.239782]}}, {"type": "Feature", "properties": {"start": "La Souterraine", "stop_name": "Brive-la-Gaillarde", "type": "Gare accessible", "transport": "intercite", "transport_legende": "\ud83d\udeb2 \u2764\ufe0f Train TER \ud83d\ude86"}, "geometry": {"type": "Point", "coordinates": [1.528634, 45.152601]}}, {"type": "Feature", "properties": {"start": "La Souterraine", "stop_name": "Limoges B\u00e9n\u00e9dictins", "type": "Gare accessible", "transport": "intercite", "transport_legende": "\ud83d\udeb2 \u2764\ufe0f Train TER \ud83d\ude86"}, "geometry": {"type": "Point", "coordinates": [1.267419, 45.836207]}}, {"type": "Feature", "properties": {"start": "La Souterraine", "stop_name": "Ch\u00e2teauroux", "type": "Gare accessible", "transport": "intercite", "transport_legende": "\ud83d\udeb2 \u2764\ufe0f Train TER \ud83d\ude86"}, "geometry": {"type": "Point", "coordinates": [1.699483, 46.809812]}}, {"type": "Feature", "properties": {"start": "La Souterraine", "stop_name": "Issoudun", "type": "Gare accessible", "transport": "intercite", "transport_legende": "\ud83d\udeb2 \u2764\ufe0f Train TER \ud83d\ude86"}, "geometry": {"type": "Point", "coordinates": [1.985741, 46.948696]}}, {"type": "Feature", "properties": {"start": "La Souterraine", "stop_name": "Vierzon", "type": "Gare accessible", "transport": "intercite", "transport_legende": "\ud83d\udeb2 \u2764\ufe0f Train TER \ud83d\ude86"}, "geometry": {"type": "Point", "coordinates": [2.059869, 47.226474]}}, {"type": "Feature", "properties": {"start": "La Souterraine", "stop_name": "Paris Austerlitz", "type": "Gare accessible", "transport": "intercite", "transport_legende": "\ud83d\udeb2 \u2764\ufe0f Train TER \ud83d\ude86"}, "geometry": {"type": "Point", "coordinates": [2.364891, 48.842285]}}, {"type": "Feature", "properties": {"start": "La Souterraine", "stop_name": "Argenton-sur-Creuse", "type": "Gare accessible", "transport": "intercite", "transport_legende": "\ud83d\udeb2 \u2764\ufe0f Train TER \ud83d\ude86"}, "geometry": {"type": "Point", "coordinates": [1.518256, 46.59225]}}, {"type": "Feature", "properties": {"start": "La Souterraine", "stop_name": "Uzerche", "type": "Gare accessible", "transport": "intercite", "transport_legende": "\ud83d\udeb2 \u2764\ufe0f Train TER \ud83d\ude86"}, "geometry": {"type": "Point", "coordinates": [1.570272, 45.440654]}}, {"type": "Feature", "properties": {"start": "La Souterraine", "stop_name": "Les Aubrais", "type": "Gare accessible", "transport": "intercite", "transport_legende": "\ud83d\udeb2 \u2764\ufe0f Train TER \ud83d\ude86"}, "geometry": {"type": "Point", "coordinates": [1.906629, 47.926801]}}, {"type": "Feature", "properties": {"start": "La Souterraine", "stop_name": "Souillac", "type": "Gare accessible", "transport": "intercite", "transport_legende": "\ud83d\udeb2 \u2764\ufe0f Train TER \ud83d\ude86"}, "geometry": {"type": "Point", "coordinates": [1.466605, 44.902127]}}, {"type": "Feature", "properties": {"start": "La Souterraine", "stop_name": "Gourdon", "type": "Gare accessible", "transport": "intercite", "transport_legende": "\ud83d\udeb2 \u2764\ufe0f Train TER \ud83d\ude86"}, "geometry": {"type": "Point", "coordinates": [1.389264, 44.741933]}}, {"type": "Feature", "properties": {"start": "La Souterraine", "stop_name": "Cahors", "type": "Gare accessible", "transport": "intercite", "transport_legende": "\ud83d\udeb2 \u2764\ufe0f Train TER \ud83d\ude86"}, "geometry": {"type": "Point", "coordinates": [1.433325, 44.449275]}}, {"type": "Feature", "properties": {"start": "La Souterraine", "stop_name": "Montauban Ville Bourbon", "type": "Gare accessible", "transport": "intercite", "transport_legende": "\ud83d\udeb2 \u2764\ufe0f Train TER \ud83d\ude86"}, "geometry": {"type": "Point", "coordinates": [1.341499, 44.01444]}}, {"type": "Feature", "properties": {"start": "La Souterraine", "stop_name": "Toulouse Matabiau", "type": "Gare accessible", "transport": "intercite", "transport_legende": "\ud83d\udeb2 \u2764\ufe0f Train TER \ud83d\ude86"}, "geometry": {"type": "Point", "coordinates": [1.453616, 43.611206]}}, {"type": "Feature", "properties": {"start": "La Souterraine", "stop_name": "Caussade", "type": "Gare accessible", "transport": "intercite", "transport_legende": "\ud83d\udeb2 \u2764\ufe0f Train TER \ud83d\ude86"}, "geometry": {"type": "Point", "coordinates": [1.533667, 44.162244]}}]}