{"type": "FeatureCollection", "features": [{"type": "Feature", "properties": {"start": "Les Aubrais", "stop_name": "Les Aubrais", "type": "Gare s\u00e9lectionn\u00e9e", "transport": "intercite", "transport_legende": "\ud83d\udeb2 \u2764\ufe0f Train TER \ud83d\ude86"}, "geometry": {"type": "Point", "coordinates": [1.906629, 47.926801]}}, {"type": "Feature", "properties": {"start": "Les Aubrais", "stop_name": "Paris Austerlitz", "type": "Gare accessible", "transport": "intercite", "transport_legende": "\ud83d\udeb2 \u2764\ufe0f Train TER \ud83d\ude86"}, "geometry": {"type": "Point", "coordinates": [2.364891, 48.842285]}}, {"type": "Feature", "properties": {"start": "Les Aubrais", "stop_name": "Vierzon", "type": "Gare accessible", "transport": "intercite", "transport_legende": "\ud83d\udeb2 \u2764\ufe0f Train TER \ud83d\ude86"}, "geometry": {"type": "Point", "coordinates": [2.059869, 47.226474]}}, {"type": "Feature", "properties": {"start": "Les Aubrais", "stop_name": "Ch\u00e2teauroux", "type": "Gare accessible", "transport": "intercite", "transport_legende": "\ud83d\udeb2 \u2764\ufe0f Train TER \ud83d\ude86"}, "geometry": {"type": "Point", "coordinates": [1.699483, 46.809812]}}, {"type": "Feature", "properties": {"start": "Les Aubrais", "stop_name": "Limoges B\u00e9n\u00e9dictins", "type": "Gare accessible", "transport": "intercite", "transport_legende": "\ud83d\udeb2 \u2764\ufe0f Train TER \ud83d\ude86"}, "geometry": {"type": "Point", "coordinates": [1.267419, 45.836207]}}, {"type": "Feature", "properties": {"start": "Les Aubrais", "stop_name": "Brive-la-Gaillarde", "type": "Gare accessible", "transport": "intercite", "transport_legende": "\ud83d\udeb2 \u2764\ufe0f Train TER \ud83d\ude86"}, "geometry": {"type": "Point", "coordinates": [1.528634, 45.152601]}}, {"type": "Feature", "properties": {"start": "Les Aubrais", "stop_name": "Souillac", "type": "Gare accessible", "transport": "intercite", "transport_legende": "\ud83d\udeb2 \u2764\ufe0f Train TER \ud83d\ude86"}, "geometry": {"type": "Point", "coordinates": [1.466605, 44.902127]}}, {"type": "Feature", "properties": {"start": "Les Aubrais", "stop_name": "Gourdon", "type": "Gare accessible", "transport": "intercite", "transport_legende": "\ud83d\udeb2 \u2764\ufe0f Train TER \ud83d\ude86"}, "geometry": {"type": "Point", "coordinates": [1.389264, 44.741933]}}, {"type": "Feature", "properties": {"start": "Les Aubrais", "stop_name": "Cahors", "type": "Gare accessible", "transport": "intercite", "transport_legende": "\ud83d\udeb2 \u2764\ufe0f Train TER \ud83d\ude86"}, "geometry": {"type": "Point", "coordinates": [1.433325, 44.449275]}}, {"type": "Feature", "properties": {"start": "Les Aubrais", "stop_name": "Caussade", "type": "Gare accessible", "transport": "intercite", "transport_legende": "\ud83d\udeb2 \u2764\ufe0f Train TER \ud83d\ude86"}, "geometry": {"type": "Point", "coordinates": [1.533667, 44.162244]}}, {"type": "Feature", "properties": {"start": "Les Aubrais", "stop_name": "Montauban Ville Bourbon", "type": "Gare accessible", "transport": "intercite", "transport_legende": "\ud83d\udeb2 \u2764\ufe0f Train TER \ud83d\ude86"}, "geometry": {"type": "Point", "coordinates": [1.341499, 44.01444]}}, {"type": "Feature", "properties": {"start": "Les Aubrais", "stop_name": "Toulouse Matabiau", "type": "Gare accessible", "transport": "intercite", "transport_legende": "\ud83d\udeb2 \u2764\ufe0f Train TER \ud83d\ude86"}, "geometry": {"type": "Point", "coordinates": [1.453616, 43.611206]}}, {"type": "Feature", "properties": {"start": "Les Aubrais", "stop_name": "La Souterraine", "type": "Gare accessible", "transport": "intercite", "transport_legende": "\ud83d\udeb2 \u2764\ufe0f Train TER \ud83d\ude86"}, "geometry": {"type": "Point", "coordinates": [1.492207, 46.239782]}}, {"type": "Feature", "properties": {"start": "Les Aubrais", "stop_name": "Argenton-sur-Creuse", "type": "Gare accessible", "transport": "intercite", "transport_legende": "\ud83d\udeb2 \u2764\ufe0f Train TER \ud83d\ude86"}, "geometry": {"type": "Point", "coordinates": [1.518256, 46.59225]}}, {"type": "Feature", "properties": {"start": "Les Aubrais", "stop_name": "Uzerche", "type": "Gare accessible", "transport": "intercite", "transport_legende": "\ud83d\udeb2 \u2764\ufe0f Train TER \ud83d\ude86"}, "geometry": {"type": "Point", "coordinates": [1.570272, 45.440654]}}, {"type": "Feature", "properties": {"start": "Les Aubrais", "stop_name": "Cerb\u00e8re", "type": "Gare accessible", "transport": "intercite", "transport_legende": "\ud83d\udeb2 \u2764\ufe0f Train TER \ud83d\ude86"}, "geometry": {"type": "Point", "coordinates": [3.163403, 42.441773]}}, {"type": "Feature", "properties": {"start": "Les Aubrais", "stop_name": "Banyuls-sur-Mer", "type": "Gare accessible", "transport": "intercite", "transport_legende": "\ud83d\udeb2 \u2764\ufe0f Train TER \ud83d\ude86"}, "geometry": {"type": "Point", "coordinates": [3.12505, 42.482958]}}, {"type": "Feature", "properties": {"start": "Les Aubrais", "stop_name": "Port-Vendres", "type": "Gare accessible", "transport": "intercite", "transport_legende": "\ud83d\udeb2 \u2764\ufe0f Train TER \ud83d\ude86"}, "geometry": {"type": "Point", "coordinates": [3.102576, 42.513608]}}, {"type": "Feature", "properties": {"start": "Les Aubrais", "stop_name": "Collioure", "type": "Gare accessible", "transport": "intercite", "transport_legende": "\ud83d\udeb2 \u2764\ufe0f Train TER \ud83d\ude86"}, "geometry": {"type": "Point", "coordinates": [3.078202, 42.526928]}}, {"type": "Feature", "properties": {"start": "Les Aubrais", "stop_name": "Argel\u00e8s-sur-Mer", "type": "Gare accessible", "transport": "intercite", "transport_legende": "\ud83d\udeb2 \u2764\ufe0f Train TER \ud83d\ude86"}, "geometry": {"type": "Point", "coordinates": [3.021919, 42.543908]}}, {"type": "Feature", "properties": {"start": "Les Aubrais", "stop_name": "Elne", "type": "Gare accessible", "transport": "intercite", "transport_legende": "\ud83d\udeb2 \u2764\ufe0f Train TER \ud83d\ude86"}, "geometry": {"type": "Point", "coordinates": [2.963585, 42.597114]}}, {"type": "Feature", "properties": {"start": "Les Aubrais", "stop_name": "Perpignan", "type": "Gare accessible", "transport": "intercite", "transport_legende": "\ud83d\udeb2 \u2764\ufe0f Train TER \ud83d\ude86"}, "geometry": {"type": "Point", "coordinates": [2.879355, 42.696096]}}, {"type": "Feature", "properties": {"start": "Les Aubrais", "stop_name": "Narbonne", "type": "Gare accessible", "transport": "intercite", "transport_legende": "\ud83d\udeb2 \u2764\ufe0f Train TER \ud83d\ude86"}, "geometry": {"type": "Point", "coordinates": [3.005667, 43.190618]}}, {"type": "Feature", "properties": {"start": "Les Aubrais", "stop_name": "L\u00e9zignan-Corbi\u00e8res", "type": "Gare accessible", "transport": "intercite", "transport_legende": "\ud83d\udeb2 \u2764\ufe0f Train TER \ud83d\ude86"}, "geometry": {"type": "Point", "coordinates": [2.769139, 43.199956]}}, {"type": "Feature", "properties": {"start": "Les Aubrais", "stop_name": "Carcassonne", "type": "Gare accessible", "transport": "intercite", "transport_legende": "\ud83d\udeb2 \u2764\ufe0f Train TER \ud83d\ude86"}, "geometry": {"type": "Point", "coordinates": [2.351824, 43.218029]}}, {"type": "Feature", "properties": {"start": "Les Aubrais", "stop_name": "Castelnaudary", "type": "Gare accessible", "transport": "intercite", "transport_legende": "\ud83d\udeb2 \u2764\ufe0f Train TER \ud83d\ude86"}, "geometry": {"type": "Point", "coordinates": [1.95039, 43.312292]}}, {"type": "Feature", "properties": {"start": "Les Aubrais", "stop_name": "Lourdes", "type": "Gare accessible", "transport": "intercite", "transport_legende": "\ud83d\udeb2 \u2764\ufe0f Train TER \ud83d\ude86"}, "geometry": {"type": "Point", "coordinates": [-0.042186, 43.100429]}}, {"type": "Feature", "properties": {"start": "Les Aubrais", "stop_name": "Tarbes", "type": "Gare accessible", "transport": "intercite", "transport_legende": "\ud83d\udeb2 \u2764\ufe0f Train TER \ud83d\ude86"}, "geometry": {"type": "Point", "coordinates": [0.069442, 43.239863]}}, {"type": "Feature", "properties": {"start": "Les Aubrais", "stop_name": "Albi Ville", "type": "Gare accessible", "transport": "intercite", "transport_legende": "\ud83d\udeb2 \u2764\ufe0f Train TER \ud83d\ude86"}, "geometry": {"type": "Point", "coordinates": [2.137958, 43.92238]}}, {"type": "Feature", "properties": {"start": "Les Aubrais", "stop_name": "Albi Madeleine", "type": "Gare accessible", "transport": "intercite", "transport_legende": "\ud83d\udeb2 \u2764\ufe0f Train TER \ud83d\ude86"}, "geometry": {"type": "Point", "coordinates": [2.141209, 43.938137]}}, {"type": "Feature", "properties": {"start": "Les Aubrais", "stop_name": "Carmaux", "type": "Gare accessible", "transport": "intercite", "transport_legende": "\ud83d\udeb2 \u2764\ufe0f Train TER \ud83d\ude86"}, "geometry": {"type": "Point", "coordinates": [2.152401, 44.048782]}}, {"type": "Feature", "properties": {"start": "Les Aubrais", "stop_name": "Rodez", "type": "Gare accessible", "transport": "intercite", "transport_legende": "\ud83d\udeb2 \u2764\ufe0f Train TER \ud83d\ude86"}, "geometry": {"type": "Point", "coordinates": [2.58056, 44.362633]}}, {"type": "Feature", "properties": {"start": "Les Aubrais", "stop_name": "Saint-Christophe", "type": "Gare accessible", "transport": "intercite", "transport_legende": "\ud83d\udeb2 \u2764\ufe0f Train TER \ud83d\ude86"}, "geometry": {"type": "Point", "coordinates": [2.407758, 44.464619]}}, {"type": "Feature", "properties": {"start": "Les Aubrais", "stop_name": "Cransac", "type": "Gare accessible", "transport": "intercite", "transport_legende": "\ud83d\udeb2 \u2764\ufe0f Train TER \ud83d\ude86"}, "geometry": {"type": "Point", "coordinates": [2.271867, 44.522951]}}, {"type": "Feature", "properties": {"start": "Les Aubrais", "stop_name": "Aubin", "type": "Gare accessible", "transport": "intercite", "transport_legende": "\ud83d\udeb2 \u2764\ufe0f Train TER \ud83d\ude86"}, "geometry": {"type": "Point", "coordinates": [2.239313, 44.527276]}}, {"type": "Feature", "properties": {"start": "Les Aubrais", "stop_name": "Viviez - Decazeville", "type": "Gare accessible", "transport": "intercite", "transport_legende": "\ud83d\udeb2 \u2764\ufe0f Train TER \ud83d\ude86"}, "geometry": {"type": "Point", "coordinates": [2.218258, 44.555568]}}, {"type": "Feature", "properties": {"start": "Les Aubrais", "stop_name": "Capdenac", "type": "Gare accessible", "transport": "intercite", "transport_legende": "\ud83d\udeb2 \u2764\ufe0f Train TER \ud83d\ude86"}, "geometry": {"type": "Point", "coordinates": [2.077963, 44.578246]}}, {"type": "Feature", "properties": {"start": "Les Aubrais", "stop_name": "Figeac", "type": "Gare accessible", "transport": "intercite", "transport_legende": "\ud83d\udeb2 \u2764\ufe0f Train TER \ud83d\ude86"}, "geometry": {"type": "Point", "coordinates": [2.037355, 44.603515]}}, {"type": "Feature", "properties": {"start": "Les Aubrais", "stop_name": "Assier", "type": "Gare accessible", "transport": "intercite", "transport_legende": "\ud83d\udeb2 \u2764\ufe0f Train TER \ud83d\ude86"}, "geometry": {"type": "Point", "coordinates": [1.869757, 44.67468]}}, {"type": "Feature", "properties": {"start": "Les Aubrais", "stop_name": "Gramat", "type": "Gare accessible", "transport": "intercite", "transport_legende": "\ud83d\udeb2 \u2764\ufe0f Train TER \ud83d\ude86"}, "geometry": {"type": "Point", "coordinates": [1.722343, 44.773549]}}, {"type": "Feature", "properties": {"start": "Les Aubrais", "stop_name": "Rocamadour - Padirac", "type": "Gare accessible", "transport": "intercite", "transport_legende": "\ud83d\udeb2 \u2764\ufe0f Train TER \ud83d\ude86"}, "geometry": {"type": "Point", "coordinates": [1.657104, 44.818243]}}, {"type": "Feature", "properties": {"start": "Les Aubrais", "stop_name": "Saint-Denis-Pr\u00e8s-Martel", "type": "Gare accessible", "transport": "intercite", "transport_legende": "\ud83d\udeb2 \u2764\ufe0f Train TER \ud83d\ude86"}, "geometry": {"type": "Point", "coordinates": [1.666238, 44.946029]}}, {"type": "Feature", "properties": {"start": "Les Aubrais", "stop_name": "Latour-de-Carol - Enveitg", "type": "Gare accessible", "transport": "intercite", "transport_legende": "\ud83d\udeb2 \u2764\ufe0f Train TER \ud83d\ude86"}, "geometry": {"type": "Point", "coordinates": [1.904433, 42.458991]}}, {"type": "Feature", "properties": {"start": "Les Aubrais", "stop_name": "Port\u00e9-Puymorens", "type": "Gare accessible", "transport": "intercite", "transport_legende": "\ud83d\udeb2 \u2764\ufe0f Train TER \ud83d\ude86"}, "geometry": {"type": "Point", "coordinates": [1.824852, 42.538781]}}, {"type": "Feature", "properties": {"start": "Les Aubrais", "stop_name": "Andorre l'Hospitalet", "type": "Gare accessible", "transport": "intercite", "transport_legende": "\ud83d\udeb2 \u2764\ufe0f Train TER \ud83d\ude86"}, "geometry": {"type": "Point", "coordinates": [1.800264, 42.589453]}}, {"type": "Feature", "properties": {"start": "Les Aubrais", "stop_name": "M\u00e9rens-les-Vals", "type": "Gare accessible", "transport": "intercite", "transport_legende": "\ud83d\udeb2 \u2764\ufe0f Train TER \ud83d\ude86"}, "geometry": {"type": "Point", "coordinates": [1.837128, 42.659488]}}, {"type": "Feature", "properties": {"start": "Les Aubrais", "stop_name": "Ax-les-Thermes", "type": "Gare accessible", "transport": "intercite", "transport_legende": "\ud83d\udeb2 \u2764\ufe0f Train TER \ud83d\ude86"}, "geometry": {"type": "Point", "coordinates": [1.833295, 42.724841]}}, {"type": "Feature", "properties": {"start": "Les Aubrais", "stop_name": "Les Cabannes", "type": "Gare accessible", "transport": "intercite", "transport_legende": "\ud83d\udeb2 \u2764\ufe0f Train TER \ud83d\ude86"}, "geometry": {"type": "Point", "coordinates": [1.686299, 42.786285]}}, {"type": "Feature", "properties": {"start": "Les Aubrais", "stop_name": "Tarascon-sur-Ari\u00e8ge", "type": "Gare accessible", "transport": "intercite", "transport_legende": "\ud83d\udeb2 \u2764\ufe0f Train TER \ud83d\ude86"}, "geometry": {"type": "Point", "coordinates": [1.600042, 42.849498]}}, {"type": "Feature", "properties": {"start": "Les Aubrais", "stop_name": "Foix", "type": "Gare accessible", "transport": "intercite", "transport_legende": "\ud83d\udeb2 \u2764\ufe0f Train TER \ud83d\ude86"}, "geometry": {"type": "Point", "coordinates": [1.60704, 42.969707]}}, {"type": "Feature", "properties": {"start": "Les Aubrais", "stop_name": "Pamiers", "type": "Gare accessible", "transport": "intercite", "transport_legende": "\ud83d\udeb2 \u2764\ufe0f Train TER \ud83d\ude86"}, "geometry": {"type": "Point", "coordinates": [1.619451, 43.116207]}}, {"type": "Feature", "properties": {"start": "Les Aubrais", "stop_name": "Saverdun", "type": "Gare accessible", "transport": "intercite", "transport_legende": "\ud83d\udeb2 \u2764\ufe0f Train TER \ud83d\ude86"}, "geometry": {"type": "Point", "coordinates": [1.570636, 43.239335]}}, {"type": "Feature", "properties": {"start": "Les Aubrais", "stop_name": "Auterive", "type": "Gare accessible", "transport": "intercite", "transport_legende": "\ud83d\udeb2 \u2764\ufe0f Train TER \ud83d\ude86"}, "geometry": {"type": "Point", "coordinates": [1.468831, 43.348993]}}, {"type": "Feature", "properties": {"start": "Les Aubrais", "stop_name": "Luzenac - Garanou", "type": "Gare accessible", "transport": "intercite", "transport_legende": "\ud83d\udeb2 \u2764\ufe0f Train TER \ud83d\ude86"}, "geometry": {"type": "Point", "coordinates": [1.753416, 42.764472]}}, {"type": "Feature", "properties": {"start": "Les Aubrais", "stop_name": "Nantes", "type": "Gare accessible", "transport": "intercite", "transport_legende": "\ud83d\udeb2 \u2764\ufe0f Train TER \ud83d\ude86"}, "geometry": {"type": "Point", "coordinates": [-1.542077, 47.217491]}}, {"type": "Feature", "properties": {"start": "Les Aubrais", "stop_name": "Angers Saint-Laud", "type": "Gare accessible", "transport": "intercite", "transport_legende": "\ud83d\udeb2 \u2764\ufe0f Train TER \ud83d\ude86"}, "geometry": {"type": "Point", "coordinates": [-0.55677, 47.464649]}}, {"type": "Feature", "properties": {"start": "Les Aubrais", "stop_name": "Saumur", "type": "Gare accessible", "transport": "intercite", "transport_legende": "\ud83d\udeb2 \u2764\ufe0f Train TER \ud83d\ude86"}, "geometry": {"type": "Point", "coordinates": [-0.071403, 47.268994]}}, {"type": "Feature", "properties": {"start": "Les Aubrais", "stop_name": "Saint-Pierre-des-Corps", "type": "Gare accessible", "transport": "intercite", "transport_legende": "\ud83d\udeb2 \u2764\ufe0f Train TER \ud83d\ude86"}, "geometry": {"type": "Point", "coordinates": [0.723539, 47.38614]}}, {"type": "Feature", "properties": {"start": "Les Aubrais", "stop_name": "Blois - Chambord", "type": "Gare accessible", "transport": "intercite", "transport_legende": "\ud83d\udeb2 \u2764\ufe0f Train TER \ud83d\ude86"}, "geometry": {"type": "Point", "coordinates": [1.323759, 47.585449]}}, {"type": "Feature", "properties": {"start": "Les Aubrais", "stop_name": "Juvisy", "type": "Gare accessible", "transport": "intercite", "transport_legende": "\ud83d\udeb2 \u2764\ufe0f Train TER \ud83d\ude86"}, "geometry": {"type": "Point", "coordinates": [2.38267, 48.68917]}}]}