{"type": "FeatureCollection", "features": [{"type": "Feature", "properties": {"start": "Montr\u00e9jeau - Gourdan-Polignan", "stop_name": "Montr\u00e9jeau - Gourdan-Polignan", "type": "Gare s\u00e9lectionn\u00e9e", "transport": "intercite", "transport_legende": "\ud83d\udeb2 \u2764\ufe0f Intercit\u00e9 \ud83d\ude86"}, "geometry": {"type": "Point", "coordinates": [0.57359, 43.078085]}}, {"type": "Feature", "properties": {"start": "Montr\u00e9jeau - Gourdan-Polignan", "stop_name": "Toulouse Matabiau", "type": "Gare accessible", "transport": "intercite", "transport_legende": "\ud83d\udeb2 \u2764\ufe0f Intercit\u00e9 \ud83d\ude86"}, "geometry": {"type": "Point", "coordinates": [1.453616, 43.611206]}}, {"type": "Feature", "properties": {"start": "Montr\u00e9jeau - Gourdan-Polignan", "stop_name": "Tarbes", "type": "Gare accessible", "transport": "intercite", "transport_legende": "\ud83d\udeb2 \u2764\ufe0f Intercit\u00e9 \ud83d\ude86"}, "geometry": {"type": "Point", "coordinates": [0.069442, 43.239863]}}, {"type": "Feature", "properties": {"start": "Montr\u00e9jeau - Gourdan-Polignan", "stop_name": "Lourdes", "type": "Gare accessible", "transport": "intercite", "transport_legende": "\ud83d\udeb2 \u2764\ufe0f Intercit\u00e9 \ud83d\ude86"}, "geometry": {"type": "Point", "coordinates": [-0.042186, 43.100429]}}, {"type": "Feature", "properties": {"start": "Montr\u00e9jeau - Gourdan-Polignan", "stop_name": "Pau", "type": "Gare accessible", "transport": "intercite", "transport_legende": "\ud83d\udeb2 \u2764\ufe0f Intercit\u00e9 \ud83d\ude86"}, "geometry": {"type": "Point", "coordinates": [-0.369675, 43.291711]}}, {"type": "Feature", "properties": {"start": "Montr\u00e9jeau - Gourdan-Polignan", "stop_name": "Orthez", "type": "Gare accessible", "transport": "intercite", "transport_legende": "\ud83d\udeb2 \u2764\ufe0f Intercit\u00e9 \ud83d\ude86"}, "geometry": {"type": "Point", "coordinates": [-0.76776, 43.484242]}}, {"type": "Feature", "properties": {"start": "Montr\u00e9jeau - Gourdan-Polignan", "stop_name": "Bayonne", "type": "Gare accessible", "transport": "intercite", "transport_legende": "\ud83d\udeb2 \u2764\ufe0f Intercit\u00e9 \ud83d\ude86"}, "geometry": {"type": "Point", "coordinates": [-1.470368, 43.496793]}}, {"type": "Feature", "properties": {"start": "Montr\u00e9jeau - Gourdan-Polignan", "stop_name": "Hendaye", "type": "Gare accessible", "transport": "intercite", "transport_legende": "\ud83d\udeb2 \u2764\ufe0f Intercit\u00e9 \ud83d\ude86"}, "geometry": {"type": "Point", "coordinates": [-1.781724, 43.353132]}}, {"type": "Feature", "properties": {"start": "Montr\u00e9jeau - Gourdan-Polignan", "stop_name": "Saint-Jean-de-Luz - Ciboure", "type": "Gare accessible", "transport": "intercite", "transport_legende": "\ud83d\udeb2 \u2764\ufe0f Intercit\u00e9 \ud83d\ude86"}, "geometry": {"type": "Point", "coordinates": [-1.661181, 43.385862]}}, {"type": "Feature", "properties": {"start": "Montr\u00e9jeau - Gourdan-Polignan", "stop_name": "Biarritz", "type": "Gare accessible", "transport": "intercite", "transport_legende": "\ud83d\udeb2 \u2764\ufe0f Intercit\u00e9 \ud83d\ude86"}, "geometry": {"type": "Point", "coordinates": [-1.545937, 43.459387]}}]}