{"type": "FeatureCollection", "features": [{"type": "Feature", "properties": {"start": "Perpignan", "stop_name": "Perpignan", "type": "Gare s\u00e9lectionn\u00e9e", "transport": "intercite", "nombre_trajet_moyen": 0.46, "transport_legende": "\ud83d\udeb2 \u2764\ufe0f Intercit\u00e9 \ud83d\ude86"}, "geometry": {"type": "Point", "coordinates": [2.879355, 42.696096]}}, {"type": "Feature", "properties": {"start": "Perpignan", "stop_name": "Cerb\u00e8re", "type": "Gare accessible", "transport": "intercite", "nombre_trajet_moyen": 0.46, "transport_legende": "\ud83d\udeb2 \u2764\ufe0f Intercit\u00e9 \ud83d\ude86"}, "geometry": {"type": "Point", "coordinates": [3.163403, 42.441773]}}, {"type": "Feature", "properties": {"start": "Perpignan", "stop_name": "Banyuls-sur-Mer", "type": "Gare accessible", "transport": "intercite", "nombre_trajet_moyen": 0.46, "transport_legende": "\ud83d\udeb2 \u2764\ufe0f Intercit\u00e9 \ud83d\ude86"}, "geometry": {"type": "Point", "coordinates": [3.12505, 42.482958]}}, {"type": "Feature", "properties": {"start": "Perpignan", "stop_name": "Port-Vendres", "type": "Gare accessible", "transport": "intercite", "nombre_trajet_moyen": 0.46, "transport_legende": "\ud83d\udeb2 \u2764\ufe0f Intercit\u00e9 \ud83d\ude86"}, "geometry": {"type": "Point", "coordinates": [3.102576, 42.513608]}}, {"type": "Feature", "properties": {"start": "Perpignan", "stop_name": "Collioure", "type": "Gare accessible", "transport": "intercite", "nombre_trajet_moyen": 0.46, "transport_legende": "\ud83d\udeb2 \u2764\ufe0f Intercit\u00e9 \ud83d\ude86"}, "geometry": {"type": "Point", "coordinates": [3.078202, 42.526928]}}, {"type": "Feature", "properties": {"start": "Perpignan", "stop_name": "Argel\u00e8s-sur-Mer", "type": "Gare accessible", "transport": "intercite", "nombre_trajet_moyen": 0.46, "transport_legende": "\ud83d\udeb2 \u2764\ufe0f Intercit\u00e9 \ud83d\ude86"}, "geometry": {"type": "Point", "coordinates": [3.021919, 42.543908]}}, {"type": "Feature", "properties": {"start": "Perpignan", "stop_name": "Elne", "type": "Gare accessible", "transport": "intercite", "nombre_trajet_moyen": 0.46, "transport_legende": "\ud83d\udeb2 \u2764\ufe0f Intercit\u00e9 \ud83d\ude86"}, "geometry": {"type": "Point", "coordinates": [2.963585, 42.597114]}}, {"type": "Feature", "properties": {"start": "Perpignan", "stop_name": "Narbonne", "type": "Gare accessible", "transport": "intercite", "nombre_trajet_moyen": 0.46, "transport_legende": "\ud83d\udeb2 \u2764\ufe0f Intercit\u00e9 \ud83d\ude86"}, "geometry": {"type": "Point", "coordinates": [3.005667, 43.190618]}}, {"type": "Feature", "properties": {"start": "Perpignan", "stop_name": "L\u00e9zignan-Corbi\u00e8res", "type": "Gare accessible", "transport": "intercite", "nombre_trajet_moyen": 0.46, "transport_legende": "\ud83d\udeb2 \u2764\ufe0f Intercit\u00e9 \ud83d\ude86"}, "geometry": {"type": "Point", "coordinates": [2.769139, 43.199956]}}, {"type": "Feature", "properties": {"start": "Perpignan", "stop_name": "Carcassonne", "type": "Gare accessible", "transport": "intercite", "nombre_trajet_moyen": 0.46, "transport_legende": "\ud83d\udeb2 \u2764\ufe0f Intercit\u00e9 \ud83d\ude86"}, "geometry": {"type": "Point", "coordinates": [2.351824, 43.218029]}}, {"type": "Feature", "properties": {"start": "Perpignan", "stop_name": "Castelnaudary", "type": "Gare accessible", "transport": "intercite", "nombre_trajet_moyen": 0.46, "transport_legende": "\ud83d\udeb2 \u2764\ufe0f Intercit\u00e9 \ud83d\ude86"}, "geometry": {"type": "Point", "coordinates": [1.95039, 43.312292]}}, {"type": "Feature", "properties": {"start": "Perpignan", "stop_name": "Toulouse Matabiau", "type": "Gare accessible", "transport": "intercite", "nombre_trajet_moyen": 0.19, "transport_legende": "\ud83d\udeb2 \u2764\ufe0f Intercit\u00e9 \ud83d\ude86"}, "geometry": {"type": "Point", "coordinates": [1.453616, 43.611206]}}, {"type": "Feature", "properties": {"start": "Perpignan", "stop_name": "Montauban Ville Bourbon", "type": "Gare accessible", "transport": "intercite", "nombre_trajet_moyen": 0.19, "transport_legende": "\ud83d\udeb2 \u2764\ufe0f Intercit\u00e9 \ud83d\ude86"}, "geometry": {"type": "Point", "coordinates": [1.341499, 44.01444]}}, {"type": "Feature", "properties": {"start": "Perpignan", "stop_name": "Les Aubrais", "type": "Gare accessible", "transport": "intercite", "nombre_trajet_moyen": 0.46, "transport_legende": "\ud83d\udeb2 \u2764\ufe0f Intercit\u00e9 \ud83d\ude86"}, "geometry": {"type": "Point", "coordinates": [1.906629, 47.926801]}}, {"type": "Feature", "properties": {"start": "Perpignan", "stop_name": "Paris Austerlitz", "type": "Gare accessible", "transport": "intercite", "nombre_trajet_moyen": 0.46, "transport_legende": "\ud83d\udeb2 \u2764\ufe0f Intercit\u00e9 \ud83d\ude86"}, "geometry": {"type": "Point", "coordinates": [2.364891, 48.842285]}}, {"type": "Feature", "properties": {"start": "Perpignan", "stop_name": "Caussade", "type": "Gare accessible", "transport": "intercite", "nombre_trajet_moyen": 0.05, "transport_legende": "\ud83d\udeb2 \u2764\ufe0f Intercit\u00e9 \ud83d\ude86"}, "geometry": {"type": "Point", "coordinates": [1.533667, 44.162244]}}, {"type": "Feature", "properties": {"start": "Perpignan", "stop_name": "Cahors", "type": "Gare accessible", "transport": "intercite", "nombre_trajet_moyen": 0.05, "transport_legende": "\ud83d\udeb2 \u2764\ufe0f Intercit\u00e9 \ud83d\ude86"}, "geometry": {"type": "Point", "coordinates": [1.433325, 44.449275]}}, {"type": "Feature", "properties": {"start": "Perpignan", "stop_name": "Gourdon", "type": "Gare accessible", "transport": "intercite", "nombre_trajet_moyen": 0.05, "transport_legende": "\ud83d\udeb2 \u2764\ufe0f Intercit\u00e9 \ud83d\ude86"}, "geometry": {"type": "Point", "coordinates": [1.389264, 44.741933]}}, {"type": "Feature", "properties": {"start": "Perpignan", "stop_name": "Souillac", "type": "Gare accessible", "transport": "intercite", "nombre_trajet_moyen": 0.05, "transport_legende": "\ud83d\udeb2 \u2764\ufe0f Intercit\u00e9 \ud83d\ude86"}, "geometry": {"type": "Point", "coordinates": [1.466605, 44.902127]}}]}